Clock:Tick#,Clock:offsetTime,IMU_ATTI(0):Longitude,IMU_ATTI(0):Latitude,IMU_ATTI(0):press:D,IMU_ATTI(0):alti:D,IMU_ATTI(0):relativeHeight:C,IMU_ATTI(0):absoluteHeight:C,IMU_ATTI(0):numSats,IMU_ATTI(0):roll:C,IMU_ATTI(0):pitch:C,IMU_ATTI(0):yaw:C,IMU_ATTI(0):accelX,IMU_ATTI(0):accelY,IMU_ATTI(0):accelZ,IMU_ATTI(0):accelComposite:C,IMU_ATTI(0):gyroX,IMU_ATTI(0):gyroY,IMU_ATTI(0):gyroZ,IMU_ATTI(0):gyroComposite:C,IMU_ATTI(0):velN,IMU_ATTI(0):velE,IMU_ATTI(0):velD,IMU_ATTI(0):velComposite:C,IMU_ATTI(0):velH:C,IMU_ATTI(0):magX,IMU_ATTI(0):magY,IMU_ATTI(0):magZ,IMU_ATTI(0):magMod:C,IMU_ATTI(0):temperature,IMU_ATTI(0):yawUnWrapped:C,IMU_ATTI(0):tiltInclination:C,IMU_ATTI(0):tiltDirectionEarthFrame:C,IMU_ATTI(0):tiltDirectionBodyFrame:C,IMU_ATTI(0):yaw360:C,IMU_ATTI(0):magYaw:C,IMU_ATTI(0):Yaw-magYaw:C,IMUCalcs(0):PosN:C,IMUCalcs(0):PosE:C,IMUCalcs(0):PosD:C,IMUCalcs(0):height:C,IMUCalcs(0):velN:C,IMUCalcs(0):velE:C,IMUCalcs(0):velD:C,IMUCalcs(0):diffVelN:C,IMUCalcs(0):diffVelE:C,IMUCalcs(0):diffVelD:C,IMUCalcs(0):Lat:C,IMUCalcs(0):Long:C,IMUCalcs(0):VelocityError:C,IMUCalcs(0):PositionError:C,IMUCalcs(0):totalGyroZ:C,IMUCalcs(0):totalGyroX:C,IMUCalcs(0):totalGyroY:C,IMU_ATTI(0):distanceHP:C,IMU_ATTI(0):distanceTravelled:C,IMU_ATTI(0):directionOfTravel[mag]:C,IMU_ATTI(0):directionOfTravel[true]:C,IMU_ATTI(0):quatW:D,IMU_ATTI(0):quatX:D,IMU_ATTI(0):quatY:D,IMU_ATTI(0):quatZ:D,IMU_ATTI(0):agX:D,IMU_ATTI(0):agY:D,IMU_ATTI(0):agZ:D,IMU_ATTI(0):gbX:D,IMU_ATTI(0):gbY:D,IMU_ATTI(0):gbZ:D,IMU_ATTI(0):ty:D,IMU_ATTI(0):tz:D,IMU_ATTI(0):sensor_stat:D,IMU_ATTI(0):filter_stat:D,IMU_ATTI(0):atti_cnt:D,GPS:Long,GPS:Lat,GPS:Date,GPS:Time,GPS:dateTimeStamp,GPS:heightMSL,GPS:hDOP,GPS:pDOP,GPS:sAcc,GPS:numGPS,GPS:numGLNAS,GPS:numSV,GPS:velN,GPS:velE,GPS:velD,GPS:rawDate,GPS:rawTime,Controller:ctrl_tick:D,Controller:ctrl_pitch:D,Controller:ctrl_roll:D,Controller:ctrl_yaw:D,Controller:ctrl_thr:D,Controller:ctrl_mode,Controller:mode_switch:D,Controller:motor_state:D,Controller:sig_level:D,Controller:ctrl_level:D,Controller:sim_model:D,Controller:max_height:D,Controller:max_radius:D,Controller:D2H_x:D,Controller:D2H_y:D,Controller:act_req_id:D,Controller:act_act_id:D,Controller:cmd_mod:D,Controller:mod_req_id:D,Controller:fw_flag:D,Controller:mot_sta:D,Controller:OH_take:D,Controller:OH_take_f:D,Controller:rc_cnt:D,Controller:sup_rc:D,Controller:is_soaring_up:D,Controller:soar_up_timer:D,Controller:vert_vel_err:D,Controller:vert_vel_err_fltr:D,RC_Info:failSafe,RC_Info:dataLost,RC_Info:appLost,RC_Info:sigStrength:C,RC_Info:cur_cmd:D,RC_Info:vedio_lost:D,RC_Info:frame_lost:D,RC_Info:rec_cnt:D,RC_Info:sky_con:D,RC_Info:gnd_con:D,RC_Info:connected:D,RC_Info:m_changed:D,RC_Info:arm_status:D,RC_Info:wifi_en:D,RC_Info:in_wifi:D,MagCali(0):X:D,MagCali(0):Y:D,MagCali(0):Z:D,MagCali(0):Mod:C,MagCali(0):magYaw:C,MagCali(1):X:D,MagCali(1):Y:D,MagCali(1):Z:D,MagCali(1):Mod:C,MagCali(1):magYaw:C,CompassFilter(0):X:D,CompassFilter(0):Y:D,CompassFilter(0):Z:D,CompassFilter(1):X:D,CompassFilter(1):Y:D,CompassFilter(1):Z:D,BatteryStatus:not_ready,BatteryStatus:comm_err,BatteryStatus:first_auth,BatteryStatus:auth_fail,BatteryStatus:need_re,BatteryStatus:volVerylow,BatteryStatus:volNotsafe,BatteryStatus:volLevel1:D,BatteryStatus:vollevel2:D,BatteryStatus:capLevel1:D,BatteryStatus:capLevel2:D,BatteryStatus:smartCap1:D,BatteryStatus:smartCap2:D,BatteryStatus:d_flg:D,BatteryStatus:ccsc:D,BatteryStatus:all:D,SMART_BATT:goHome%,SMART_BATT:land%,SMART_BATT:goHomeTime,SMART_BATT:landTime,OA:avoidObst,OA:emergBrake,OA:radiusLimit,OA:airportLimit,OA:groundForceLanding,OA:horizNearBoundary,OA:vertLowLimit,OA:vertAirportLimit,OA:roofLimit,OA:hitGroundLimit,OA:frontDistance,MVO:velX,MVO:velY,MVO:velZ,MVO:posX,MVO:posY,MVO:posZ,MVO:hoverPointUncertainty1,MVO:hoverPointUncertainty2,MVO:hoverPointUncertainty3,MVO:hoverPointUncertainty4,MVO:hoverPointUncertainty5,MVO:hoverPointUncertainty6,MVO:velocityUncertainty1,MVO:velocityUncertainty2,MVO:velocityUncertainty3,MVO:velocityUncertainty4,MVO:velocityUncertainty5,MVO:velocityUncertainty6,MVO:height,MVO:heightUncertainty,Motor:Speed:RFront,Motor:Speed:LFront,Motor:Speed:LBack,Motor:Speed:RBack,Motor:EscTemp:RFront,Motor:EscTemp:LFront,Motor:EscTemp:LBack,Motor:EscTemp:RBack,Motor:PPMrecv:RFront,Motor:PPMrecv:LFront,Motor:PPMrecv:LBack,Motor:PPMrecv:RBack,Motor:PPMsend:RFront,Motor:PPMsend:LFront,Motor:PPMsend:LBack,Motor:PPMsend:RBack,Motor:V_out:RFront,Motor:V_out:LFront,Motor:V_out:LBack,Motor:V_out:RBack,Motor:Volts:RFront,Motor:Volts:LFront,Motor:Volts:LBack,Motor:Volts:RBack,Motor:Current:RFront,Motor:Current:LFront,Motor:Current:LBack,Motor:Current:RBack,Motor:Status:RFront,Motor:Status:LFront,Motor:Status:LBack,Motor:Status:RBack,AirSpeed:air_vbx:D,AirSpeed:air_vby:D,AirSpeed:comp_alti:D,AirSpeed:windSpeed,AirSpeed:windDirection,AirSpeed:windFromDir,AirSpeed:windN,AirSpeed:windE,AirSpeed:MotorSpd:D,AirSpeed:vel_level:D,eventLog,osd_data:flyCState,osd_data:flycCommand,osd_data:flightAction,osd_data:nonGPSCause,osd_data:compassError,osd_data:connectedToRC,osd_data:lowVoltage,osd_data:ModeSwitch,osd_data:gpsUsed,osd_data:visionUsed,osd_data:notEnoughForce,osd_data:flightTime,osd_data:navHealth,osd_data:vpsHeight,osd_data:relativeHeight,usonic:usonic_h,MotorCtrl:PWM:RFront,MotorCtrl:PWM:LFront,MotorCtrl:PWM:LBack,MotorCtrl:PWM:RBack,ATTI_MINI0:s_qw0,ATTI_MINI0:s_qx0,ATTI_MINI0:s_qy0,ATTI_MINI0:s_qz0,ATTI_MINI0:roll:C,ATTI_MINI0:pitch:C,ATTI_MINI0:yaw:C,ATTI_MINI0:s_pgz0,ATTI_MINI0:s_vgz0,ATTI_MINI0:s_agz0,ATTI_MINI0:s_rsv00,ATTI_MINI0:s_rsv10,ATTI_MINI0:s_cnt0,BatteryInfo:ad_v:D,BatteryInfo:r_time,BatteryInfo:ave_I:D,BatteryInfo:vol_t:D,BatteryInfo:pack_ve:D,BatteryInfo:I:D,BatteryInfo:r_cap:D,BatteryInfo:cap_per:D,BatteryInfo:temp:D,BatteryInfo:right:D,BatteryInfo:l_cell:D,BatteryInfo:dyna_cnt:D,BatteryInfo:f_cap:D,BatteryInfo:out_ctl:D,BatteryInfo:out_ctl_f:D,Attribute|Value,ConvertDatV3,4.3.0
0,-17.725,,,,,,,,,,,,,,,,,,,,,,,,,,,,,,,,,,,,,,,,,,,,,,,,,,,,,,,,,,,,,,,,,,,,,,,,,,,,,,,,,,,,,,,,,,,,,,,,,,,,,,,,,,,,,,,,,,,,,,,,,,,,,,,,,,,,,,,,,,,,,,,,,,,,,,,,,,,,,,,,,,,,,,,,,,,,,,,,,,,,,,,,,,,,,,,,,,,,,,,,,,,,,,,,,,,,,,,,,,,,,,,,,,,,,,,,,,,,,,,,,,,,,,,,,,,,,,,,,,,,,,,,,,,,,,,,,,,,,,,,,,,,,,,,,,
78874566,-.197,,,-28.030159,-28.870642,,,0,-0.43053176969243795,1.8862443683120182,175.3301097205052,0.032679364,0.007417442,-0.9983147,0.9988769,0.050592665,-0.014755957,-0.0823129,0.097738266,0.0010704946,-5.044224E-4,0.0022788271,0.0025677723,0.0011833852795395678,-455,-47,1514,1581.0,58.96,175.3301097205052,1.9346854303114207,8.183249571996727,-167.14686014850847,175.33010972050522,174.9722964956762,-0.3578132248289876,0.0,0.0,0.0,-0.0,NaN,NaN,NaN,NaN,NaN,NaN,NaN,NaN,false,false,-0.5129671429112365,0.4489597744197616,-0.44467075285803914,,0.0,,,0.040797185,-0.01659911,-0.0030828726,0.9990248,0.001293551,0.005465043,0.0062008207,9.046921E-4,-4.8165384E-4,-4.5469656E-4,-2200,4118,0,0,5054,26.7140757,58.3908152,,,,,99.99,99.99,64977.35,0,0,0,,,,20240228,85630,628,0,0,0,0,ASST_TAKEOFF,2,0,0,0,0,30,5000,0.0,0.0,5,2,13,5,0,0,0,0,0,0,0,0.0,0.0,0.0,Hover,,,100.0,0,0,0,0,1,1,1,0,0,1,0,-462,-41,1512,1581.0,175.8852111446084,-471,-113,1463,1541.0,166.42884494456052,-8,-63,493,-159,-16,414,0,0,0,0,0,0,0,0,0,0,0,0,0,0,0,65568,0,0,0,0,,,,,,,,,,,,,,,,,,,,,,,,,,,,,,0.0,,0,0,0,0,46,42,41,46,48.489582,48.854168,48.854168,48.958332,48.958332,48.958332,48.958332,48.958332,0.0,0.0,0.0,0.0,15.4,15.4,15.4,15.2,0.0,0.0,0.0,0.0,0,0,0,0,0.0,0.0,0.0,0.0,0.0,180.0,0.0,0.0,0.0,0,    629 [L-FMU/MOTOR]Start. reason:ACT.Takeoff,Atti,AUTO_FLY,APP_AUTO_TAKEOFF,ALREADY,False,Connected,,P,False,False,False,0,0,,0.0,,,,,,0.9998544,-0.0037685463,0.01646631,-0.0024233228,0.4272120977975243,-1.8880660382623407,0.28477185229916857,-28.386324,0.03985914,0.005147386,0,0,1700,15690,0,1255.2322,12800.0,15689,-1110,3161,61,47,1,3916,0,5182,0.0,0.0,Firmware Date| Nov 16 2017
79100653,-.147,,,-28.734404,-28.870659,0.13678738977050742,,0,-0.4302473671039005,1.8863468928773843,175.3295094276443,0.03244785,0.0077982564,-0.9991367,0.9996939,0.021245344,-0.075371005,-0.020580495,0.08096734,0.0012419202,-5.192394E-4,0.0018423874,0.0022817464,0.0013460963066285212,-459,-50,1512,1580.0,58.94,175.3295094276443,1.9347222059601514,8.173764651970505,-167.1557447756738,175.32950942764433,174.60198421905503,-0.7275252085892703,0.0,0.0,0.0,-0.0,NaN,NaN,NaN,NaN,NaN,NaN,NaN,NaN,false,false,-0.5148619310032104,0.4522684543945515,-0.4452635145760452,,0.0,,,0.040802386,-0.016599918,-0.0030802698,0.9990246,0.0037655972,0.0011804921,-0.00192935,9.0621144E-4,-4.7740227E-4,-4.4693777E-4,-2200,4118,0,0,5074,26.7140757,58.3908152,,,,,99.99,99.99,64977.35,0,0,0,,,,20240228,85630,630,0,0,0,0,ASST_TAKEOFF,2,1,0,0,0,30,5000,0.0,0.0,5,2,13,5,0,0,0,0,0,0,0,0.0,0.0,0.0,Hover,,,100.0,0,0,0,0,1,1,1,0,0,1,0,-459,-50,1512,1580.0,174.60198421905503,-467,-113,1463,1539.0,166.30306133604452,-9,-62,492,-157,-16,415,0,0,0,0,0,0,0,0,0,0,0,0,0,0,0,65568,0,0,0,0,,,,,,,,,,,,,,,,,,,,,,,,,,,,,,0.0,,0,0,2876,0,46,42,41,46,57.916668,58.385418,58.28125,58.489582,58.489582,58.489582,58.489582,58.489582,0.6,0.7,0.3,0.5,15.4,15.3,15.2,15.3,-0.02,-0.02,-0.02,-0.02,0,0,0,0,0.0,0.0,0.3,0.0,0.0,180.0,0.0,0.0,0.0,0,    629 [L-PWM]set actuator mode:CTRL|    629 [L-FMU/FSM]state changed. cur: on ground|    629 [L-FDI]tilt when motor on = 0.033770. static flag = 1|    629 [L-GPS]<AGPS INFO>motor start.agps comm will stop...|    629 [L-GPS]<AGPS ERROR>agps transmit is not finish or encounter error!|    629 [L-GPS]<AGPS INFO>communciate with app is stop.error_flag:1|    630 [L-IMU]set imu switch level = 8|    630 [L-IOC]Set CL. 175.3 Degree|    630 [L-TAKEOFF]alti: -28.871191 tors: 175.322784,Atti,AUTO_FLY,APP_AUTO_TAKEOFF,ALREADY,False,Connected,,P,False,False,False,0,0,,0.0,0.078,0.53,0.53,0.53,0.53,0.9998543,-0.0037637283,0.016470375,-0.0024402349,0.42662696433167024,-1.8885374440977218,0.2867022225001372,-28.386301,0.04211521,-0.003977748,0,0,1708,15690,0,1255.2322,12800.0,15689,-1110,3161,61,47,1,3916,0,5182,0.0,0.0,ACType|P4
79325704,-.097,,,-28.178898,-28.870684,0.692293142333984,,0,-0.4293138098542144,1.8856851711998963,175.32985939414692,0.03302739,0.00672929,-0.9987237,0.99929225,0.031136524,-0.0045943293,-0.12892695,0.13271303,0.001082448,-3.5059644E-4,0.0016349589,0.0019919092,0.0011378100486134958,-446,-41,1509,1574.0,58.97,175.32985939414692,1.9338699219400683,8.151517767911235,-167.1783416262357,175.32985939414698,175.7130109303997,0.3831515362527682,0.0,0.0,0.0,-0.0,NaN,NaN,NaN,NaN,NaN,NaN,NaN,NaN,false,false,-0.5157915358069723,0.4562127412482964,-0.4466332835803294,,0.0,,,0.040799182,-0.016593808,-0.003072417,0.99902487,-7.926697E-4,0.0048440094,0.00642966,9.070372E-4,-4.7530874E-4,-4.34045E-4,-2200,4118,0,0,5094,26.7140757,58.3908152,,,,,99.99,99.99,64977.35,0,0,0,,,,20240228,85630,633,0,0,0,0,ASST_TAKEOFF,2,1,0,0,0,30,5000,0.0,0.0,5,2,13,5,0,0,0,0,0,0,0,0.0,0.0,0.0,Hover,,,100.0,0,0,0,0,1,1,1,0,0,1,0,-449,-47,1509,1575.0,174.8894742543978,-467,-118,1466,1543.0,165.65591968698462,-4,-61,491,-158,-17,415,0,0,0,0,0,0,0,0,0,0,0,0,0,0,0,65568,0,0,0,0,false,false,false,false,false,false,false,false,false,false,,,,,,,,,,,,,,,,,,,,0.0,,44,84,0,0,46,42,41,46,58.020832,58.489582,58.4375,58.645832,58.59375,58.59375,58.59375,58.59375,1.9,2.0,1.5,1.7,15.5,15.5,15.2,15.2,-0.02,-0.02,-0.02,-0.02,0,0,0,0,0.0,0.0,0.3,0.0,0.0,180.0,0.0,0.0,0.0,0,    632 [L-NS][AHRS] connect us   :1,ASST_TAKEOFF,AUTO_FLY,APP_AUTO_TAKEOFF,ALREADY,False,Connected,,P,False,False,False,0,0,,0.0,0.074,0.79,0.79,0.79,0.79,0.9998545,-0.003751322,0.016464489,-0.0024477418,0.42519297932025435,-1.88786201531385,0.2875363504304615,-28.400862,0.07247438,-0.0017709904,0,0,1720,15691,0,1255.2322,12800.0,15689,-1110,3161,61,47,1,3916,0,5182,0.0,0.0,
79550831,-.047,,,-28.857504,-28.870703,0.013687109008788667,,0,-0.42951204999196063,1.8837235635563268,175.3305401150628,0.03245329,0.0077771195,-0.99869394,0.99925137,0.019387426,-0.071766116,0.08757812,0.1148746,9.980395E-4,-2.2583945E-5,0.0017049508,0.0019757152,9.98294947872985E-4,-446,-50,1509,1574.0,58.99,175.3305401150628,1.9320013808083474,8.170847931044399,-167.1596921840184,175.33054011506283,174.42231363336725,-0.9082264816955501,0.0,0.0,0.0,-0.0,NaN,NaN,NaN,NaN,NaN,NaN,NaN,NaN,false,false,-0.5163977307887461,0.45900269465914706,-0.44928523843508794,,0.0,,,0.040793218,-0.01657676,-0.0030749422,0.99902534,0.0036814392,-5.878138E-4,0.0028749106,9.086929E-4,-4.7408845E-4,-4.1888875E-4,-2200,4118,0,0,5114,26.7140757,58.3908152,,,,,99.99,99.99,64977.35,0,0,0,,,,20240228,85630,635,0,0,0,0,ASST_TAKEOFF,2,1,0,0,0,30,5000,0.0,0.0,5,2,13,5,0,0,0,0,0,0,0,0.0,0.0,0.0,Hover,,,100.0,0,0,0,0,1,1,1,0,0,1,0,-446,-50,1509,1574.0,174.42231363336725,-471,-118,1463,1541.0,165.78872979629207,-5,-65,492,-158,-15,415,0,0,0,0,0,0,0,0,0,0,0,0,0,0,0,65568,0,0,0,0,false,false,false,false,false,false,false,false,false,false,,,,,,,,,,,,,,,,,,,,0.0,,0,0,0,0,46,42,41,46,58.125,58.541668,58.489582,58.697918,58.697918,58.697918,58.697918,58.697918,3.0,3.3,2.8,3.0,15.4,15.4,15.2,15.2,-0.02,-0.02,-0.02,-0.02,0,0,0,0,0.0,0.0,0.3,0.0,0.0,180.0,0.0,0.0,0.0,0,    635 [L-NS][AHRS]height max obv num [2/16],ASST_TAKEOFF,AUTO_FLY,APP_AUTO_TAKEOFF,ALREADY,False,Connected,,P,False,False,False,0,0,,0.0,0.082,1.19,1.19,1.19,1.19,0.99985456,-0.0037487966,0.016459875,-0.0024621575,0.4248777581242025,-1.8873385422683868,0.2891813417829996,-28.40496,0.07416869,0.004878027,0,0,1728,15691,0,1255.2322,12800.0,15689,-1110,3161,61,47,1,3916,0,5182,0.0,0.0,
79775879,.003,,,-28.582613,-28.87074,0.2885780086669918,,0,-0.43104855346471865,1.8830448912259665,175.33036933699287,0.033149466,0.0076303366,-0.9992427,0.99982154,0.09873781,-0.08473651,-0.09410009,0.16057478,6.101302E-4,-2.409384E-4,0.0016944895,0.0018170319,6.559803092824028E-4,-455,-47,1509,1576.0,58.98,175.33036933699287,1.9316815152707485,8.219574284479998,-167.11079505251286,175.33036933699282,174.9720164546151,-0.35835288237777263,0.0,0.0,0.0,-0.0,NaN,NaN,NaN,NaN,NaN,NaN,NaN,NaN,false,false,-0.5175599253556836,0.4603989964202611,-0.4506909174378936,,0.0,,,0.040794916,-0.016571391,-0.0030885548,0.9990254,-6.4817694E-4,-0.0038503576,-0.0022108853,9.1031316E-4,-4.7428603E-4,-3.7476426E-4,-2200,4118,0,0,5134,26.7140757,58.3908152,,,,,99.99,99.99,64978.8,0,0,0,,,,20240228,85630,638,0,0,0,0,ASST_TAKEOFF,2,1,0,0,0,30,5000,0.0,0.0,5,2,13,5,0,0,0,0,0,0,0,0.0,0.0,0.0,Hover,,,100.0,0,0,0,0,1,1,1,0,0,1,0,-452,-50,1517,1583.0,174.5158671865499,-471,-110,1466,1543.0,166.8179644808795,-8,-64,493,-158,-15,415,0,0,0,0,0,0,0,0,0,0,0,0,0,0,0,65568,0,0,0,0,false,false,false,false,false,false,false,false,false,false,,,,,,,,0.031999998,0.0,0.0,0.031999998,0.0,0.031999998,0.0019999999,0.0,0.04078625,0.0019999999,0.0,0.0019999999,-1.0,0.0,44,122,0,44,46,42,41,46,58.385418,58.802082,58.75,58.958332,58.90625,58.90625,58.90625,58.90625,5.6,5.7,5.3,5.5,15.4,15.3,15.1,15.1,-0.02,-0.02,-0.02,-0.02,0,0,0,0,0.0,0.0,0.3,0.0,0.0,180.0,0.0,0.0,0.0,0,,ASST_TAKEOFF,AUTO_FLY,APP_AUTO_TAKEOFF,ALREADY,False,Connected,,P,False,False,False,100,0,0.1,0.0,0.078,1.46,1.46,1.46,1.46,0.99985456,-0.0037609597,0.01645383,-0.0024638642,0.42626990882484855,-1.8866505091518513,0.289397335716559,-28.422724,0.10245556,-0.0037670312,0,0,1740,15691,0,1255.2322,12800.0,15689,-1110,3161,61,47,1,3916,0,5182,0.0,0.0,
80000960,.053,,,-28.718754,-28.870768,0.15243718530273398,,0,-0.43436734260888127,1.8823371422199184,175.36104228365627,0.031094523,0.009745214,-0.9986469,0.9991784,1.3526356,-3.4706342,-1.5971107,4.0528617,6.4884184E-4,-1.1195782E-4,0.001385637,0.0015341187,6.584301701784955E-4,-468,-67,1544,1614.0,59.03,175.36104228365627,1.9317341261015635,8.350858244327181,-167.0101840393291,175.36104228365627,172.44711113250918,-2.9139311511470964,0.0,0.0,0.0,-0.0,NaN,NaN,NaN,NaN,NaN,NaN,NaN,NaN,false,false,-0.48739087489295196,0.4589291926157613,-0.45226624470055754,,0.0,,,0.040527947,-0.016565565,-0.0031221746,0.9990362,-0.026862707,0.04172247,0.024189744,9.0888905E-4,-4.729699E-4,-3.43024E-4,-2200,4118,0,0,5154,26.7140757,58.3908152,,,,,99.99,99.99,64978.8,0,0,0,,,,20240228,85630,640,0,0,0,0,ASST_TAKEOFF,2,1,0,0,0,30,5000,0.0,0.0,5,2,13,5,0,0,0,0,0,0,0,0.0,0.0,0.0,Hover,,,100.0,0,0,0,0,1,1,1,0,0,1,0,-468,-67,1544,1614.0,172.44711113250918,-467,-99,1481,1556.0,168.14374326677424,-8,-67,498,-159,-14,416,0,0,0,0,0,0,0,0,0,0,0,0,0,0,0,65568,0,0,0,0,false,false,false,false,false,false,false,false,false,false,38,,,,,,,0.031999998,0.0,0.0,0.031999998,0.0,0.031999998,0.0019999999,0.0,0.04078625,0.0019999999,0.0,0.0019999999,-1.0,0.0,0,0,0,0,46,42,41,46,58.4375,58.90625,58.802082,59.010418,59.010418,59.010418,59.010418,59.010418,6.9,7.0,6.5,6.7,15.4,15.2,15.1,15.0,0.0,0.01,0.0,0.0,0,0,0,0,0.0,0.0,0.3,0.0,0.0,180.0,0.0,0.0,0.0,0,,ASST_TAKEOFF,AUTO_FLY,APP_AUTO_TAKEOFF,ALREADY,False,Connected,,P,False,False,False,100,0,0.1,0.0,0.082,1.86,1.86,1.86,1.86,0.99985516,-0.0037730963,0.016437354,-0.0022924847,0.42798824657659074,-1.8846926992709265,0.26977679975072355,-28.432274,0.10840531,-0.0067615686,0,0,1748,15691,0,1255.2322,12800.0,15689,-1110,3161,61,47,1,3916,0,5182,0.0,0.0,
80226042,.103,,,-28.795954,-28.870802,0.07523724938964804,,0,-0.4320102094435425,1.8837442885873852,175.31500527018216,0.034447797,0.005923074,-1.0002284,1.000839,1.3760135,-3.077544,-3.616593,4.9441314,6.7361235E-4,-0.0011360894,8.255836E-4,0.0015575753,0.0013207773424932742,-446,-24,1485,1550.0,59.04,175.31500527018216,1.9325776906455472,8.227364829973995,-167.08764044020816,175.31500527018216,178.1526774077383,2.8376721375561544,0.0,0.0,0.0,-0.0,NaN,NaN,NaN,NaN,NaN,NaN,NaN,NaN,false,false,-0.5329268123198002,0.46565908254935656,-0.45134060292921385,,0.0,,,0.040929012,-0.016578246,-0.0030944669,0.99901974,0.049804296,-0.15024848,0.01177253,9.0294634E-4,-4.7150548E-4,-3.3376284E-4,-2200,4118,0,0,5174,26.7140757,58.3908152,,,,,99.99,99.99,64978.8,0,0,0,,,,20240228,85630,643,0,0,0,0,ASST_TAKEOFF,2,1,0,0,0,30,5000,0.0,0.0,5,2,13,5,0,0,0,0,0,0,0,0.0,0.0,0.0,Hover,,,100.0,0,0,0,0,1,1,1,0,0,1,0,-449,-64,1506,1572.0,172.48838537614594,-485,-121,1448,1531.0,165.86498735251874,-3,-57,482,-162,-19,410,0,0,0,0,0,0,0,0,0,0,0,0,0,0,0,65568,0,0,0,0,false,false,false,false,false,false,false,false,false,false,3,,,,,,,0.031999998,0.0,0.0,0.031999998,0.0,0.031999998,0.0019999999,0.0,0.04063164,0.0019999999,0.0,0.0019999999,-1.0,0.0,0,0,53,0,46,42,41,46,58.541668,59.010418,59.010418,59.21875,59.166668,59.166668,59.166668,59.166668,8.0,8.3,8.4,8.0,15.3,15.2,14.9,15.1,0.03,0.04,0.03,0.03,0,0,0,0,0.0,0.0,0.3,0.0,0.0,180.0,0.0,0.0,0.0,0,    642 [L-FMU/FSM]near ground|    642 [L-CFG][sdk_activation] save(&(FMU_CFG_GET(CFG_API_EN .api_entry_cfg_t)->authority_lev,ASST_TAKEOFF,AUTO_FLY,APP_AUTO_TAKEOFF,ALREADY,False,Connected,,P,False,False,False,200,0,0.1,0.0,0.078,2.13,2.13,2.13,2.13,0.99985296,-0.0038033898,0.016529273,-0.0025172557,0.4310083981404391,-1.895333232742354,0.29562760495081025,-28.45225,0.12962678,-0.014910716,0,0,1760,15686,0,1255.2322,12800.0,15689,-1110,3161,61,47,1,3916,0,5182,0.0,0.0,
80756198,.221,,,-28.730228,-28.870796,0.14096257592773398,,0,-0.4291707831893678,1.882723740488898,175.32397073422962,0.032914005,0.007977681,-0.99951905,1.0000926,-0.7556681,-3.479194,0.08155417,3.5612464,2.744443E-4,-6.2384206E-4,6.2641077E-4,9.25683E-4,6.815413293386183E-4,-449,-64,1506,1572.0,59.05,175.32397073422962,1.9309508585423116,8.161006454112789,-167.16296428011682,175.32397073422965,172.478360731942,-2.8456100022876285,0.0,0.0,0.0,-0.0,NaN,NaN,NaN,NaN,NaN,NaN,NaN,NaN,false,false,-0.5246792944965147,0.46932136548459474,-0.45301977339639843,,0.0,,,0.040850427,-0.016568096,-0.0030713733,0.99902326,-0.09124225,0.14281487,0.029996574,9.0221025E-4,-4.7139288E-4,-4.3763506E-4,-2200,4118,0,0,5182,26.7140757,58.3908152,,,,,99.99,99.99,64978.8,0,0,0,,,,20240228,85630,643,0,0,0,0,ASST_TAKEOFF,2,1,0,0,0,30,5000,0.0,0.0,5,2,13,5,0,0,0,0,0,0,0,0.0,0.0,0.0,Hover,,,100.0,0,0,0,0,1,1,1,0,0,1,0,-449,-64,1506,1572.0,172.478360731942,-485,-121,1448,1531.0,165.8569527458839,-3,-57,482,-162,-19,410,0,0,0,0,0,0,0,0,0,0,0,0,0,0,0,65568,0,0,0,0,false,false,false,false,false,false,false,false,false,false,3,,,,,,,0.031999998,0.0,0.0,0.031999998,0.0,0.031999998,0.0019999999,0.0,0.04063164,0.0019999999,0.0,0.0019999999,-1.0,0.0,0,0,53,0,46,42,41,46,58.541668,59.010418,59.010418,59.21875,59.166668,59.166668,59.166668,59.166668,8.0,8.3,8.4,8.0,15.3,15.2,14.9,15.1,0.03,0.04,0.03,0.03,0,0,0,0,0.0,0.0,0.3,0.0,0.0,180.0,0.0,0.0,0.0,0,    644 [L-NS][AHRS]vo data type: 2|    644 [L-NS][AHRS] connect vo   :1,ASST_TAKEOFF,AUTO_FLY,APP_AUTO_TAKEOFF,ALREADY,False,Connected,,P,False,False,False,200,0,0.1,0.0,0.078,2.26,2.26,2.26,2.26,0.99985325,-0.0037279688,0.016534634,-0.0025245978,0.4223513787357377,-1.8959266688240703,0.29632789416209404,-28.459316,0.13434461,-0.015529649,0,0,1764,15686,0,1255.2322,12800.0,15689,-1110,3161,61,47,1,3916,0,5182,0.0,0.0,
80983028,.271,,,-28.80117,-28.871544,0.07002065087890585,,0,-0.4287717469336449,1.8871173331620608,175.33068366851967,0.03189869,0.009373851,-0.9994854,1.0000381,-1.3210933,-0.3948967,0.8821697,1.6369039,3.940522E-4,-0.0020861248,0.0037305756,0.0042923638,0.002123015263136966,-442,-38,1500,1564.0,59.07,175.33068366851967,1.9351463177754873,8.127281237381935,-167.20340243113776,175.33068366851967,176.09627426995806,0.7655906014383902,0.0,0.0,0.0,-0.0,NaN,NaN,NaN,NaN,NaN,NaN,NaN,NaN,false,false,-0.5165656766040844,0.4221887982708566,-0.6263873903749936,,0.0,,,0.04079196,-0.01660608,-0.003067301,0.999025,0.0073432694,-0.010368383,-0.0073496588,9.0211513E-4,-4.7106706E-4,-5.9719686E-4,-2200,4118,0,0,5242,26.7140757,58.3908152,,,,,99.99,99.99,64978.8,0,0,0,,,,20240228,85630,651,0,0,0,0,ASST_TAKEOFF,2,1,0,0,0,30,5000,0.0,0.0,5,2,13,5,0,0,0,0,0,0,0,0.0,0.0,0.0,Hover,,,100.0,0,0,0,0,1,1,1,0,0,1,0,-442,-38,1500,1564.0,176.09627426995806,-471,-107,1463,1540.0,167.19361400732657,-3,-59,492,-159,-13,415,0,0,0,0,0,0,0,0,0,0,0,0,0,0,0,65568,0,0,0,0,false,false,false,false,false,false,false,false,false,false,3,,,,,,,0.031999998,0.0,0.0,0.031999998,0.0,0.031999998,0.0019999999,0.0,0.04063164,0.0019999999,0.0,0.0019999999,-1.0,0.0,915,979,901,753,46,42,41,46,59.010418,59.53125,59.479168,59.635418,59.583332,59.583332,59.583332,59.583332,9.6,9.6,9.6,9.6,15.4,15.4,15.2,15.2,0.0,0.0,0.0,0.0,0,0,0,0,0.0,0.0,0.3,0.0,0.0,180.0,0.0,0.0,0.0,0,,ASST_TAKEOFF,AUTO_FLY,APP_AUTO_TAKEOFF,ALREADY,False,Connected,,P,False,False,False,200,0,0.1,0.0,0.074,3.33,3.33,3.33,3.33,0.9998542,-0.003744147,0.016463095,-0.0025747842,0.42413150374411296,-1.8877542119402455,0.30207857887125855,-28.505495,0.15102333,0.008182969,0,0,1792,15661,0,1251.5221,12800.0,15689,-1148,3161,61,47,1,3916,0,5182,0.0,0.0,
81672463,.424,,,-28.603477,-28.872124,0.26771352197265585,,0,-0.42711575012970515,1.8879867071431025,175.3213609803638,0.034422375,0.0070236856,-0.99847263,0.9990905,0.2138643,1.086133,0.3062518,1.14857,6.574565E-4,-0.0021594223,0.0057613766,0.0061877957,0.002257288987249972,-439,-33,1497,1560.0,59.13,175.3213609803638,1.9356285045002088,8.064469189684432,-167.2568917906794,175.3213609803638,176.79019259024386,1.4688316098800556,0.0,0.0,0.0,-0.0,NaN,NaN,NaN,NaN,NaN,NaN,NaN,NaN,false,false,-0.5283510269261559,0.42619642105324945,-0.6262297824758388,,0.0,,,0.04087302,-0.01661332,-0.0030512025,0.9990216,-0.0029694969,-0.020451656,0.0076365904,9.0211513E-4,-4.7106706E-4,-6.200646E-4,-2200,4118,0,0,5258,26.7140757,58.3908152,,,,,99.99,99.99,64978.8,0,0,0,,,,20240228,85630,653,0,0,0,0,ASST_TAKEOFF,2,1,0,0,0,30,5000,0.0,0.0,5,2,13,5,0,0,0,0,0,0,0,0.0,0.0,0.0,Hover,,,100.0,0,0,0,0,1,1,1,0,0,1,0,-439,-33,1497,1560.0,176.79019259024386,-467,-124,1466,1543.0,164.87828903616585,-3,-60,487,-158,-20,416,0,0,0,0,0,0,0,0,0,0,0,0,0,0,0,65568,0,0,0,0,false,false,false,false,false,false,false,false,false,false,3,,,,,,,0.031999998,0.0,0.0,0.031999998,0.0,0.031999998,0.0019999999,0.0,0.040781662,0.0019999999,0.0,0.0019999999,,1000000.0,1019,1070,1107,959,46,42,41,46,59.0625,59.635418,59.583332,59.791668,59.6875,59.6875,59.6875,59.6875,9.6,9.6,9.6,9.6,15.4,15.2,15.1,14.9,0.0,0.0,0.0,0.0,0,0,0,0,0.0,0.0,0.3,0.0,0.0,180.0,0.0,0.0,0.0,0,    652 [L-CFG][sdk_activation] save(&(FMU_CFG_GET(CFG_API_EN .api_entry_cfg_t)->authority_lev|    652 [L-SEND DATA][ERROR][AddDev] Dev with id 129. index 0 has already exist!,ASST_TAKEOFF,AUTO_FLY,APP_AUTO_TAKEOFF,ALREADY,False,Connected,,P,False,False,False,400,0,0.1,0.0,0.074,3.6,3.6,3.6,3.6,0.99985284,-0.003776435,0.016545055,-0.0025483998,0.4278562183021754,-1.8971463122371643,0.299151555780063,-28.517076,0.14817601,-0.0059489026,0,0,1800,15656,0,1251.5221,12800.0,15689,-1148,3161,61,47,1,3916,0,5182,0.0,0.0,
81897992,.474,,,-29.103714,-28.871065,-0.2325229892578129,,0,-0.4264009859108776,1.885805043681026,175.33714302526613,0.032202926,0.009341781,-0.9984318,0.9989947,-0.30290738,-1.5017236,0.926395,1.7902889,6.132912E-4,-0.0028648407,6.504732E-4,0.003001092,0.0029297505188164348,-449,-36,1503,1569.0,59.17,175.33714302526613,1.9333432159535238,8.073868859480054,-167.26327416578607,175.3371430252662,176.4439563072617,1.1068132819955565,0.0,0.0,0.0,-0.0,NaN,NaN,NaN,NaN,NaN,NaN,NaN,NaN,false,false,-0.46340797698863734,0.45348571430605605,-0.5905507067162358,,0.0,,,0.04073527,-0.016593626,-0.0030480346,0.99902755,-6.7327986E-4,0.009119628,-0.004878139,9.022194E-4,-4.7089552E-4,-5.618924E-4,-2200,4118,0,0,5324,26.7140757,58.3908152,,,,,99.99,99.99,64978.8,0,0,0,,,,20240228,85630,661,0,0,0,0,ASST_TAKEOFF,2,1,0,0,0,30,5000,0.0,0.0,5,2,13,5,0,0,0,0,0,0,0,0.0,0.0,0.0,Hover,,,100.0,0,0,0,0,1,1,1,0,0,1,0,-449,-36,1503,1569.0,176.4439563072617,-471,-116,1460,1538.0,166.0322598711335,-3,-62,488,-158,-17,413,0,0,0,0,0,0,0,0,0,0,0,0,0,0,0,65568,0,0,0,0,false,false,false,false,false,false,false,false,false,false,3,,,,,,,0.031999998,0.0,0.0,0.031999998,0.0,0.031999998,0.0019999999,0.0,0.040781662,0.0019999999,0.0,0.0019999999,,1000000.0,1226,1255,1238,1231,46,42,41,46,59.583332,60.052082,60.0,60.15625,60.15625,60.15625,60.15625,60.15625,9.6,9.6,9.6,9.6,15.3,15.4,15.0,15.1,0.0,0.0,0.0,0.0,0,0,0,0,0.0,0.0,0.3,0.0,0.0,180.0,0.0,0.0,0.0,0,,ASST_TAKEOFF,AUTO_FLY,APP_AUTO_TAKEOFF,ALREADY,False,Connected,,P,False,False,False,400,0,0.1,0.0,0.082,4.66,4.66,4.66,4.66,0.9998529,-0.0037484192,0.01653738,-0.0026042012,0.424542769820124,-1.8962816487067509,0.30548875056530805,-28.558485,0.1437316,0.006645366,0,0,1832,15653,0,1251.5221,12800.0,15689,-1148,3161,61,47,1,3916,0,5182,0.0,0.0,
82556154,.621,,,-29.343151,-28.870518,-0.47196009252929727,,0,-0.42510700299243476,1.8867974099945533,175.3350789277349,0.031347662,0.006378688,-0.997964,0.9984766,0.14107426,1.6284571,-0.04680662,1.6352264,0.0010081746,-0.0035324143,-5.3263817E-4,0.0037118823,0.0036734679272557172,-449,-38,1529,1594.0,59.19,175.3350789277349,1.9340266992851165,8.0279395702502,-167.30713935748471,175.3350789277349,176.17244087706226,0.8373619493273452,0.0,0.0,0.0,-0.0,NaN,NaN,NaN,NaN,NaN,NaN,NaN,NaN,false,false,-0.4669703044269401,0.4572144194997823,-0.590276747473062,,0.0,,,0.040753108,-0.016601874,-0.0030361016,0.9990267,0.029385267,-0.0141060185,0.0076278495,9.022194E-4,-4.7089552E-4,-5.036219E-4,-2200,4119,0,0,5340,26.7140757,58.3908152,,,,,99.99,99.99,64978.8,0,0,0,,,,20240228,85630,663,0,0,0,0,ASST_TAKEOFF,2,1,0,0,0,30,5000,0.0,0.0,5,2,13,5,0,0,0,0,0,0,0,0.0,0.0,0.0,Hover,,,100.0,0,0,0,0,1,1,1,0,0,1,0,-449,-38,1529,1594.0,176.17244087706226,-474,-118,1463,1542.0,165.8680600592053,-6,-59,493,-157,-18,412,0,0,0,0,0,0,0,0,0,0,0,0,0,0,0,65568,0,0,0,0,false,false,false,false,false,false,false,false,false,false,3,,,,,,,0.031999998,0.0,0.0,0.031999998,0.0,0.031999998,0.0019999999,0.0,0.040719196,0.0019999999,0.0,0.0019999999,,1000000.0,1262,1257,1251,1274,46,42,41,46,59.791668,60.15625,60.15625,60.3125,60.260418,60.260418,60.260418,60.260418,9.6,9.6,9.6,9.6,15.4,15.3,15.2,15.1,0.0,0.0,0.0,0.0,0,0,0,0,0.0,0.0,0.3,0.0,0.0,180.0,0.0,0.0,0.0,0,    662 [L-CFG][sdk_activation] save(&(FMU_CFG_GET(CFG_API_EN .api_entry_cfg_t)->authority_lev|    662 [L-SEND DATA][ERROR][AddDev] Dev with id 129. index 0 has already exist!,ASST_TAKEOFF,AUTO_FLY,APP_AUTO_TAKEOFF,ALREADY,False,Connected,,P,False,False,False,600,0,0.1,0.0,0.078,12.49,12.49,12.49,12.49,0.99985296,-0.0037345684,0.016540056,-0.0025866996,0.42298816201185074,-1.8965765503836953,0.30345826694044714,-28.582115,0.16593312,0.008623419,0,0,1844,15658,0,1251.5221,12800.0,15689,-1148,3161,61,47,1,3916,0,5182,0.0,0.0,
82783062,.671,,,-29.024948,-28.870897,-0.1537571201171879,,0,-0.422666208915727,1.887753669807838,175.32738107076503,0.034375258,0.0072166035,-0.99969655,1.0003134,1.6574607,2.6822174,3.1197972,4.435606,3.725637E-4,-0.0029243561,9.221919E-4,0.003088867,0.0029479928885389104,-442,-50,1509,1573.0,59.24,175.32738107076503,1.9344255513813535,7.9435096832125565,-167.3838713875525,175.327381070765,174.33818644283616,-0.9891946279288675,0.0,0.0,0.0,-0.0,NaN,NaN,NaN,NaN,NaN,NaN,NaN,NaN,false,false,-0.35496580486035223,0.4788919379281727,-0.4355763010083532,,0.0,,,0.040819895,-0.016609548,-0.0030133664,0.9990239,-0.041932613,0.08993484,-0.02646916,9.0242625E-4,-4.708162E-4,-5.005389E-4,-2200,4119,0,0,5402,26.7140757,58.3908152,,,,,99.99,99.99,64978.8,0,0,0,,,,20240228,85630,671,0,0,0,0,ASST_TAKEOFF,2,1,0,0,0,30,5000,0.0,0.0,5,2,13,5,0,0,0,0,0,0,0,0.0,0.0,0.0,Hover,,,100.0,0,0,0,0,1,1,1,0,0,1,0,-442,-50,1509,1573.0,174.33818644283616,-471,-113,1463,1541.0,166.4019084354777,-4,-64,492,-159,-16,415,0,0,0,0,0,0,0,0,0,0,0,0,0,0,0,65568,0,0,0,0,false,false,false,false,false,false,false,false,false,false,3,,,,,,,0.031999998,0.0,0.0,0.031999998,0.0,0.031999998,0.0019999999,0.0,0.040719196,0.0019999999,0.0,0.0019999999,,1000000.0,1513,1531,1503,1537,43,41,39,44,66.041664,66.458336,65.9375,66.197914,66.614586,66.614586,66.614586,66.614586,18.1,19.2,17.9,18.5,15.4,15.4,15.0,15.0,0.13,0.15,0.13,0.15,0,0,0,0,0.0,0.0,0.3,0.0,0.0,180.0,0.0,0.0,0.0,0,,ASST_TAKEOFF,AUTO_FLY,APP_AUTO_TAKEOFF,ALREADY,False,Connected,,P,False,False,False,600,0,0.1,0.0,0.082,22.49,22.49,22.49,22.49,0.99985313,-0.0035896618,0.01657177,-0.0025166431,0.40650881781344333,-1.9001368105371559,0.2951690772584329,-28.641472,0.19009894,0.0010928824,0,0,1872,15665,0,1251.5221,12800.0,15689,-1148,3161,61,47,1,3916,0,5182,0.0,0.0,
83456179,.821,,,-29.042162,-28.870657,-0.1709709415283207,,0,-0.4126031268853131,1.885300200199346,175.34497231921674,0.03118282,0.009709397,-0.9976964,0.9982308,3.4841385,4.573821,2.6140559,6.316039,3.742783E-4,-0.0042497404,0.0014086375,0.0044927313,0.004266189971319983,-442,-47,1509,1573.0,59.26,175.34497231921674,1.929858169712213,7.685565311180534,-167.6594070080362,175.3449723192167,174.7351339702882,-0.6098383489285482,0.0,0.0,0.0,-0.0,NaN,NaN,NaN,NaN,NaN,NaN,NaN,NaN,false,false,-0.3380734162974012,0.4904367387046212,-0.4394089823497037,,0.0,,,0.04066504,-0.016584134,-0.0029290547,0.99903095,0.06401085,-0.14827266,0.026378293,9.0242625E-4,-4.708162E-4,-3.7998497E-4,-2200,4119,0,0,5418,26.7140757,58.3908152,,,,,99.99,99.99,64978.8,0,0,0,,,,20240228,85630,673,0,0,0,0,ASST_TAKEOFF,2,1,0,0,0,30,5000,0.0,0.0,5,2,13,5,0,0,0,0,0,0,0,0.0,0.0,0.0,Hover,,,100.0,0,0,0,0,1,1,1,0,0,1,0,-442,-47,1509,1573.0,174.7351339702882,-467,-104,1472,1547.0,167.4134791350223,-6,-65,492,-160,-16,415,0,0,0,0,0,0,0,0,0,0,0,0,0,0,0,65568,0,0,0,0,false,false,false,false,false,false,false,false,false,false,3,,,,,,,0.031999998,0.0,0.0,0.031999998,0.0,0.031999998,0.0019999999,0.0,0.040883206,0.0019999999,0.0,0.0019999999,,1000000.0,1666,1775,1837,1757,45,41,41,46,66.5625,67.5,67.5,67.1875,67.65625,67.65625,67.65625,67.65625,19.3,21.7,21.6,21.0,15.4,15.2,15.2,15.1,0.18,0.3,0.28,0.24,0,0,0,0,0.0,0.0,0.3,0.0,0.0,180.0,0.0,0.0,0.0,0,    672 [L-CFG][sdk_activation] save(&(FMU_CFG_GET(CFG_API_EN .api_entry_cfg_t)->authority_lev|    672 [L-SEND DATA][ERROR][AddDev] Dev with id 129. index 0 has already exist!,ASST_TAKEOFF,AUTO_FLY,APP_AUTO_TAKEOFF,ALREADY,False,Connected,,P,False,False,False,800,0,0.1,0.0,0.082,24.99,24.99,24.99,24.99,0.99985284,-0.0036809284,0.016553966,-0.0025945895,0.4168231271691484,-1.8981574383895123,0.3042662942690567,-28.66033,0.20258753,-0.005350893,0,0,1880,15661,0,1251.5221,12800.0,15689,-1148,3161,61,47,1,3916,0,5182,0.0,0.0,
83683048,.871,,,-29.690056,-28.871761,-0.8188648471679691,,0,-0.40415300898031936,1.8873892883108272,175.32526907724264,0.032208595,0.00835152,-1.0007124,1.0012654,0.50346816,-0.36750558,-2.8604462,2.9275746,0.0010712141,-0.004068084,0.0073248846,0.0084469365,0.004206757402669373,-442,-38,1523,1586.0,59.28,175.32526907724264,1.9301144488745368,7.407630780546021,-167.91763829669662,175.32526907724264,176.018433342861,0.6931642656183499,0.0,0.0,0.0,-0.0,NaN,NaN,NaN,NaN,NaN,NaN,NaN,NaN,false,false,-0.0024121419700225966,0.5143900012465583,0.009829243009490063,,0.0,,,0.04083567,-0.016599847,-0.0028517891,0.999024,0.03283133,-0.008018056,-0.060521763,9.027242E-4,-4.706858E-4,-3.2509846E-4,-2200,4119,0,0,5482,26.7140757,58.3908152,,,,,99.99,99.99,64978.8,0,0,0,,,,20240228,85630,681,0,0,0,0,ASST_TAKEOFF,2,1,0,0,0,30,5000,0.0,0.0,5,2,13,5,0,0,0,0,0,0,0,0.0,0.0,0.0,Hover,,,100.0,0,0,0,0,1,1,1,0,0,1,0,-442,-38,1523,1586.0,176.018433342861,-471,-113,1475,1552.0,166.34019918734262,-3,-61,496,-158,-15,418,0,0,0,0,0,0,0,0,0,0,0,0,0,0,0,65568,0,0,0,0,false,false,false,false,false,false,false,false,false,false,3,,,,,,,0.031999998,0.0,0.0,0.031999998,0.0,0.031999998,0.0019999999,0.0,0.040883206,0.0019999999,0.0,0.0019999999,,1000000.0,2489,2737,2615,2669,45,41,41,46,70.729164,71.71875,71.197914,71.40625,71.822914,71.822914,71.822914,71.822914,29.3,31.7,30.4,31.0,15.2,15.0,14.9,15.0,0.93,1.29,1.23,1.3,0,0,0,0,0.0,0.0,0.3,0.0,0.0,180.0,0.0,0.0,0.0,0,    680 [L-FMU/MOTOR]safe_near_grd:true,ASST_TAKEOFF,AUTO_FLY,APP_AUTO_TAKEOFF,ALREADY,False,Connected,,P,False,False,False,800,0,0.1,0.0,0.082,34.99,34.99,34.99,34.99,0.99985576,-0.0034688374,0.016379375,-0.0028760564,0.3920469753583121,-1.8781904688599547,0.3360447473087385,-28.758377,0.30782065,-0.0047986824,0,0,1912,15619,0,1251.5221,12800.0,15689,-1148,3161,61,47,1,3916,0,5182,0.0,0.0,
84356082,1.021,,,-30.217485,-28.871708,-1.3462944278564457,,0,-0.3962932246865217,1.883952372622752,175.3049156361281,0.03273057,0.0071534133,-0.992088,0.99265355,3.730094,-1.8293437,3.2818031,5.294368,0.0012076277,-0.0044334973,0.00871414,0.009851421,0.004595025731338878,-455,-27,1491,1559.0,59.32,175.3049156361281,1.9251230066844824,7.1800359939937906,-168.1248796421343,175.30491563612804,177.64489412416611,2.339978488038014,0.0,0.0,0.0,-0.0,NaN,NaN,NaN,NaN,NaN,NaN,NaN,NaN,false,false,-0.022255919991959083,0.5254396507140673,0.005734943281039739,,0.0,,,0.041011903,-0.016567586,-0.002781548,0.9990174,-0.029793352,0.016468877,0.10025058,9.027242E-4,-4.706858E-4,-3.988604E-4,-2200,4119,0,0,5498,26.7140757,58.3908152,,,,,99.99,99.99,64978.8,0,0,0,,,,20240228,85630,683,0,0,0,0,ASST_TAKEOFF,2,1,0,0,0,30,5000,0.0,0.0,5,2,13,5,0,0,0,0,0,0,0,0.0,0.0,0.0,Hover,,,100.0,0,0,0,0,1,1,1,0,0,1,0,-449,-27,1503,1568.0,177.61913297011563,-467,-118,1448,1526.0,165.55247481479316,-6,-62,494,-159,-18,413,0,0,0,0,0,0,0,0,0,0,0,0,0,0,0,65568,0,0,0,0,false,false,false,false,false,false,false,false,false,false,3,,,,,,,0.031999998,0.0,0.0,0.031999998,0.0,0.031999998,0.0019999999,0.0,0.040797226,0.0019999999,0.0,0.0019999999,,1000000.0,2773,2994,2969,2946,45,42,41,47,71.71875,72.8125,72.760414,72.5,72.864586,72.864586,72.864586,72.864586,31.7,34.2,34.2,33.4,15.2,15.0,14.9,14.8,1.41,1.23,1.5,1.09,0,0,0,0,0.0,0.0,0.3,0.0,0.0,180.0,0.0,0.0,0.0,0,    682 [L-CFG][sdk_activation] save(&(FMU_CFG_GET(CFG_API_EN .api_entry_cfg_t)->authority_lev|    682 [L-SEND DATA][ERROR][AddDev] Dev with id 129. index 0 has already exist!,ASST_TAKEOFF,AUTO_FLY,APP_AUTO_TAKEOFF,ALREADY,False,Connected,,P,False,False,False,1000,0,0.1,0.0,0.082,12.49,12.49,12.49,12.49,0.99985486,-0.0032981418,0.016476233,-0.0028562308,0.3724942146145716,-1.889223930501181,0.3334882192791797,-28.791208,0.34170198,0.017981738,0,0,1920,15602,0,1251.5221,12800.0,15689,-1148,3161,61,47,1,3916,0,5182,0.0,0.0,
84583051,1.071,,,-29.523643,-28.87196,-0.6524524936523441,,0,-0.42281975881246087,1.8848074196750197,175.35138975785225,0.030117707,0.01815454,-0.99893945,0.99955827,-0.06808717,0.19257687,2.8087482,2.8161657,0.0012509908,-0.003955166,0.005128524,0.0065962165,0.0041482905639085264,-449,-36,1491,1557.0,59.32,175.35138975785225,1.9315842585590146,7.9910633932026025,-167.36032636464964,175.3513897578523,176.4216326719911,1.070242914138845,0.0,0.0,0.0,-0.0,NaN,NaN,NaN,NaN,NaN,NaN,NaN,NaN,false,false,-0.3099688683061391,0.839120993516379,0.08012660961041573,,0.0,,,0.040610526,-0.016583284,-0.003019229,0.99903286,0.022471912,-0.16581216,0.038930897,9.027841E-4,-4.7059308E-4,-6.504899E-4,-2200,4120,0,0,5562,26.7140757,58.3908152,,,,,99.99,99.99,64978.8,0,0,0,,,,20240228,85630,691,0,0,0,0,ASST_TAKEOFF,2,1,0,0,0,30,5000,0.0,0.0,5,2,13,5,0,0,0,0,0,0,0,0.0,0.0,0.0,Hover,,,100.0,0,0,0,0,1,1,1,0,0,1,0,-449,-36,1491,1557.0,176.4216326719911,-471,-118,1469,1547.0,165.76532195776392,-5,-59,485,-158,-18,416,0,0,0,0,0,0,0,0,0,0,0,0,0,0,0,65568,0,0,0,0,false,false,false,false,false,false,false,false,false,false,3,,,,,,,0.031999998,0.0,0.0,0.031999998,0.0,0.031999998,0.0019999999,0.0,0.040797226,0.0019999999,0.0,0.0019999999,,1000000.0,2382,2364,2548,2569,43,41,40,46,66.041664,66.458336,65.9375,66.197914,66.614586,66.614586,66.614586,66.614586,18.1,19.2,17.9,18.5,15.3,15.2,15.2,15.2,0.06,0.1,0.04,0.07,0,0,0,0,0.0,0.0,0.3,0.0,0.0,180.0,0.0,0.0,0.0,0,,ASST_TAKEOFF,AUTO_FLY,APP_AUTO_TAKEOFF,ALREADY,False,Connected,,P,False,False,False,1000,0,0.1,0.0,0.082,22.49,22.49,22.49,22.49,0.99985534,-0.0035321845,0.016427267,-0.0026560244,0.3997034162510674,-1.8836136917337885,0.31097206679116157,-28.907938,0.3372196,0.0063129887,0,0,1952,15594,0,1251.5221,12800.0,15689,-1148,3161,61,47,1,3916,0,5182,0.0,0.0,
84808303,1.121,,,-28.903408,-28.871878,-0.03221705053710977,,0,-0.4139435039140357,1.8784951849054032,175.34888273328093,0.035573523,0.0036744007,-0.99712473,0.9977659,-0.2544002,-0.32431585,1.8214358,1.8674926,2.0881083E-4,-0.0037017688,0.0017146667,0.004084945,0.0037076534484970667,-449,-38,1506,1571.0,59.35,175.34888273328093,1.9234988786875946,7.771819422940688,-167.57706331034026,175.3488827332809,176.115500316619,0.7666175833380748,0.0,0.0,0.0,-0.0,NaN,NaN,NaN,NaN,NaN,NaN,NaN,NaN,false,false,-0.3158086398775982,0.85097106437122,0.07265200608216416,,0.0,,,0.04063096,-0.016525181,-0.002943719,0.9990332,-0.035700254,0.057208315,0.020667084,9.027841E-4,-4.7059308E-4,-5.789616E-4,-2200,4119,0,0,5582,26.7140757,58.3908152,,,,,99.99,99.99,64978.8,0,0,0,,,,20240228,85630,694,0,0,0,0,ASST_TAKEOFF,2,1,0,0,0,30,5000,0.0,0.0,5,2,13,5,0,0,0,0,0,0,0,0.0,0.0,0.0,Hover,,,100.0,0,0,0,0,1,1,1,0,0,1,0,-449,-38,1506,1571.0,176.115500316619,-474,-118,1463,1542.0,165.83881864258854,-5,-61,492,-159,-17,414,0,0,0,0,0,0,0,0,0,0,0,0,0,0,0,65568,0,0,0,0,false,false,false,false,false,false,false,false,false,false,3,,,,,,,0.031999998,0.0,0.0,0.031999998,0.0,0.031999998,0.0019999999,0.0,0.040738545,0.0019999999,0.0,0.0019999999,,1000000.0,2269,2399,2397,2429,46,42,41,46,67.708336,68.645836,68.072914,68.333336,68.697914,68.697914,68.697914,68.697914,21.9,24.2,22.9,23.4,15.2,15.1,14.8,14.7,0.25,0.43,0.31,0.34,0,0,0,0,0.0,0.0,0.3,0.0,0.0,180.0,0.0,0.0,0.0,0,,ASST_TAKEOFF,AUTO_FLY,APP_AUTO_TAKEOFF,ALREADY,False,Connected,,P,False,False,False,1200,0,0.1,0.0,0.078,24.99,24.99,24.99,24.99,0.9998546,-0.0035964614,0.016445428,-0.0027328068,0.4069175792174779,-1.8857470539405194,0.3198982783358852,-28.940561,0.30822614,-0.005905486,0,0,1964,15601,0,1251.5221,12800.0,15689,-1148,3161,61,47,1,3916,0,5182,0.0,0.0,
85033959,1.171,,,-29.652496,-28.872065,-0.7813053378906254,,0,-0.40275253413294715,1.8860259808324251,175.3416771795252,0.030525776,0.010805451,-1.000255,1.000779,-0.23568507,1.0591192,1.0714858,1.524914,0.001302602,-0.0048579285,0.0025015648,0.0056173005,0.005029536756273718,-449,-44,1485,1552.0,59.35,175.3416771795252,1.9284888856799762,7.391849790398073,-167.9498273891271,175.34167717952516,175.2025587307868,-0.13911844873840096,0.0,0.0,0.0,-0.0,NaN,NaN,NaN,NaN,NaN,NaN,NaN,NaN,false,false,-0.3253089597499571,0.8651728327067734,0.07895263189001722,,0.0,,,0.04069238,-0.016587058,-0.0028424403,0.99903,-0.00128672,-0.0089077335,0.0019048669,9.027841E-4,-4.7059308E-4,-4.7692202E-4,-2200,4119,0,0,5602,26.7140757,58.3908152,,,,,99.99,99.99,64978.8,0,0,0,,,,20240228,85630,696,0,0,0,0,ASST_TAKEOFF,2,1,0,0,0,30,5000,0.0,0.0,5,2,13,5,0,0,0,0,0,0,0,0.0,0.0,0.0,Hover,,,100.0,0,0,0,0,1,1,1,0,0,1,0,-449,-44,1485,1552.0,175.2025587307868,-471,-110,1457,1535.0,166.7234498287031,-5,-62,483,-159,-15,413,0,0,0,0,0,0,0,0,0,0,0,0,0,0,0,65568,0,0,0,0,false,false,false,false,false,false,false,false,false,false,3,,,,,,,0.031999998,0.0,0.0,0.031999998,0.0,0.031999998,0.0019999999,0.0,0.040738545,0.0019999999,0.0,0.0019999999,,1000000.0,2322,2444,2446,2467,46,42,41,46,68.645836,69.6875,69.114586,69.375,69.739586,69.739586,69.739586,69.739586,24.3,26.7,25.4,26.0,14.9,15.2,15.0,14.9,0.36,0.69,0.51,0.58,0,0,0,0,0.0,0.0,0.3,0.0,0.0,180.0,0.0,0.0,0.0,0,,ASST_TAKEOFF,AUTO_FLY,APP_AUTO_TAKEOFF,ALREADY,False,Connected,,P,False,False,False,1200,0,0.1,0.0,0.078,28.74,28.74,28.74,28.74,0.99985254,-0.0034363063,0.01660175,-0.002747507,0.38848965976861827,-1.9036155160041737,0.32134101491965267,-28.961048,0.29679167,-0.018013336,0,0,1972,15615,0,1251.5221,12800.0,15689,-1148,3161,61,47,1,3916,0,5182,0.0,0.0,
85259829,1.222,,,-29.710924,-28.872156,-0.8397331485595707,,0,-0.40034927429346356,1.8831294629927235,175.33543706352924,0.03390264,0.0070589553,-0.9970285,0.99762976,-1.7986059,6.4011264,4.098646,7.810781,7.823571E-4,-0.0037011225,0.005103486,0.006352634,0.0037829075874734283,-446,-50,1506,1571.0,59.39,175.33543706352924,1.92515593931349,7.333693249786693,-168.00174381374256,175.3354370635293,174.3109123092125,-1.0245247543167295,0.0,0.0,0.0,-0.0,NaN,NaN,NaN,NaN,NaN,NaN,NaN,NaN,false,false,-0.3333884376075208,0.8704046736395175,0.07500496801443857,,0.0,,,0.040746376,-0.016561108,-0.002821615,0.9990283,0.009431194,0.0028547274,-0.01455544,9.027841E-4,-4.7059308E-4,-4.4855563E-4,-2200,4120,0,0,5622,26.7140757,58.3908152,,,,,99.99,99.99,64988.04,0,0,0,,,,20240228,85631,699,0,0,0,0,ASST_TAKEOFF,2,1,0,0,0,30,5000,0.0,0.0,5,2,13,5,0,0,0,0,0,0,0,0.0,0.0,0.0,Hover,,,100.0,0,0,0,0,1,1,1,0,0,1,0,-446,-50,1506,1571.0,174.3109123092125,-467,-116,1460,1537.0,165.82099527853137,-4,-64,494,-158,-17,414,0,0,0,0,0,0,0,0,0,0,0,0,0,0,0,65568,0,0,0,0,false,false,false,false,false,false,false,false,false,false,3,,,,,,,0.031999998,0.0,0.0,0.031999998,0.0,0.031999998,0.0019999999,0.0,0.040699355,0.0019999999,0.0,0.0019999999,,1000000.0,2422,2681,2552,2615,46,42,41,46,69.6875,70.677086,70.15625,70.416664,70.78125,70.78125,70.78125,70.78125,26.7,29.2,27.9,28.4,15.1,15.0,15.0,15.0,0.66,0.99,0.81,0.9,0,0,0,0,0.0,0.0,0.3,0.0,0.0,180.0,0.0,0.0,0.0,0,,ASST_TAKEOFF,AUTO_FLY,APP_AUTO_TAKEOFF,ALREADY,False,Connected,,P,False,False,False,1300,0,0.1,0.0,0.082,31.24,31.24,31.24,31.24,0.99985653,-0.0034355985,0.016330536,-0.0029358568,0.3881430036749099,-1.8726045760166243,0.3428151008870341,-29.003752,0.32087848,0.029256485,0,0,1984,15625,0,1251.5221,12800.0,15689,-1148,3161,61,47,1,3916,0,5182,0.0,0.0,
85486191,1.272,,,-29.938898,-28.872738,-1.067707086547852,,0,-0.391611221305749,1.8874126738454409,175.33297663580245,0.034367085,0.007213982,-0.9979418,0.9985595,0.9806318,0.5065727,1.3894118,1.7744633,9.2504505E-4,-0.00543834,0.010132225,0.011536605,0.005516452728601698,-436,-41,1500,1562.0,59.41,175.33297663580245,1.9275539373868418,7.050768915436996,-168.28220772036545,175.33297663580242,175.44986186950752,0.11688523370506232,0.0,0.0,0.0,-0.0,NaN,NaN,NaN,NaN,NaN,NaN,NaN,NaN,false,false,-0.3362535794790166,0.8816099129161377,0.07805070260721292,,0.0,,,0.040766686,-0.01659541,-0.0027435555,0.99902713,-0.052566253,0.024962438,0.050808053,9.027841E-4,-4.7059308E-4,-3.838423E-4,-2200,4120,0,0,5642,26.7140757,58.3908152,,,,,99.99,99.99,64988.04,0,0,0,,,,20240228,85631,701,0,0,0,0,ASST_TAKEOFF,2,1,0,0,0,30,5000,0.0,0.0,5,2,13,5,0,0,0,0,0,0,0,0.0,0.0,0.0,Hover,,,100.0,0,0,0,0,1,1,1,0,0,1,0,-436,-41,1500,1562.0,175.44986186950752,-471,-107,1472,1549.0,167.07026418947086,-2,-61,488,-159,-14,416,0,0,0,0,0,0,0,0,0,0,0,0,0,0,0,65568,0,0,0,0,false,false,false,false,false,false,false,false,false,false,3,,,,,,,0.031999998,0.0,0.0,0.031999998,0.0,0.031999998,0.0019999999,0.0,0.040699355,0.0019999999,0.0,0.0019999999,,1000000.0,2575,2837,2744,2774,46,42,41,46,70.677086,71.71875,71.197914,71.40625,71.822914,71.822914,71.822914,71.822914,29.2,31.7,30.3,31.0,15.1,15.0,14.9,14.9,0.94,1.27,1.21,1.23,0,0,0,0,0.0,0.0,0.3,0.0,0.0,180.0,0.0,0.0,0.0,0,,ASST_TAKEOFF,AUTO_FLY,APP_AUTO_TAKEOFF,ALREADY,False,Connected,,P,False,False,False,1300,0,0.1,0.0,0.082,34.99,34.99,34.99,34.99,0.99985516,-0.0034045705,0.016415445,-0.0029746094,0.38448587301709886,-1.8823395249536807,0.34722976676599243,-29.03596,0.35280448,0.0019281381,0,0,1992,15633,0,1240.0631,12800.0,15608,-1148,3161,61,47,1,3915,0,5182,0.0,0.0,
85713003,1.322,,,-29.978546,-28.872852,-1.1073551425781254,,0,-0.38781083484025747,1.8880578977932667,175.3267958242589,0.033527475,0.008890735,-0.9994335,1.0000352,-0.9667606,5.2366085,2.271675,5.7894044,3.0032638E-4,-0.0040746555,0.012912602,0.01354357,0.004085708395674122,-449,-41,1526,1591.0,59.41,175.3267958242589,1.9274185417818173,6.930107969807041,-168.39668785445187,175.32679582425885,175.59862853263286,0.27183270837394957,0.0,0.0,0.0,-0.0,NaN,NaN,NaN,NaN,NaN,NaN,NaN,NaN,false,false,-0.3430871062447981,0.8882300013809232,0.07754695905739906,,0.0,,,0.04082004,-0.016599834,-0.002709298,0.9990249,0.0121829,-0.03341974,-0.024135754,9.027841E-4,-4.7059308E-4,-4.1638286E-4,-2200,4120,0,16,5662,26.7140757,58.3908152,,,,,99.99,99.99,64988.04,0,0,0,,,,20240228,85631,704,0,0,0,0,ASST_TAKEOFF,2,1,0,0,0,30,5000,0.0,0.0,5,2,13,5,0,1,0,0,0,0,0,0.0,0.0,0.0,Hover,,,100.0,0,0,0,0,1,1,1,0,0,1,0,-449,-41,1526,1591.0,175.59862853263286,-471,-113,1466,1543.0,166.28721906627527,-6,-61,497,-158,-16,415,0,0,0,0,0,0,0,0,0,0,0,0,0,0,0,65568,0,0,0,0,false,false,false,false,false,false,false,false,false,false,3,,,,,,,0.031999998,0.0,0.0,0.031999998,0.0,0.031999998,0.0019999999,0.0,0.040780623,0.0019999999,0.0,0.0019999999,,1000000.0,3043,3204,3074,3179,46,42,41,46,72.291664,72.8125,72.8125,73.020836,72.916664,72.916664,72.916664,72.916664,33.0,34.2,34.2,34.7,15.2,15.1,15.1,14.8,1.44,1.44,1.3,1.56,0,0,0,0,0.0,0.0,0.3,0.0,0.0,180.0,0.0,0.0,0.0,0,,ASST_TAKEOFF,AUTO_FLY,APP_AUTO_TAKEOFF,ALREADY,False,Connected,,P,False,False,False,1400,0,0.1,0.0,0.082,35.0,35.0,35.0,35.0,0.99985546,-0.00334651,0.01640512,-0.0029841228,0.37781922512121224,-1.8811391616522088,0.3482065221382974,-29.085745,0.38430852,-0.0034376578,0,0,2004,15621,0,1240.0631,12800.0,15608,-1148,3161,61,47,1,3915,0,5182,0.0,0.0,
85938411,1.372,,,-30.471037,-28.872805,-1.5998459110107426,,0,-0.4041668719922272,1.8847238895810323,175.31948127311222,0.03862811,-8.579332E-4,-0.9903678,0.99112123,0.5131247,9.079382,1.8707894,9.284306,2.1413917E-4,-0.0045706136,0.019333469,0.019867547,0.004575627203783063,-442,-44,1517,1580.0,59.41,175.31948127311222,1.9275112077408723,7.4188416799868095,-167.90063959312542,175.31948127311216,175.142998583687,-0.17648268942522805,0.0,0.0,0.0,-0.0,NaN,NaN,NaN,NaN,NaN,NaN,NaN,NaN,false,false,-0.3524469056958882,0.8745026832654095,0.07305934132116787,,0.0,,,0.04088606,-0.01657676,-0.0028520224,0.99902225,-0.10474103,0.1828169,0.09195563,9.027841E-4,-4.7059308E-4,-4.6490287E-4,-2200,4120,0,16,5682,26.7140757,58.3908152,,,,,99.99,99.99,64988.04,0,0,0,,,,20240228,85631,706,0,0,0,0,AutoTakeoff,2,1,0,0,0,30,5000,0.0,0.0,5,2,8,5,0,1,0,0,0,0,0,0.0,0.0,0.0,Hover,,,100.0,0,0,0,0,1,1,1,0,0,1,0,-442,-44,1517,1580.0,175.142998583687,-471,-121,1469,1547.0,165.32299086938727,-3,-63,494,-158,-16,418,0,0,0,0,0,0,0,0,0,0,0,0,0,0,0,65568,0,0,0,0,false,false,false,false,false,false,false,false,false,false,3,,,,,,,0.031999998,0.0,0.0,0.031999998,0.0,0.031999998,0.0019999999,0.0,0.040780623,0.0019999999,0.0,0.0019999999,,1000000.0,3153,3280,3238,3321,45,39,41,46,61.979168,63.854168,63.177082,63.697918,63.697918,64.0625,64.114586,64.270836,9.6,12.8,11.4,12.5,15.5,15.4,15.2,15.3,0.09,0.07,0.3,0.21,0,0,0,0,0.0,0.0,0.3,0.0,0.0,180.0,0.0,0.0,0.0,0,    705 [L-FLYMODE][Ctrl<5>] REQ_APP AUTO_TAKEOFF ctrl_auto_takeoff,ASST_TAKEOFF,AUTO_FLY,APP_AUTO_TAKEOFF,ALREADY,False,Connected,,P,False,False,False,1400,0,0.1,0.0,0.078,15.0,15.12,15.94,16.19,0.9998542,-0.0034330885,0.01648183,-0.0028467288,0.38797203111351225,-1.8899092301202207,0.3326570414896161,-29.123362,0.42435896,0.0619844,0,0,2012,15607,0,1240.0631,12800.0,15608,-1148,3161,61,47,1,3915,0,5182,0.0,0.0,
86164784,1.423,,,-29.034338,-28.873207,-0.16314699743652383,,0,-0.4046846463714664,1.8649904765785374,175.32319048796344,0.024810297,0.022631489,-1.0049263,1.0054873,0.35188898,-7.3466105,2.7014678,7.83546,-7.097013E-4,-0.0040749945,0.012850242,0.013499554,0.004136333651638153,-439,-36,1500,1563.0,59.42,175.32319048796344,1.9083311843278528,7.56202119143325,-167.7611692965302,175.32319048796342,176.27248596599117,0.9492954780277216,0.0,0.0,0.0,-0.0,NaN,NaN,NaN,NaN,NaN,NaN,NaN,NaN,false,false,-0.3504795804411064,0.8769947990406923,0.05140798839354799,,0.0,,,0.0408533,-0.016404813,-0.0028641082,0.99902636,0.029100727,-0.10952407,-0.03475941,9.0285233E-4,-4.7044115E-4,-4.724954E-4,-2200,4120,0,16,5702,26.7140757,58.3908152,,,,,99.99,99.99,64989.67,0,0,0,,,,20240228,85631,709,0,0,0,0,AutoTakeoff,2,1,0,0,0,30,5000,0.0,0.0,5,2,8,5,0,1,0,0,0,0,0,0.0,0.0,0.0,Hover,,,100.0,0,0,0,0,1,1,1,0,0,1,0,-439,-36,1500,1563.0,176.27248596599117,-471,-121,1463,1541.0,165.34275442482596,-3,-59,488,-158,-18,415,0,0,0,0,0,0,0,0,0,0,0,0,0,0,0,65568,0,0,0,0,false,false,false,false,false,false,false,false,false,false,3,0.0,0.0,,1.7418512E-7,3.299105E-8,,0.031999998,0.0,0.0,0.031999998,0.0,0.031999998,0.0019999999,0.0,0.04078969,0.0019999999,0.0,0.0019999999,,1000000.0,2930,3070,3015,3186,44,40,40,46,63.854168,65.520836,65.520836,65.15625,65.364586,65.364586,65.78125,65.78125,12.9,16.9,16.7,16.1,15.4,15.3,15.2,15.2,-0.05,-0.02,-0.02,-0.02,0,0,0,0,0.0,0.0,0.3,0.0,0.0,180.0,0.0,0.0,0.0,0,,AutoTakeoff,AUTO_FLY,APP_AUTO_TAKEOFF,ALREADY,False,Connected,,P,False,False,False,1500,0,0.1,0.0,0.082,18.84,18.79,19.66,19.36,0.9998531,-0.0035197232,0.0164946,-0.003056617,0.3974970674165789,-1.891486217518642,0.35687473437574435,-29.171911,0.4203325,-0.054491658,0,0,2024,15597,0,1240.0631,12800.0,15608,-1148,3161,61,47,1,3915,0,5182,0.0,0.0,
86390660,1.473,,,-29.7537,-28.873535,-0.8825092563476566,,0,-0.40904538013121156,1.870689437098465,175.33164895398852,0.034808546,-0.009315296,-0.9948524,0.9955048,1.7796601,7.88934,1.2745991,8.187398,0.0012245381,-0.0026332443,0.013273953,0.013587911,0.0029040435245783983,-439,-44,1506,1569.0,59.46,175.33164895398852,1.914826207806161,7.661781612232681,-167.66986734175583,175.33164895398852,175.1223010453256,-0.2093479086629202,0.0,0.0,0.0,-0.0,NaN,NaN,NaN,NaN,NaN,NaN,NaN,NaN,false,false,-0.3450471008987922,0.8750002363480409,0.05543559101900397,,0.0,,,0.04078032,-0.016455833,-0.002901309,0.99902844,0.0073534013,0.12245293,0.0451654,9.0285233E-4,-4.7044115E-4,-5.177073E-4,-2200,4120,0,16,5722,26.7140757,58.3908152,,,,,99.99,99.99,64989.67,0,0,0,,,,20240228,85631,711,0,0,0,0,AutoTakeoff,2,1,0,0,0,30,5000,0.0,0.0,5,2,8,5,0,1,0,0,0,0,0,0.0,0.0,0.0,Hover,,,100.0,0,0,0,0,1,1,1,0,0,1,0,-439,-44,1506,1569.0,175.1223010453256,-467,-110,1466,1542.0,166.63338122848083,-3,-63,491,-158,-17,416,0,0,0,0,0,0,0,0,0,0,0,0,0,0,0,65568,0,0,0,0,false,false,false,false,false,false,false,false,false,false,3,0.0,0.0,,1.7418512E-7,3.299105E-8,,0.031999998,0.0,0.0,0.031999998,0.0,0.031999998,0.0019999999,0.0,0.04078969,0.0019999999,0.0,0.0019999999,,1000000.0,2689,2847,2903,2969,42,41,41,46,65.416664,66.614586,66.354164,66.40625,66.510414,66.71875,67.1875,66.979164,16.6,19.6,18.9,18.9,15.4,15.5,15.2,14.9,0.03,0.04,0.03,0.04,0,0,0,0,0.0,0.0,0.3,0.0,0.0,180.0,0.0,0.0,0.0,0,,AutoTakeoff,AUTO_FLY,APP_AUTO_TAKEOFF,ALREADY,False,Connected,,P,False,False,False,1500,0,0.1,0.0,0.078,22.15,22.09,24.05,23.96,0.99985796,-0.0035488976,0.01623463,-0.0028340972,0.4013467530385962,-1.861612648576002,0.33132957717603634,-29.199709,0.40753272,0.019435108,0,0,2032,15596,0,1240.0631,12800.0,15608,-1148,3161,61,47,1,3915,0,5182,0.0,0.0,
86615907,1.523,,,-29.788132,-28.874252,-0.9169407138671879,,0,-0.39567852721982094,1.8703254787615597,175.33501486148913,0.03334272,0.018631876,-0.9998607,1.00059,1.3244767,1.6793243,-0.32466304,2.1632788,-7.0921675E-4,-0.006130438,0.009061202,0.010963149,0.006171325169344724,-452,-41,1514,1580.0,59.52,175.33501486148913,1.911663300139401,7.276215468629466,-168.05879939285967,175.33501486148907,175.65870345256465,0.3236885910755234,0.0,0.0,0.0,-0.0,NaN,NaN,NaN,NaN,NaN,NaN,NaN,NaN,false,false,-0.34271912533976556,0.8913725898112237,0.05402653237158572,,0.0,,,0.04074908,-0.016447835,-0.0027853865,0.9990302,0.020547125,-0.17491147,-0.020698885,9.0285233E-4,-4.7044115E-4,-4.6612116E-4,-2200,4120,0,16,5742,26.7140757,58.3908152,,,,,99.99,99.99,64989.67,0,0,0,,,,20240228,85631,714,0,0,0,0,AutoTakeoff,2,1,0,0,0,30,5000,0.0,0.0,5,2,8,5,0,1,0,0,0,0,0,0.0,0.0,0.0,Hover,,,100.0,0,0,0,0,1,1,1,0,0,1,0,-452,-41,1514,1580.0,175.65870345256465,-467,-118,1469,1545.0,165.55793719531124,-7,-61,494,-158,-18,416,0,0,0,0,0,0,0,0,0,0,0,0,0,0,0,65568,0,0,0,0,false,false,false,false,false,false,false,false,false,false,3,-0.03,-0.02,,-0.0012021754,-7.970274E-4,,0.014696339,0.0,0.0,0.014695942,0.0,0.014696336,9.185212E-4,0.0,0.040736035,9.184964E-4,0.0,9.18521E-4,,1000000.0,2446,2598,2637,2717,45,42,41,46,67.34375,68.645836,68.541664,69.270836,68.75,68.489586,69.322914,69.427086,21.2,24.3,24.0,25.7,15.2,15.2,14.9,15.0,0.19,0.4,0.37,0.45,0,0,0,0,0.0,0.0,0.3,0.0,0.0,180.0,0.0,0.0,0.0,0,,AutoTakeoff,AUTO_FLY,APP_AUTO_TAKEOFF,ALREADY,False,Connected,,P,False,False,False,1500,0,0.1,0.0,0.082,24.73,24.49,26.49,26.88,0.99985635,-0.003493445,0.016323818,-0.0029248511,0.3947938024976211,-1.8718514825807049,0.34166001461850654,-29.237173,0.37308365,-0.004006208,0,0,2044,15600,0,1240.0631,12800.0,15608,-1148,3161,61,47,1,3915,0,5182,0.0,0.0,
86840957,1.573,,,-29.571115,-28.873903,-0.6999244937744145,,0,-0.39616430692956467,1.860641703665877,175.3416589093262,0.030039066,-1.7982651E-4,-1.0015234,1.0019737,-2.5091033,-5.261328,-2.7837963,6.4596205,-0.003235966,-0.0043857973,0.006060843,0.008151105,0.005450384800798206,-433,-30,1514,1574.0,59.51,175.3416589093262,1.9022915501202118,7.357560109419245,-167.98409879990697,175.34165890932627,177.08536589115232,1.743706981826108,0.0,0.0,0.0,-0.0,NaN,NaN,NaN,NaN,NaN,NaN,NaN,NaN,false,false,-0.33761728806965474,0.8938672098774678,0.0432341039484484,,0.0,,,0.040690992,-0.01636342,-0.002794014,0.9990339,0.053867653,0.043446433,-0.0422382,9.0285233E-4,-4.7044115E-4,-4.7830146E-4,-2200,4120,0,16,5762,26.7140757,58.3908152,,,,,99.99,99.99,64989.67,0,0,0,,,,20240228,85631,716,0,0,0,0,AutoTakeoff,2,1,0,0,0,30,5000,0.0,0.0,5,2,8,5,0,1,0,0,0,0,0,0.0,0.0,0.0,Hover,,,100.0,0,0,0,0,1,1,1,0,0,1,0,-433,-30,1514,1574.0,177.08536589115232,-467,-116,1472,1548.0,165.82410517968805,0,-58,493,-157,-15,416,0,0,0,0,0,0,0,0,0,0,0,0,0,0,0,65568,0,0,0,0,false,false,false,false,false,false,false,false,false,false,3,-0.03,-0.02,,-0.0012021754,-7.970274E-4,,0.014696339,0.0,0.0,0.014695942,0.0,0.014696336,9.185212E-4,0.0,0.040736035,9.184964E-4,0.0,9.18521E-4,,1000000.0,2431,2601,2640,2755,45,42,41,46,68.333336,69.895836,69.84375,69.895836,70.0,69.6875,70.625,69.739586,23.4,27.2,27.1,27.2,14.9,15.2,14.9,15.1,0.36,0.72,0.55,0.67,0,0,0,0,0.0,0.0,0.3,0.0,0.0,180.0,0.0,0.0,0.0,0,,AutoTakeoff,AUTO_FLY,APP_AUTO_TAKEOFF,ALREADY,False,Connected,,P,False,False,False,1500,0,0.1,0.0,0.082,27.14,28.63,30.23,30.45,0.9998576,-0.0034941547,0.016234655,-0.0030069416,0.394752743399367,-1.8616650630499376,0.35103192759550916,-29.262894,0.36167294,0.0214836,0,0,2052,15604,0,1240.0631,12800.0,15608,-1148,3161,61,47,1,3915,0,5182,0.0,0.0,
87066025,1.623,,,-29.939419,-28.873491,-1.0682277927246098,,0,-0.3927908396912613,1.863487471791437,175.30914109291666,0.036079884,0.0052039754,-0.99572766,0.9963947,1.6560065,0.52680874,3.2963388,3.7263567,-0.0035381692,-0.0074026096,0.003583143,0.008952999,0.00820471017073664,-436,-36,1494,1556.0,59.52,175.30914109291666,1.9043772505218608,7.207965833803354,-168.10117525911332,175.30914109291666,176.19401204058244,0.8848709476657746,0.0,0.0,0.0,-0.0,NaN,NaN,NaN,NaN,NaN,NaN,NaN,NaN,false,false,-0.3743891037457022,0.9013031711862969,0.04406708468290643,,0.0,,,0.040974084,-0.016387818,-0.0027589425,0.99902207,-0.084832914,0.05250999,0.08629714,9.027581E-4,-4.7055224E-4,-5.232559E-4,-2200,4120,0,16,5782,26.7140757,58.3908152,,,,,99.99,99.99,64991.31,0,0,0,,,,20240228,85631,719,0,0,0,0,AutoTakeoff,2,1,0,0,0,30,5000,0.0,0.0,5,2,8,5,0,1,0,0,0,0,0,0.0,0.0,0.0,Hover,,,100.0,0,0,0,0,1,1,1,0,0,1,0,-436,-36,1494,1556.0,176.19401204058244,-467,-113,1463,1539.0,166.19825218419075,-3,-61,488,-157,-16,415,0,0,0,0,0,0,0,0,0,0,0,0,0,0,0,65568,0,0,0,0,false,false,false,false,false,false,false,false,false,false,3,0.0,-0.01,0.01,-0.0011990264,-7.9677236E-4,-2.1190466E-5,0.0031151858,0.0,0.0,0.0031150936,0.0,0.0031151825,1.9469911E-4,0.0,0.040630832,1.9469335E-4,0.0,1.946989E-4,,1000000.0,2486,2657,2800,2844,46,42,41,47,69.427086,70.625,71.09375,70.572914,71.041664,70.208336,71.510414,70.729164,26.2,28.9,30.1,28.8,15.1,15.1,15.0,14.9,0.61,0.93,1.12,0.97,0,0,0,0,0.0,0.0,0.3,0.0,0.0,180.0,0.0,0.0,0.0,0,,AutoTakeoff,AUTO_FLY,APP_AUTO_TAKEOFF,ALREADY,False,Connected,,P,False,False,False,1700,0,0.1,0.0,0.078,31.6,29.36,32.69,30.94,0.9998563,-0.0034814978,0.016265405,-0.0032686377,0.3928036679787812,-1.8652877191046966,0.38100533085161226,-29.297548,0.34223682,0.010296999,0,0,2064,15610,0,1240.0631,12800.0,15608,-1148,3161,61,47,1,3915,0,5182,0.0,0.0,
87291173,1.673,,,-30.118362,-28.874197,-1.247171426757813,,0,-0.39185920463469726,1.8476690293330762,175.31735841271657,0.028274074,0.009629421,-1.0005987,1.0010444,-2.593599,-3.4638453,-12.817696,13.528425,-0.005058378,-0.00651151,0.004956291,0.009620382,0.008245419827067552,-439,-38,1514,1576.0,59.5,175.31735841271657,1.8887089974720004,7.287546137260624,-168.02981227545595,175.31735841271654,175.94493032111424,0.6275719083976696,0.0,0.0,0.0,-0.0,NaN,NaN,NaN,NaN,NaN,NaN,NaN,NaN,false,false,-0.3686279225383121,0.9049740748704072,0.02692099294848871,,0.0,,,0.04090192,-0.016249383,-0.0027576415,0.9990272,-0.042857375,0.119702496,1.6555889E-5,9.027581E-4,-4.7055224E-4,-5.0715083E-4,-2200,4120,0,16,5802,26.7140757,58.3908152,,,,,99.99,99.99,64991.31,0,0,0,,,,20240228,85631,721,0,0,0,0,AutoTakeoff,2,1,0,0,0,30,5000,0.0,0.0,5,2,8,5,0,1,0,0,0,0,0,0.0,0.0,0.0,Hover,,,100.0,0,0,0,0,1,1,1,0,0,1,0,-439,-38,1514,1576.0,175.94493032111424,-467,-113,1466,1542.0,166.20768413646695,-2,-60,494,-157,-14,413,0,0,0,0,0,0,0,0,0,0,0,0,0,0,0,65568,0,0,0,0,false,false,false,false,false,false,false,false,false,false,3,0.0,-0.01,0.01,-0.0011990264,-7.9677236E-4,-2.1190466E-5,0.0031151858,0.0,0.0,0.0031150936,0.0,0.0031151825,1.9469911E-4,0.0,0.040630832,1.9469335E-4,0.0,1.946989E-4,,1000000.0,2642,2799,2852,2969,46,42,41,47,70.416664,71.770836,71.979164,70.9375,71.5625,71.302086,72.291664,71.666664,28.5,31.9,32.1,29.8,15.1,15.2,14.9,14.9,0.9,1.2,1.35,1.11,0,0,0,0,0.0,0.0,0.3,0.0,0.0,180.0,0.0,0.0,0.0,0,,AutoTakeoff,AUTO_FLY,APP_AUTO_TAKEOFF,ALREADY,False,Connected,,P,False,False,False,1700,0,0.1,0.0,0.082,33.29,34.03,35.82,33.32,0.999857,-0.0033895527,0.016213525,-0.0034348369,0.3819796434156692,-1.8593684917527546,0.39985656100013794,-29.328918,0.36800447,0.0074111824,0,0,2072,15615,0,1240.0631,12800.0,15608,-1148,3161,61,47,1,3915,0,5182,0.0,0.0,
