Clock:Tick#,Clock:offsetTime,IMU_ATTI(0):Longitude,IMU_ATTI(0):Latitude,IMU_ATTI(0):press:D,IMU_ATTI(0):alti:D,IMU_ATTI(0):relativeHeight:C,IMU_ATTI(0):absoluteHeight:C,IMU_ATTI(0):numSats,IMU_ATTI(0):roll:C,IMU_ATTI(0):pitch:C,IMU_ATTI(0):yaw:C,IMU_ATTI(0):accelX,IMU_ATTI(0):accelY,IMU_ATTI(0):accelZ,IMU_ATTI(0):accelComposite:C,IMU_ATTI(0):gyroX,IMU_ATTI(0):gyroY,IMU_ATTI(0):gyroZ,IMU_ATTI(0):gyroComposite:C,IMU_ATTI(0):velN,IMU_ATTI(0):velE,IMU_ATTI(0):velD,IMU_ATTI(0):velComposite:C,IMU_ATTI(0):velH:C,IMU_ATTI(0):magX,IMU_ATTI(0):magY,IMU_ATTI(0):magZ,IMU_ATTI(0):magMod:C,IMU_ATTI(0):temperature,IMU_ATTI(0):yawUnWrapped:C,IMU_ATTI(0):tiltInclination:C,IMU_ATTI(0):tiltDirectionEarthFrame:C,IMU_ATTI(0):tiltDirectionBodyFrame:C,IMU_ATTI(0):yaw360:C,IMU_ATTI(0):magYaw:C,IMU_ATTI(0):Yaw-magYaw:C,IMUCalcs(0):PosN:C,IMUCalcs(0):PosE:C,IMUCalcs(0):PosD:C,IMUCalcs(0):height:C,IMUCalcs(0):velN:C,IMUCalcs(0):velE:C,IMUCalcs(0):velD:C,IMUCalcs(0):diffVelN:C,IMUCalcs(0):diffVelE:C,IMUCalcs(0):diffVelD:C,IMUCalcs(0):Lat:C,IMUCalcs(0):Long:C,IMUCalcs(0):VelocityError:C,IMUCalcs(0):PositionError:C,IMUCalcs(0):totalGyroZ:C,IMUCalcs(0):totalGyroX:C,IMUCalcs(0):totalGyroY:C,IMU_ATTI(0):distanceHP:C,IMU_ATTI(0):distanceTravelled:C,IMU_ATTI(0):directionOfTravel[mag]:C,IMU_ATTI(0):directionOfTravel[true]:C,IMU_ATTI(0):quatW:D,IMU_ATTI(0):quatX:D,IMU_ATTI(0):quatY:D,IMU_ATTI(0):quatZ:D,IMU_ATTI(0):agX:D,IMU_ATTI(0):agY:D,IMU_ATTI(0):agZ:D,IMU_ATTI(0):gbX:D,IMU_ATTI(0):gbY:D,IMU_ATTI(0):gbZ:D,IMU_ATTI(0):ty:D,IMU_ATTI(0):tz:D,IMU_ATTI(0):sensor_stat:D,IMU_ATTI(0):filter_stat:D,IMU_ATTI(0):atti_cnt:D,GPS:Long,GPS:Lat,GPS:Date,GPS:Time,GPS:dateTimeStamp,GPS:heightMSL,GPS:hDOP,GPS:pDOP,GPS:sAcc,GPS:numGPS,GPS:numGLNAS,GPS:numSV,GPS:velN,GPS:velE,GPS:velD,GPS:rawDate,GPS:rawTime,Controller:ctrl_tick:D,Controller:ctrl_pitch:D,Controller:ctrl_roll:D,Controller:ctrl_yaw:D,Controller:ctrl_thr:D,Controller:ctrl_mode,Controller:mode_switch:D,Controller:motor_state:D,Controller:sig_level:D,Controller:ctrl_level:D,Controller:sim_model:D,Controller:max_height:D,Controller:max_radius:D,Controller:D2H_x:D,Controller:D2H_y:D,Controller:act_req_id:D,Controller:act_act_id:D,Controller:cmd_mod:D,Controller:mod_req_id:D,Controller:fw_flag:D,Controller:mot_sta:D,Controller:OH_take:D,Controller:OH_take_f:D,Controller:rc_cnt:D,Controller:sup_rc:D,Controller:is_soaring_up:D,Controller:soar_up_timer:D,Controller:vert_vel_err:D,Controller:vert_vel_err_fltr:D,RC_Info:failSafe,RC_Info:dataLost,RC_Info:appLost,RC_Info:sigStrength:C,RC_Info:cur_cmd:D,RC_Info:vedio_lost:D,RC_Info:frame_lost:D,RC_Info:rec_cnt:D,RC_Info:sky_con:D,RC_Info:gnd_con:D,RC_Info:connected:D,RC_Info:m_changed:D,RC_Info:arm_status:D,RC_Info:wifi_en:D,RC_Info:in_wifi:D,MagCali(0):X:D,MagCali(0):Y:D,MagCali(0):Z:D,MagCali(0):Mod:C,MagCali(0):magYaw:C,MagCali(1):X:D,MagCali(1):Y:D,MagCali(1):Z:D,MagCali(1):Mod:C,MagCali(1):magYaw:C,CompassFilter(0):X:D,CompassFilter(0):Y:D,CompassFilter(0):Z:D,CompassFilter(1):X:D,CompassFilter(1):Y:D,CompassFilter(1):Z:D,BatteryStatus:not_ready,BatteryStatus:comm_err,BatteryStatus:first_auth,BatteryStatus:auth_fail,BatteryStatus:need_re,BatteryStatus:volVerylow,BatteryStatus:volNotsafe,BatteryStatus:volLevel1:D,BatteryStatus:vollevel2:D,BatteryStatus:capLevel1:D,BatteryStatus:capLevel2:D,BatteryStatus:smartCap1:D,BatteryStatus:smartCap2:D,BatteryStatus:d_flg:D,BatteryStatus:ccsc:D,BatteryStatus:all:D,SMART_BATT:goHome%,SMART_BATT:land%,SMART_BATT:goHomeTime,SMART_BATT:landTime,OA:frontDistance,MVO:velX,MVO:velY,MVO:velZ,MVO:posX,MVO:posY,MVO:posZ,MVO:hoverPointUncertainty1,MVO:hoverPointUncertainty2,MVO:hoverPointUncertainty3,MVO:hoverPointUncertainty4,MVO:hoverPointUncertainty5,MVO:hoverPointUncertainty6,MVO:velocityUncertainty1,MVO:velocityUncertainty2,MVO:velocityUncertainty3,MVO:velocityUncertainty4,MVO:velocityUncertainty5,MVO:velocityUncertainty6,MVO:height,MVO:heightUncertainty,Motor:Speed:RFront,Motor:Speed:LFront,Motor:Speed:LBack,Motor:Speed:RBack,Motor:EscTemp:RFront,Motor:EscTemp:LFront,Motor:EscTemp:LBack,Motor:EscTemp:RBack,Motor:PPMrecv:RFront,Motor:PPMrecv:LFront,Motor:PPMrecv:LBack,Motor:PPMrecv:RBack,Motor:PPMsend:RFront,Motor:PPMsend:LFront,Motor:PPMsend:LBack,Motor:PPMsend:RBack,Motor:V_out:RFront,Motor:V_out:LFront,Motor:V_out:LBack,Motor:V_out:RBack,Motor:Volts:RFront,Motor:Volts:LFront,Motor:Volts:LBack,Motor:Volts:RBack,Motor:Current:RFront,Motor:Current:LFront,Motor:Current:LBack,Motor:Current:RBack,Motor:Status:RFront,Motor:Status:LFront,Motor:Status:LBack,Motor:Status:RBack,AirSpeed:air_vbx:D,AirSpeed:air_vby:D,AirSpeed:comp_alti:D,AirSpeed:windSpeed,AirSpeed:windDirection,AirSpeed:windFromDir,AirSpeed:windN,AirSpeed:windE,AirSpeed:MotorSpd:D,AirSpeed:vel_level:D,eventLog,osd_data:flyCState,osd_data:flycCommand,osd_data:flightAction,osd_data:nonGPSCause,osd_data:compassError,osd_data:connectedToRC,osd_data:lowVoltage,osd_data:ModeSwitch,osd_data:gpsUsed,osd_data:visionUsed,osd_data:notEnoughForce,osd_data:flightTime,osd_data:navHealth,osd_data:vpsHeight,osd_data:relativeHeight,usonic:usonic_h,ATTI_MINI0:s_qw0,ATTI_MINI0:s_qx0,ATTI_MINI0:s_qy0,ATTI_MINI0:s_qz0,ATTI_MINI0:roll:C,ATTI_MINI0:pitch:C,ATTI_MINI0:yaw:C,ATTI_MINI0:s_pgz0,ATTI_MINI0:s_vgz0,ATTI_MINI0:s_agz0,ATTI_MINI0:s_rsv00,ATTI_MINI0:s_rsv10,ATTI_MINI0:s_cnt0,BatteryInfo:ad_v:D,BatteryInfo:r_time,BatteryInfo:ave_I:D,BatteryInfo:vol_t:D,BatteryInfo:pack_ve:D,BatteryInfo:I:D,BatteryInfo:r_cap:D,BatteryInfo:cap_per:D,BatteryInfo:temp:D,BatteryInfo:right:D,BatteryInfo:l_cell:D,BatteryInfo:dyna_cnt:D,BatteryInfo:f_cap:D,BatteryInfo:out_ctl:D,BatteryInfo:out_ctl_f:D,Attribute|Value,ConvertDatV3,4.3.0
0,.000,,,,,,,,,,,,,,,,,,,,,,,,,,,,,,,,,,,,,,,,,,,,,,,,,,,,,,,,,,,,,,,,,,,,,,,,,,,,,,,,,,,,,,,,,,,,,,,,,,,,,,,,,,,,,,,,,,,,,,,,,,,,,,,,,,,,,,,,,,,,,,,,,,,,,,,,,,,,,,,,,,,,,,,,,,,,,,,,,,,,,,,,,,,,,,,,,,,,,,,,,,,,,,,,,,,,,,,,,,,,,,,,,,,,,,,,,,,,,,,,,,,,,,,,,,,,,,,,,,,,,,,,,,,,,,,,,,,,
11729742,2.607,,,,,,,,,,,,,,,,,,,,,,,,,,,,,,,,,,,,,,,,,,,,,,,,,,,,,,,,,,,,,,,,,,,,,,,,,,,,,,,,,,,,,,,,,,,,,,,,,,,,,,,,,,,,,,,,,,,,,,,,,,,,,,,,,,,,,,,,,,,,,,,,,,,,,,,,,,,,,,,,,,,,,,,,,,,,,,,,,,,,,,,,,,,,0.0,,,,,,,,,,,,,,,,,,,,,,,,,,,,,,,,,,,,,,,,,,,,{root}INFO:lib_route_init ok,,,,,,,,P,,,,,,,,,,,,,,,,,,,,,,,,,,,,,,,,,,,,,Firmware Date| Nov 16 2017
17135557,3.808,,,,,,,,,,,,,,,,,,,,,,,,,,,,,,,,,,,,,,,,,,,,,,,,,,,,,,,,,,,,,,,,,,,,,,,,,,,,,,,,,,,,,,,,,,,,,,,,,,,,,,,,,,,,,,,,,,,,,,,,,,,,,,,,,,,,,,,,,,,,,,,,,,,,,,,,,,,,,,,,,,,,,,,,,,,,,,,,,,,,,,,,,,,,0.0,,,,,,,,,,,,,,,,,,,,,,,,,,,,,,,,,,,,,,,,,,,,{root}INFO:link_host_init ok.|||{root}INFO:link_init <0> link_host. ret(0x0)|||{root}INFO:link_init <1> link_pc. ret(0x0)|||{root}INFO:link_init <2> link_vo. ret(0x0)|||{root}INFO:link_init <3> link_ap. ret(0x0)|||{root}INFO:link_init <4> link_sdk. ret(0x0)|||{root}INFO:link_init <5> link_ofdm. ret(0x0)|||{root}INFO:link_init <6> link_auto_cali. ret(0x0)|||{root}INFO:link_init <7> link_manual_cali. ret(0x0)|||{root}INFO:link_init <8> link_cali_led. ret(0x0)|||      0 [L-SENSOR][ASR]sync host lead offset 0x11a|||{root}INFO:[panic]:******************check fault info and trace(0) ************|||{root}INFO:[panic]:-----fault info is null: addr(0x2045e800).flag(0x3f705a6b)-----|||{root}INFO:[panic]:-----fault info is null: addr(0x2045e938).flag(0x9d28dbce)-----|||{root}INFO:[panic]:-----all task info  is null: addr(0x2045ea70).flag(0x067459dc)-----|||{root}INFO:[panic]:-----trace info  is null: addr(0x2045f260).flag(0x5676a18a)-----|||{root}INFO:[panic]:******************check last trace ******************|||{root}INFO:[panic]:-----trace info  is null: addr(0x2045eca0).flag(0x0b9b8ae6)-----|||      0 [L-SENSOR][ASR]asr host sync start|{root}INFO:[panic]:-----wdg_time_info is null: addr(0x2045f820).flag(0x93ceddbc)-----|||      0 [L-SENSOR] hw_ver voltage: 0,,,,,,,,P,,,,,,,,,,,,,,,,,,,,,,,,,,,,,,,,,,,,,ACType|P4
21273788,4.728,,,,,,,,,,,,,,,,,,,,,,,,,,,,,,,,,,,,,,,,,,,,,,,,,,,,,,,,,,,,,,,,,,,,,,,,,,,,,,,,,,,,,,,,,,,,,,,,,,,,,,,,,,,,,,,,,,,,,,,,,,,,,,,,,,,,,,,,,,,,,,,,,,,,,,,,,,,,,,,,,,,,,,,,,,,,,,,,,,,,,,,,,,,,0.0,,,,,,,,,,,,,,,,,,,,,,,,,,,,,,,,,,,,,,,,,,,,      0 [L-SIM]read parameter successfully!,,,,,,,,P,,,,,,,,,,,,,,,,,,,,,,,,,,,,,,,,,,,,,
21498860,4.778,,,,,,,,,,,,,,,,,,,,,,,,,,,,,,,,,,,,,,,,,,,,,,,,,,,,,,,,,,,,,,,,,,,,,,,,,,,,,,,,,,,,,,,,,,,,,,,,,,,,,,,,,,,,,,,,,,,,,,,,,,,,,,,,,,,,,,,,,,,,,,,,,,,,,,,,,,,,,,,,,,,,,,,,,,,,,,,,,,,,,,,,,,,,0.0,,,,,,,,,,,,,,,,,,,,,,,,,,,,,,,,,,,,,,,,,,,,      0 [L-FMU/MOTOR]read motor force disable flag successfully!|      0 [L-FMU/DM]success reg dev type  3(A3). id:2. total num:2|      0 [L-SENSOR][ASR]need re sync host load_offset. freq=0x190|||      0 [L-SENSOR][ASR]need re sync host load_offset. freq=0x190|||      0 [L-SENSOR][ASR]need re sync host load_offset. freq=0x190|||      0 [L-SENSOR][ASR]need re sync host load_offset. freq=0x190|||      0 [L-SENSOR]imu group0 ok|      0 [L-GYRO_ACC]imu_0 group->sensor_id:e36a51 |      0 [L-GYRO_ACC]turn on temp ctrl(0). cur_temp:-50.0. reason:temp ctrl core init|      0 [L-GYRO_ACC]turn on temp ctrl(0). cur_temp:0.0. reason:gyro_acc_tmp_ctl_init|      0 [L-SENSOR][ASR]sync host lead offset 0x11a|||      0 [L-GYRO_ACC]fitler-angular_vel. cheby2_config_7th|      0 [L-GYRO_ACC]fz: 160.000000 hz.50.000000 dB|      0 [L-GYRO_ACC]fitler-linear_acc. butter_config_3rd_z2|      0 [L-SENSOR][ASR]asr host sync start|      0 [L-GYRO_ACC] fp= 16.000000 hz; fz=100.000000 hz fs=2000.000000|      0 [L-GYRO_ACC]bandpass: fp= 50.000000 hz; fs=350.000000 hz; sample=2000.000000|      0 [L-FDI][IMU]0 dir ok 1.000000 0.000000 0.000000 0.000000 1.000000 0.000000 0.000000 0.|      0 [L-FDI][IMU]0 mis cali ok|      0 [L-FDI][IMU]0 level 1&2 temp cali ok|      0 [L-FDI][IMU]0 base cali ok ff aa|      0 [L-FDI][IMU]0 cali ver ok ff 4 6 6|      0 [L-FMU/DM]success reg dev type  8(gyro_acc0). id:3. total num:3|      0 [L-SENSOR]imu group1 ok|      0 [L-GYRO_ACC]imu_1 group->sensor_id:20e36a51 |      0 [L-GYRO_ACC]turn on temp ctrl(1). cur_temp:-50.0. reason:temp ctrl core init|      0 [L-GYRO_ACC]turn on temp ctrl(1). cur_temp:0.0. reason:gyro_acc_tmp_ctl_init|      0 [L-GYRO_ACC]fitler-angular_vel. cheby2_config_7th|      0 [L-GYRO_ACC]fz: 160.000000 hz.50.000000 dB|      0 [L-GYRO_ACC]fitler-linear_acc. butter_config_3rd_z2|      0 [L-GYRO_ACC] fp= 16.000000 hz; fz=100.000000 hz fs=2000.000000|      0 [L-GYRO_ACC]bandpass: fp= 50.000000 hz; fs=350.000000 hz; sample=2000.000000|      0 [L-FDI][IMU]1 dir ok 1.000000 0.000000 0.000000 0.000000 1.000000 0.000000 0.000000 0.|      0 [L-FDI][IMU]1 mis cali ok|      0 [L-FDI][IMU]1 level 1&2 temp cali ok|      0 [L-FDI][IMU]1 base cali ok ff aa|      0 [L-FDI][IMU]1 cali ver ok ff 4 6 6|      0 [L-FMU/DM]success reg dev type  8(gyro_acc1). id:4. total num:4|      0 [L-SENSOR]baro group0 ok|      0 [L-FMU/DM]success reg dev type  9(baro0). id:5. total num:5|      0 [L-SENSOR]compass group0 ok|      0 [L-FMU/DM]success reg dev type 10(compass0). id:6. total num:6|      0 [L-SENSOR]compass group1 ok|      0 [L-FMU/DM]success reg dev type 10(compass0). id:7. total num:7|      0 [L-FMU/DM]success reg dev type  4(imu0_local). id:8. total num:8|      0 [L-FMU/DM]success reg dev type 19(rc0). id:9. total num:9|      0 [L-FMU/DM]success reg dev type 15(zenmus0). id:10. total num:10|      0 [L-FMU/DM]success reg dev type 14(camera0). id:11. total num:11|      0 [L-FMU/DM]success reg dev type 12(vo0). id:12. total num:12|      0 [L-FMU/DM]success reg dev type 11(ultrasonic0). id:13. total num:13|      0 [L-GPS]<AGPS INFO>comm agps init.agps mode :HOST-BASE|      0 [L-SDK][USER] api cfg load success (BR:921600)!|||      0 [L-FMU/DM]success reg dev type 22(sdk0). id:14. total num:14|      0 [L-BATTERY]-------comm_bat_init-------|      0 [L-FMU/DM]success reg dev type 26(battery0). id:15. total num:15|      0 [L-BATTERY]bat_auth_origa_init|      0 [L-BATTERY]bat_auth_origa_stop|      0 [L-FMU/DM]success reg dev type 32(wristband0). id:16. total num:16|      0 [L-FMU/DM]success reg dev type 33(headset0). id:17. total num:17|      0 [L-PWM]actuator_cfg_changed![ACTUATOR_0],,,,,,,,P,,,,,,,,,,,,,,,,,,,,,,,,,,,,,,,,,,,,,
21725901,4.828,,,0.0,-0.0,,,0,NaN,0.0,0.0,0.0023466486,-0.011935468,-0.113643505,0.114292644,0.24827887,0.46923444,-0.5107944,0.736705,0.0,0.0,0.0,0.0,0.0,-57,45,416,422.0,0.0,0.0,NaN,NaN,NaN,0.0,NaN,NaN,0.0,0.0,0.0,-0.0,NaN,NaN,NaN,NaN,NaN,NaN,NaN,NaN,false,false,-0.0012755538363080632,6.200010530292843E-4,0.0011717704511937654,,0.0,,,0.0,0.0,0.0,0.0,0.0,0.0,0.0,0.0,0.0,0.0,0,0,0,0,5,0.0,0.0,,,,,99.99,99.99,3.75E7,0,0,0,,,,0,0,,,,,,,,,,,,,,,,,,,,,,,,,,,,,,,,,,,,,,,,,,,,,-57,45,416,422.0,NaN,-204,76,351,413.0,NaN,-19,15,138,-68,25,117,,,,,,,,,,,,,,,,,,,,,,,,,,,,,,,,,,,,,,,,0.0,,,,,,,,,,,,,,,,,,,,,,,,,,,,,,,,,,,,,,,,,,,,      0 [L-PWM]actuator_cfg_changed![ACTUATOR_1]|      0 [L-PWM]actuator_cfg_changed![ACTUATOR_2]|      0 [L-PWM]actuator_cfg_changed![ACTUATOR_3]|      0 [L-PWM]actuator_cfg_changed![ACTUATOR_4]|      0 [L-PWM]actuator_cfg_changed![ACTUATOR_5]|      0 [L-PWM]actuator_cfg_changed![ACTUATOR_6]|      0 [L-PWM]actuator_cfg_changed![ACTUATOR_7]|      0 [L-PWM]set actuator mode:IDLE|      0 [L-PWM]f_chl_cfg changed!|      0 [L-FMU/DM]success reg dev type 17(). id:18. total num:18|      0 [L-FMU/DM]success reg dev type  0(esc4). id:19. total num:19|      0 [L-FMU/DM]success reg dev type 16(GEAR). id:20. total num:20|      0 [L-FMU/DM]success reg dev type 24(DROPSAFE). id:21. total num:21|      0 [L-FMU/DM]success reg dev type 34(PITOT). id:22. total num:22|      0 [L-DBG1][Init]Init ok:|      0 [L-DBG1][Init]HF task : 400Hz @ mode2|      0 [L-DBG1][Init]LF task : 50Hz @ mode0|      0 [L-DBG1][Init]Tail: 400Hz Atti: 200Hz|      0 [L-DBG1][Init]Init ok:|      0 [L-DBG1][Init]MF task : 200Hz @ mode4|      0 [L-USER][USER]Read user config!|      0 [L-USER][USER]Read statistical info!|      0 [L-USER][USER]Read statistical info!|{root}INFO:reset by power.|||{root}INFO:iwdg_set_time_out time_out(0x00000a23)!|{root}INFO:wdg_set_swdg_time_out time_out(2595) set g_swdg_timeout_max(480) |||{root}INFO:watchdog enable.|||      0 [L-SENSOR][ASR]ASR sync start(start).phase lead = 0|      0 [L-GPS]<GPS INFO>m8_poll_uniqid gps[0][0]|      0 [L-GPS]<GPS ERROR>m8 uid not received!|      0 [L-SDK][USER] Init_dji_api_protocol start!|||      0 [L-SDK][USER] Baud_rate: 921600 |||      0 [L-SDK][USER]----------start sdk protocol ---------|||      0 [L-CTRL]horiz vel complement filter fc:0.300000|      0 [L-CTRL]vert vel complement filter fc:0.300000|      0 [L-NS][AHRS] baro abp : 0.100000|      0 [L-NS][AHRS] baro a   : 0.998000|      0 [L-NS][AHRS] baro v   : 0.620000|      0 [L-NS][AHRS] baro p   : 0.680000|      0 [L-NS][AHRS] mag_gain: 100|      0 [L-NS][AHRS]  fs_gnss_hp        :  1|      0 [L-NS][AHRS]  fs_gnss_hv        :  1|      0 [L-NS][AHRS]  fs_gnss_vp        :  1|      0 [L-NS][AHRS]  fs_vodm_hp        :  1|      0 [L-NS][AHRS]  fs_vodm_hv        :  1|      0 [L-NS][AHRS]  fs_vodm_vp        :  1|      0 [L-NS][AHRS]  fs_vodm_vv        :  1|      0 [L-NS][AHRS]  fs_vodm_vh        :  1|      0 [L-NS][AHRS]  fs_usnc_vp        :  1|      0 [L-NS][AHRS]  fs_baro_vp        :  1|      0 [L-NS][AHRS]  fs_magn_yaw       :  1|      0 [L-NS][AHRS]  dlt_gnss_hp       : 35|      0 [L-NS][AHRS]  dlt_gnss_hv       : 55|      0 [L-NS][AHRS]  dlt_gnss_vp       : 35|      0 [L-NS][AHRS]  dlt_gnss_vv       : 55|      0 [L-NS][AHRS]  dlt_vodm_hp       :  4|      0 [L-NS][AHRS]  dlt_vodm_hv       :  4|      0 [L-NS][AHRS]  dlt_vodm_vp       :  4|      0 [L-NS][AHRS]  dlt_vodm_vv       :  4|      0 [L-NS][AHRS]  dlt_vodm_vh       :  4|      0 [L-NS][AHRS]  dlt_rtks_hp_p     : 60|      0 [L-NS][AHRS]  dlt_rtks_hp_s     : 60|      0 [L-NS][AHRS]  dlt_rtks_hv       : 60|      0 [L-NS][AHRS]  dlt_rtks_vp_p     : 40|      0 [L-NS][AHRS]  dlt_rtks_vp_s     : 60|      0 [L-NS][AHRS]  dlt_rtks_vv       : 60|      0 [L-NS][AHRS]  dlt_rtks_yaw      : 60|      0 [L-NS][AHRS]  dlt_magn_yaw      :  5|      0 [L-NS][AHRS]  thermostatic_temp : 65|      0 [L-NS][AHRS]  ground_effect_ht  : 50|      0 [L-NS][AHRS] Rgps:0.000.0.000.-0.030|||      0 [L-NS][AHRS] Rimu:0.023.0.013.-0.014|||      0 [L-NS][AHRS]version: V3_20161218_[09],,,,,,,,P,,,,,,,,,,,,,,,,,,,,,,,,,,,,,,,,,,,,,
23114182,5.136,,,0.0,-0.0,,,0,NaN,0.0,0.0,0.10822868,-0.022851009,-1.0412871,1.0471458,-0.27480257,-0.14467022,-0.694576,0.7608428,0.0,0.0,0.0,0.0,0.0,-615,267,1286,1450.0,0.0,0.0,NaN,NaN,NaN,0.0,NaN,NaN,0.0,0.0,0.0,-0.0,NaN,NaN,NaN,NaN,NaN,NaN,NaN,NaN,false,false,-0.023495049326022865,5.497919833423737E-4,0.013100380366809716,,0.0,,,0.0,0.0,0.0,0.0,0.0,0.0,0.0,0.0,0.0,0.0,0,0,0,0,23,0.0,0.0,,,,,99.99,99.99,3.75E7,0,0,0,,,,0,0,2,0,0,0,0,Manual,0,0,0,0,0,30,50,0.0,0.0,0,5,0,0,0,0,0,0,0,0,0,0.0,0.0,0.0,Hover,,lost,0.0,0,0,0,0,0,0,0,0,0,1,0,-615,267,1286,1450.0,NaN,-636,154,1264,1423.0,NaN,-66,53,486,-239,89,409,,,,,,,,,,,,,,,,,,,,,,,,,,,,,,,,,,,,,,,,0.0,,,,,,,,,,,,,,,,,,,,,,,,,,,,,,,,,,0.0,0.0,0.0,0.0,0.0,180.0,0.0,0.0,0.0,0,      1 [L-RC]rc type 0 => 1|      1 [L-RC]read flash success. cur type:1|      1 [L-RC]>364 1024 1684|      1 [L-RC]>364 1024 1684|      1 [L-RC]>364 1024 1684|      1 [L-RC]>364 1024 1684|      1 [L-RC]first config rc|      1 [L-RC]reset rc cfg because of initial cfg err or cfg not match with rc_type|      1 [L-CFG][read_rc_cfg_and_save] save(&FMU_CFG_GET(CFG_RC. rc_cfg_t)->rc_reverse_cfg[0])|      1 [L-CFG][read_rc_cfg_and_save] save(&FMU_CFG_GET(CFG_RC. rc_cfg_t)->rc_map_cfg[0])|      1 [L-FMU/MOTOR]esc err. status:0|      1 [L-FMU/MOTOR]fault on . esc(1) is disconnect|      1 [L-FMU/MOTOR]fault on . esc(2) is disconnect|      1 [L-FMU/MOTOR]fault on . esc(3) is disconnect|      1 [L-FMU/MOTOR]fault on . esc(4) is disconnect|      1 [L-BATTERY]lowpass filter config : fc = 0.5 fs = 50|      1 [L-IMU]set imu switch level = 1|      1 [L-COMPASS][frame cali data] version invalid|      1 [L-COMPASS][cur cali data]fmu:0.user:0.current cali data invalid|      1 [L-COMPASS][cur cali data]fmu:1.user:1.current cali data invalid|      1 [L-COMPASS][read app cali data]mask:14721.version:16.flag:1 1 255.user_flag:1|      1 [L-COMPASS][read load data] in user index mode|      1 [L-COMPASS][read app cali data]fmu:0.user:0.scale:[ 3.261  2.837  2.966]|      1 [L-COMPASS][read app cali data]fmu:0.user:0.bias:[-429.749 134.211 49.938]|      1 [L-COMPASS][read app cali data]fmu:1.user:1.scale:[ 3.517  2.822  3.020]|      1 [L-COMPASS][read app cali data]fmu:1.user:1.bias:[88.017 -68.119 209.994]|      1 [L-DBG1]read gps date:20240228|      1 [L-SEND DATA]app connect changed:last(255) != current(0)|      1 [L-SEND DATA]assistant connect changed:last(255) != current(0)|      1 [L-CFG]lock_assistant|      1 [L-SEND DATA]lock assistant!|      1 [L-FMU/LED]action changed. Normal Flash(0)|      1 [L-FMU/LED]type:0. normal flash action:|      1 [L-FMU/LED]c0:0.15;c1:0.3;c2:0.13;c3:7.3;c4:0.10;c5:7.3;c6:0.10;c7:0.3|      1 [L-FMU/LED]action changed. Normal Flash(0)|      1 [L-FDI]NS(0): evaluation fdi turn on|      1 [L-FDI][FDI CTRL] event: turn on|      1 [L-FDI][FDI CTRL] event: takeoff turn on|      1 [L-FDI][FDI CTRL] event: takeoff turn on|      2 [L-SENSOR][ASR]ASR Delay calibration: 189/200,,,,,,,,P,,,,,,,,,0.0,0.0,0.0,0.0,NaN,NaN,NaN,0.0,0.0,0.0,0,0,0,0,0,0.0,0.0,0,0,0,0,0,1,0,0,0,0.0,0.0,
23339183,5.186,,,0.0,-0.0,,,0,NaN,0.0,0.0,0.10392727,-0.027282752,-0.9807595,0.9866278,0.07634565,-0.21825635,-0.66872805,0.7075745,0.0,0.0,0.0,0.0,0.0,-540,338,1268,1419.0,25.64,0.0,NaN,NaN,NaN,0.0,NaN,NaN,0.0,0.0,0.0,-0.0,NaN,NaN,NaN,NaN,NaN,NaN,NaN,NaN,false,false,-0.16753746471746034,-0.07022545642845845,-0.04324386664834545,,0.0,,,0.0,0.0,0.0,0.0,0.0,0.0,0.0,0.0,0.0,0.0,-2200,2308,0,0,149,0.0,0.0,,,,,99.99,99.99,3.75E7,0,0,0,,,,0,0,17,0,0,0,0,Manual,0,0,0,0,0,30,50,0.0,0.0,0,5,0,0,0,0,0,0,0,0,0,0.0,0.0,0.0,Hover,,lost,0.0,0,0,0,0,0,0,0,0,0,1,0,-540,338,1268,1419.0,NaN,-397,188,1200,1277.0,NaN,-33,72,411,-142,95,320,,,,,,,,,,,,,,,,,,,,,,,,,,,,,,,,,,,,,,,,0.0,,,,,,,,,,,,,,,,,,,,,,,,,,,,,,,,,,0.0,0.0,0.0,0.0,0.0,180.0,0.0,0.0,0.0,0,{task_sd}INFO:dyn_map_mem_init input:0x204101f0.0x20411ae8.0x800.|||{task_sd}INFO:dyn_map_mem_init ok:0x20411ae8.0x20.0x40.||,,,,,,,,P,,,,,,,,,0.0,0.0,0.0,0.0,NaN,NaN,NaN,0.0,0.0,0.0,0,0,0,12706,0,0.0,0.0,0,0,0,0,0,1,0,0,0,0.0,0.0,
23867935,5.304,,,0.0,-0.0,,,0,NaN,0.0,0.0,0.10148693,-0.021340247,-0.9807403,0.98620814,-0.208405,-0.15226327,0.36231023,0.44484317,0.0,0.0,0.0,0.0,0.0,-521,338,1268,1411.0,25.64,0.0,NaN,NaN,NaN,0.0,NaN,NaN,0.0,0.0,0.0,-0.0,NaN,NaN,NaN,NaN,NaN,NaN,NaN,NaN,false,false,-0.16630221666784983,-0.07274624634253446,-0.04595115376071757,,0.0,,,0.0,0.0,0.0,0.0,0.0,0.0,0.0,0.0,0.0,0.0,-2200,2308,0,0,155,0.0,0.0,,,,,99.99,99.99,3.75E7,0,0,0,,,,0,0,18,0,0,0,0,Manual,0,0,0,0,0,30,50,0.0,0.0,0,5,0,0,0,0,0,0,0,0,0,0.0,0.0,0.0,Hover,,lost,0.0,0,0,0,0,0,0,0,0,0,1,0,-521,338,1268,1411.0,NaN,-397,188,1200,1277.0,NaN,-31,72,411,-139,91,327,,,,,,,,,,,,,,,,,,,,,,,,,,,,,,,,,,,,,,,,0.0,,,,,,,,,,,,,,,,,,,,,,,,,,,,,,,,,,0.0,0.0,0.0,0.0,0.0,180.0,0.0,0.0,0.0,0,,Manual,OTHER,NONE,GPS_POSITION_NONMATCH,True,DisConnected,,P,False,False,False,0,0,,0.0,,0.0,0.0,0.0,0.0,NaN,NaN,NaN,0.0,0.0,0.0,0,0,0,12955,0,0.0,0.0,0,0,0,0,0,1,0,0,0,0.0,0.0,
24095492,5.355,,,-59.411304,-0.0,,,0,NaN,0.0,0.0,0.10268968,-0.01767673,-0.9818576,0.98737127,-0.46621805,-0.28414947,-0.1294467,0.56112087,0.0,0.0,0.0,0.0,0.0,-491,315,1342,1463.0,25.66,0.0,NaN,NaN,NaN,0.0,NaN,NaN,0.0,0.0,0.0,-0.0,NaN,NaN,NaN,NaN,NaN,NaN,NaN,NaN,false,false,-0.17760848727721523,-0.11207292192561147,-0.06673857570873579,,0.0,,,0.0,0.0,0.0,0.0,0.0,0.0,0.0,0.0,0.0,0.0,-2200,2313,0,0,217,0.0,0.0,,,,,99.99,99.99,3.75E7,0,0,0,,,,20130901,0,26,0,0,0,0,Manual,0,0,0,0,0,30,50,0.0,0.0,0,5,0,0,0,0,0,0,0,0,0,0.0,0.0,0.0,Hover,,lost,0.0,0,0,0,0,0,0,0,0,0,1,0,-491,315,1342,1463.0,NaN,-453,109,1291,1372.0,NaN,-21,67,434,-155,62,357,,,,,,,,,,,,,,,,,,,,,,,,,,,,,,,,,,,,,,,,0.0,,,,,,,,,,,,,,,,,,,,,,,,,,,,,,,,,,0.0,0.0,0.0,0.0,0.0,180.0,0.0,0.0,0.0,0,     25 [L-SENSOR][baro(0)] connect|     25 [L-SENSOR][baro(0)] reset filter: 102.0 fc: 30.0 hz 30.0 30.0 1,Manual,OTHER,NONE,GPS_POSITION_NONMATCH,True,DisConnected,,P,False,False,False,0,0,,0.0,,0.0,0.0,0.0,0.0,NaN,NaN,NaN,0.0,0.0,0.0,0,0,0,14131,0,0.0,0.0,0,0,0,0,0,1,0,0,0,0.0,0.0,
24322420,5.405,,,-58.492134,-0.0,,,0,NaN,0.0,0.0,0.10143463,-0.027709786,-0.9826084,0.98821867,-0.027832234,0.038924087,0.22226104,0.22735366,0.0,0.0,0.0,0.0,0.0,-501,310,1348,1471.0,25.65,0.0,NaN,NaN,NaN,0.0,NaN,NaN,0.0,0.0,0.0,-0.0,NaN,NaN,NaN,NaN,NaN,NaN,NaN,NaN,false,false,-0.19838981637453035,-0.12170987969418301,-0.07590508754061889,,0.0,,,0.0,0.0,0.0,0.0,0.0,0.0,0.0,0.0,0.0,0.0,-2200,2313,0,0,237,0.0,0.0,,,,,99.99,99.99,3.75E7,0,0,0,,,,20130901,0,28,0,0,0,0,Manual,0,0,0,0,0,30,50,0.0,0.0,0,5,0,0,0,0,0,0,0,0,0,0.0,0.0,0.0,Hover,,lost,0.0,0,0,0,0,0,0,0,0,0,1,0,-501,310,1348,1471.0,NaN,-474,115,1291,1380.0,NaN,-19,62,437,-158,65,358,,,,,,,,,,,,,,,,,,,,,,,,,,,,,,,,,,,,,,,,0.0,,,,,,,,,,,,,,,,,,,,,,,,,,,,,,,,,,0.0,0.0,0.0,0.0,0.0,180.0,0.0,0.0,0.0,0,,Manual,OTHER,NONE,GPS_POSITION_NONMATCH,True,DisConnected,,P,False,False,False,0,0,,0.0,,0.0,0.0,0.0,0.0,NaN,NaN,NaN,0.0,0.0,0.0,0,0,0,14281,0,0.0,0.0,0,0,0,0,0,1,0,0,0,0.0,0.0,
24547432,5.455,,,-59.26526,-0.0,,,0,NaN,0.0,0.0,0.101481184,-0.017658833,-0.98109394,0.9864865,-0.28871793,-0.25503075,-0.30987933,0.49439248,0.0,0.0,0.0,0.0,0.0,-501,293,1357,1475.0,25.67,0.0,NaN,NaN,NaN,0.0,NaN,NaN,0.0,0.0,0.0,-0.0,NaN,NaN,NaN,NaN,NaN,NaN,NaN,NaN,false,false,-0.2227029496069326,-0.13295502880237164,-0.08085116095875264,,0.0,,,0.0,0.0,0.0,0.0,0.0,0.0,0.0,0.0,0.0,0.0,-2200,2315,0,0,257,0.0,0.0,,,,,99.99,99.99,3.75E7,0,0,0,,,,20130901,0,31,0,0,0,0,Manual,0,0,0,0,0,30,50,0.0,0.0,0,5,0,0,0,0,0,0,0,0,0,0.0,0.0,0.0,Hover,,lost,0.0,0,0,0,0,0,0,0,0,0,1,0,-501,293,1357,1475.0,NaN,-499,112,1288,1385.0,NaN,-22,57,439,-167,63,356,,,,,,,,,,,,,,,,,,,,,,,,,,,,,,,,,,,,,,,,0.0,,,,,,,,,,,,,,,,,,,,,,,,,,,,,,,,,,0.0,0.0,0.0,0.0,0.0,180.0,0.0,0.0,0.0,0,,Manual,OTHER,NONE,GPS_POSITION_NONMATCH,True,DisConnected,,P,False,False,False,0,0,,0.0,,0.0,0.0,0.0,0.0,NaN,NaN,NaN,0.0,0.0,0.0,0,0,0,14445,0,0.0,0.0,0,0,0,0,0,1,0,0,0,0.0,0.0,
24772598,5.505,,,-58.7036,-0.0,,,0,NaN,0.0,0.0,0.099100016,-0.019870263,-0.9814485,0.98663914,-0.25390926,-0.047627028,-0.12175583,0.2855919,0.0,0.0,0.0,0.0,0.0,-517,281,1357,1479.0,25.69,0.0,NaN,NaN,NaN,0.0,NaN,NaN,0.0,0.0,0.0,-0.0,NaN,NaN,NaN,NaN,NaN,NaN,NaN,NaN,false,false,-0.2456125069733437,-0.14538732579361968,-0.08859585101200959,,0.0,,,0.0,0.0,0.0,0.0,0.0,0.0,0.0,0.0,0.0,0.0,-2200,2315,0,0,277,0.0,0.0,,,,,99.99,99.99,3.75E7,0,0,0,,,,20130901,0,33,0,0,0,0,Manual,0,0,0,0,0,30,50,0.0,0.0,0,5,0,0,0,0,0,0,0,0,0,0.0,0.0,0.0,Hover,,lost,0.0,0,0,0,0,0,0,0,0,0,1,0,-517,281,1357,1479.0,NaN,-509,115,1279,1381.0,NaN,-23,54,441,-169,64,354,,,,,,,,,,,,,,,,,,,,,,,,,,,,,,,,,,,,,,,,0.0,,,,,,,,,,,,,,,,,,,,,,,,,,,,,,,,,,0.0,0.0,0.0,0.0,0.0,180.0,0.0,0.0,0.0,0,,Manual,OTHER,NONE,GPS_POSITION_NONMATCH,True,DisConnected,,P,False,False,False,0,0,,0.0,,0.0,0.0,0.0,0.0,NaN,NaN,NaN,0.0,0.0,0.0,0,0,0,14524,0,0.0,0.0,0,0,0,0,0,1,0,0,0,0.0,0.0,
24997601,5.555,,,-59.320747,-0.0,,,0,NaN,0.0,0.0,0.102268115,-0.023332145,-0.9809683,0.98656064,-0.103843406,-0.24737726,-0.080710985,0.28016645,0.0,0.0,0.0,0.0,0.0,-514,278,1354,1474.0,25.72,0.0,NaN,NaN,NaN,0.0,NaN,NaN,0.0,0.0,0.0,-0.0,NaN,NaN,NaN,NaN,NaN,NaN,NaN,NaN,false,false,-0.26646330379812033,-0.1544596241012125,-0.09419150952539254,,0.0,,,0.0,0.0,0.0,0.0,0.0,0.0,0.0,0.0,0.0,0.0,-2200,2316,0,0,297,0.0,0.0,,,,,99.99,99.99,3.75E7,0,0,0,,,,20130901,0,36,0,0,0,0,Manual,0,0,0,0,0,30,50,0.0,0.0,0,5,0,0,0,0,0,0,0,0,0,0.0,0.0,0.0,Hover,,lost,0.0,0,0,0,0,0,0,0,0,0,1,0,-514,278,1354,1474.0,NaN,-523,118,1276,1384.0,NaN,-23,53,440,-174,65,352,,,,,,,,,,,,,,,,,,,,,,,,,,,,,,,,,,,,,,,,0.0,,,,,,,,,,,,,,,,,,,,,,,,,,,,,,,,,,0.0,0.0,0.0,0.0,0.0,180.0,0.0,0.0,0.0,0,,Manual,OTHER,NONE,GPS_POSITION_NONMATCH,True,DisConnected,,P,False,False,False,0,0,,0.0,,0.0,0.0,0.0,0.0,NaN,NaN,NaN,0.0,0.0,0.0,0,0,0,14612,0,0.0,0.0,0,0,0,0,0,1,0,0,0,0.0,0.0,
25224645,5.605,,,-58.57641,-0.0,,,0,NaN,0.0,0.0,0.10144775,-0.02051612,-0.979722,0.985174,-0.24555545,-0.1444162,-0.3250131,0.43218866,0.0,0.0,0.0,0.0,0.0,-517,270,1354,1474.0,25.72,0.0,NaN,NaN,NaN,0.0,NaN,NaN,0.0,0.0,0.0,-0.0,NaN,NaN,NaN,NaN,NaN,NaN,NaN,NaN,false,false,-0.28837216455934955,-0.16469435723217163,-0.1020665738028764,,0.0,,,0.0,0.0,0.0,0.0,0.0,0.0,0.0,0.0,0.0,0.0,-2200,2316,0,0,317,0.0,0.0,,,,,99.99,99.99,3.75E7,0,0,0,,,,20130901,0,38,0,0,0,0,Manual,0,0,0,0,0,30,50,0.0,0.0,0,5,0,0,0,0,0,0,0,0,0,0.0,0.0,0.0,Hover,,lost,100.0,0,0,0,0,0,0,0,0,0,1,0,-517,270,1354,1474.0,NaN,-530,123,1264,1376.0,NaN,-27,48,440,-174,67,350,,,,,,,,,,,,,,,,,,,,,,,,,,,,,,,,,,,,,,,,0.0,,,,,,,,,,,,,,,,,,,,,,,,,,,,,,,,,,0.0,0.0,0.0,0.0,0.0,180.0,0.0,0.0,0.0,0,,Manual,OTHER,NONE,GPS_POSITION_NONMATCH,True,DisConnected,,P,False,False,False,0,0,,0.0,,0.0,0.0,0.0,0.0,NaN,NaN,NaN,0.0,0.0,0.0,0,0,0,14654,0,17.793861,12680.0,14828,-886,0,19,22,1,3700,0,0,0.0,0.0,
25449807,5.656,,,-59.29405,-0.0,,,0,NaN,0.0,0.0,0.100658014,-0.020660851,-0.98156345,0.9869274,-0.17401055,-0.07101732,-0.09978452,0.21279116,0.0,0.0,0.0,0.0,0.0,-524,253,1348,1468.0,25.72,0.0,NaN,NaN,NaN,0.0,NaN,NaN,0.0,0.0,0.0,-0.0,NaN,NaN,NaN,NaN,NaN,NaN,NaN,NaN,false,false,-0.31192887139418124,-0.17586649833728873,-0.10784321466348809,,0.0,,,0.0,0.0,0.0,0.0,0.0,0.0,0.0,0.0,0.0,0.0,-2200,2318,0,0,337,0.0,0.0,,,,,99.99,99.99,3.75E7,0,0,0,,,,20130901,0,41,0,0,0,0,Manual,0,0,0,0,0,30,50,0.0,0.0,0,5,0,0,0,0,0,0,0,0,0,0.0,0.0,0.0,Hover,,lost,100.0,0,0,0,0,0,0,0,0,0,1,0,-524,253,1348,1468.0,NaN,-541,126,1261,1377.0,NaN,-27,45,438,-178,68,348,,,,,,,,,,,,,,,,,,,,,,,,,,,,,,,,,,,,,,,,0.0,,,,,,,,,,,,,,,,,,,,,,,,,,,,,,,,,,0.0,0.0,0.0,0.0,0.0,180.0,0.0,0.0,0.0,0,,Manual,OTHER,NONE,GPS_POSITION_NONMATCH,True,DisConnected,,P,False,False,False,0,0,,0.0,,0.0,0.0,0.0,0.0,NaN,NaN,NaN,0.0,0.0,0.0,0,0,0,14701,0,17.793861,12680.0,14828,-886,0,19,22,1,3700,0,0,0.0,0.0,
25674828,5.706,,,-59.058495,-0.0,,,0,NaN,0.0,0.0,0.10180759,-0.02248288,-0.9815978,0.98711926,-0.106749095,-0.32891876,-0.21502577,0.4072088,0.0,0.0,0.0,0.0,0.0,-527,259,1351,1473.0,25.73,0.0,NaN,NaN,NaN,0.0,NaN,NaN,0.0,0.0,0.0,-0.0,NaN,NaN,NaN,NaN,NaN,NaN,NaN,NaN,false,false,-0.3322991981911456,-0.18567405035996554,-0.11503814044469904,,0.0,,,0.0,0.0,0.0,0.0,0.0,0.0,0.0,0.0,0.0,0.0,-2200,2318,0,0,357,0.0,0.0,,,,,99.99,99.99,3.75E7,0,0,0,,,,20130901,0,43,0,0,0,0,Manual,0,0,0,0,0,30,50,0.0,0.0,0,5,0,0,0,0,0,0,0,0,0,0.0,0.0,0.0,Hover,,lost,100.0,0,0,0,0,0,0,0,0,0,1,0,-527,259,1351,1473.0,NaN,-541,132,1255,1373.0,NaN,-29,41,438,-177,70,347,,,,,,,,,,,,,,,,,,,,,,,,,,,,,,,,,,,,,,,,0.0,,,,,,,,,,,,,,,,,,,,,,,,,,,,,,,,,,0.0,0.0,0.0,0.0,0.0,180.0,0.0,0.0,0.0,0,,Manual,OTHER,NONE,GPS_POSITION_NONMATCH,True,DisConnected,,P,False,False,False,0,0,,0.0,,0.0,0.0,0.0,0.0,NaN,NaN,NaN,0.0,0.0,0.0,0,0,0,14723,0,17.793861,12680.0,14828,-886,0,19,22,1,3700,0,0,0.0,0.0,
25901887,5.756,,,-59.127064,-0.0,,,0,NaN,0.0,0.0,0.10088343,-0.02090649,-0.98153126,0.98692364,-0.36556318,-0.07228815,-0.5261237,0.6447233,0.0,0.0,0.0,0.0,0.0,-524,259,1342,1463.0,25.72,0.0,NaN,NaN,NaN,0.0,NaN,NaN,0.0,0.0,0.0,-0.0,NaN,NaN,NaN,NaN,NaN,NaN,NaN,NaN,false,false,-0.35369718509299153,-0.19709648885138964,-0.12087877462604188,,0.0,,,0.0,0.0,0.0,0.0,0.0,0.0,0.0,0.0,0.0,0.0,-2200,2319,0,0,377,0.0,0.0,,,,,99.99,99.99,3.75E7,0,0,0,,,,20130901,0,46,0,0,0,0,Manual,0,0,0,0,0,30,50,0.0,0.0,0,5,0,0,0,0,0,0,0,0,0,0.0,0.0,0.0,Hover,,lost,100.0,0,0,0,0,0,0,0,0,0,1,0,-524,259,1342,1463.0,NaN,-538,132,1258,1374.0,NaN,-29,46,437,-178,70,347,,,,,,,,,,,,,,,,,,,,,,,,,,,,,,,,,,,,,,,,0.0,,,,,,,,,,,,,,,,,,,,,,,,,,,,,,,,,,0.0,0.0,0.0,0.0,0.0,180.0,0.0,0.0,0.0,0,,Manual,OTHER,NONE,GPS_POSITION_NONMATCH,True,DisConnected,,P,False,False,False,0,0,,0.0,,0.0,0.0,0.0,0.0,NaN,NaN,NaN,0.0,0.0,0.0,0,0,0,14748,0,17.793861,12680.0,14828,-886,0,19,22,1,3700,0,0,0.0,0.0,
26126888,5.806,,,-59.19878,-0.0,,,0,NaN,0.0,0.0,0.10155556,-0.021025099,-0.9806942,0.9861626,-0.17398071,-0.121373236,-0.10102123,0.23495965,0.0,0.0,0.0,0.0,0.0,-524,259,1337,1459.0,25.72,0.0,NaN,NaN,NaN,0.0,NaN,NaN,0.0,0.0,0.0,-0.0,NaN,NaN,NaN,NaN,NaN,NaN,NaN,NaN,false,false,-0.3766413501229606,-0.20715567558946446,-0.13202834461580712,,0.0,,,0.0,0.0,0.0,0.0,0.0,0.0,0.0,0.0,0.0,0.0,-2200,2319,0,0,397,0.0,0.0,,,,,99.99,99.99,3.75E7,0,0,0,,,,20130901,0,48,0,0,0,0,Manual,0,0,0,0,0,30,50,0.0,0.0,0,5,0,0,0,0,0,0,0,0,0,0.0,0.0,0.0,Hover,,lost,100.0,0,0,0,0,0,0,0,0,0,1,0,-524,259,1337,1459.0,NaN,-541,129,1252,1369.0,NaN,-28,43,435,-179,69,344,,,,,,,,,,,,,,,,,,,,,,,,,,,,,,,,,,,,,,,,0.0,,,,,,,,,,,,,,,,,,,,,,,,,,,,,,,,,,0.0,0.0,0.0,0.0,0.0,180.0,0.0,0.0,0.0,0,,Manual,OTHER,NONE,GPS_POSITION_NONMATCH,True,DisConnected,,P,False,False,False,0,0,,0.0,,0.0,0.0,0.0,0.0,NaN,NaN,NaN,0.0,0.0,0.0,0,0,0,14760,0,17.793861,12680.0,14828,-886,0,19,22,1,3700,0,0,0.0,0.0,
26351890,5.856,,,-59.40712,-0.0,,,0,NaN,0.0,0.0,0.101959206,-0.021757409,-0.980085,0.9856144,-0.2115117,-0.21614344,-0.3836026,0.48847327,0.0,0.0,0.0,0.0,0.0,-530,259,1342,1465.0,25.75,0.0,NaN,NaN,NaN,0.0,NaN,NaN,0.0,0.0,0.0,-0.0,NaN,NaN,NaN,NaN,NaN,NaN,NaN,NaN,false,false,-0.3980196992491023,-0.21765294991434014,-0.13685983909687324,,0.0,,,0.0,0.0,0.0,0.0,0.0,0.0,0.0,0.0,0.0,0.0,-2200,2320,0,0,417,0.0,0.0,,,,,99.99,99.99,3.75E7,0,0,0,,,,20130901,0,51,0,0,0,0,Manual,0,0,0,0,0,30,50,0.0,0.0,0,5,0,0,0,0,0,0,0,0,0,0.0,0.0,0.0,Hover,,lost,100.0,0,0,0,0,0,0,0,0,0,1,0,-530,259,1342,1465.0,NaN,-545,135,1252,1372.0,NaN,-30,43,436,-179,71,345,,,,,,,,,,,,,,,,,,,,,,,,,,,,,,,,,,,,,,,,0.0,,,,,,,,,,,,,,,,,,,,,,,,,,,,,,,,,,0.0,0.0,0.0,0.0,0.0,180.0,0.0,0.0,0.0,0,     49 [L-GYRO_ACC]GYRO(0) fdi event:turn on|     49 [L-GYRO_ACC]ACC(0) fdi event:turn on|     49 [L-GYRO_ACC]GYRO(1) fdi event:turn on|     49 [L-GYRO_ACC]ACC(1) fdi event:turn on|     50 [L-COMPASS]index(0) fdi event:turn on|     50 [L-COMPASS]index(1) fdi event:turn on|     50 [L-FDI][BARO(0)] event:turn on|     50 [L-GYRO_ACC][mark] fmu_gyr_acc get register ack. succeed. global_user_id(0)|     50 [L-GYRO_ACC][mark] sa(1) regi ok. dtype(8) sid(0) g_uid(1) l_did(4) l_uid(1) l_dindex(|     50 [L-GYRO_ACC][mark] fmu_gyr_acc get register ack. succeed. global_user_id(1)|     51 [L-FDI]NS(0): init fdi turn on|     51 [L-FDI]NS(0): init: wait_static,Manual,OTHER,NONE,GPS_POSITION_NONMATCH,True,DisConnected,,P,False,False,False,0,0,,0.0,,0.0,0.0,0.0,0.0,NaN,NaN,NaN,0.0,0.0,0.0,0,0,0,14769,0,17.793861,12680.0,14828,-886,0,19,22,1,3700,0,0,0.0,0.0,
26577058,5.906,,,-58.76536,-0.0,,,0,NaN,0.0,0.0,0.10188782,-0.020573836,-0.9810568,0.98654795,-0.41698217,-0.16960813,-0.57399696,0.72946113,0.0,0.0,0.0,0.0,0.0,-527,256,1342,1464.0,25.74,0.0,NaN,NaN,NaN,0.0,NaN,NaN,0.0,0.0,0.0,-0.0,NaN,NaN,NaN,NaN,NaN,NaN,NaN,NaN,false,false,-0.42024371573228114,-0.22882720350856356,-0.1450785043463992,,0.0,,,0.0,0.0,0.0,0.0,0.0,0.0,0.0,0.0,0.0,0.0,-2200,2320,0,0,437,0.0,0.0,,,,,99.99,99.99,3.75E7,0,0,0,,,,20130901,0,53,0,0,0,0,Manual,0,0,0,0,0,30,50,0.0,0.0,0,5,0,0,0,0,0,0,0,0,0,0.0,0.0,0.0,Hover,,lost,100.0,0,0,0,0,0,0,0,0,0,1,0,-527,256,1342,1464.0,NaN,-545,132,1261,1380.0,NaN,-30,43,435,-178,72,346,,,,,,,,,,,,,,,,,,,,,,,,,,,,,,,,,,,,,,,,0.0,,,,,,,,,,,,,,,,,,,,,,,,,,,,,,,,,,0.0,0.0,0.0,0.0,0.0,180.0,0.0,0.0,0.0,0,,Manual,OTHER,NONE,GPS_POSITION_NONMATCH,False,DisConnected,,P,False,False,False,0,0,,0.0,,0.0,0.0,0.0,0.0,NaN,NaN,NaN,0.0,0.0,0.0,0,0,0,14780,0,17.793861,12680.0,14828,-886,0,19,22,1,3700,0,0,0.0,0.0,
26802063,5.956,,,-59.272064,-0.0,,,0,NaN,0.0,0.0,0.100595534,-0.02115263,-0.98054683,0.98592037,-0.15562053,0.037543695,-0.11611185,0.19776057,0.0,0.0,0.0,0.0,0.0,-537,259,1340,1466.0,25.73,0.0,NaN,NaN,NaN,0.0,NaN,NaN,0.0,0.0,0.0,-0.0,NaN,NaN,NaN,NaN,NaN,NaN,NaN,NaN,false,false,-0.4445083934651328,-0.23950219734103217,-0.15185214747144835,,0.0,,,0.0,0.0,0.0,0.0,0.0,0.0,0.0,0.0,0.0,0.0,-2200,2321,0,0,457,0.0,0.0,,,,,99.99,99.99,3.75E7,0,0,0,,,,20130901,0,56,0,0,0,0,Manual,0,0,0,0,0,30,50,0.0,0.0,0,5,0,0,0,0,0,0,0,0,0,0.0,0.0,0.0,Hover,,lost,100.0,0,0,0,0,0,0,0,0,0,1,0,-537,259,1340,1466.0,NaN,-548,129,1255,1375.0,NaN,-32,44,435,-180,70,345,,,,,,,,,,,,,,,,,,,,,,,,,,,,,,,,,,,,,,,,0.0,,,,,,,,,,,,,,,,,,,,,,,,,,,,,,,,,,0.0,0.0,0.0,0.0,0.0,180.0,0.0,0.0,0.0,0,,Manual,OTHER,NONE,GPS_POSITION_NONMATCH,False,DisConnected,,P,False,False,False,0,0,,0.0,,0.0,0.0,0.0,0.0,NaN,NaN,NaN,0.0,0.0,0.0,0,0,0,14787,0,17.793861,12680.0,14828,-886,0,19,22,1,3700,0,0,0.0,0.0,
27027193,6.006,,,-58.84074,-0.0,,,0,NaN,0.0,0.0,0.10135743,-0.022826016,-0.9802743,0.98576474,-0.4136768,-0.05724471,-0.5729422,0.708991,0.0,0.0,0.0,0.0,0.0,-534,264,1342,1468.0,25.74,0.0,NaN,NaN,NaN,0.0,NaN,NaN,0.0,0.0,0.0,-0.0,NaN,NaN,NaN,NaN,NaN,NaN,NaN,NaN,false,false,-0.4668365190460828,-0.2482328766696153,-0.15565334986673748,,0.0,,,0.0,0.0,0.0,0.0,0.0,0.0,0.0,0.0,0.0,0.0,-2200,2321,0,0,477,0.0,0.0,,,,,99.99,99.99,3.75E7,0,0,0,,,,20130901,0,58,0,0,0,0,Manual,0,0,0,0,0,30,50,0.0,0.0,0,5,0,0,0,0,0,0,0,0,0,0.0,0.0,0.0,Hover,,lost,100.0,0,0,0,0,0,0,0,0,0,1,0,-534,264,1342,1468.0,NaN,-538,132,1261,1377.0,NaN,-32,44,435,-179,71,346,,,,,,,,,,,,,,,,,,,,,,,,,,,,,,,,,,,,,,,,0.0,,,,,,,,,,,,,,,,,,,,,,,,,,,,,,,,,,0.0,0.0,0.0,0.0,0.0,180.0,0.0,0.0,0.0,0,,Manual,OTHER,NONE,GPS_POSITION_NONMATCH,False,DisConnected,,P,False,False,False,0,0,,0.0,,0.0,0.0,0.0,0.0,NaN,NaN,NaN,0.0,0.0,0.0,0,0,0,14790,0,17.793861,12680.0,14828,-886,0,19,22,1,3700,0,0,0.0,0.0,
27252193,6.056,,,-58.44346,-0.0,,,0,NaN,0.0,0.0,0.100425586,-0.021083117,-0.98232365,0.98766875,-0.31970152,0.05383578,-0.38686392,0.5047485,0.0,0.0,0.0,0.0,0.0,-530,267,1345,1470.0,25.77,0.0,NaN,NaN,NaN,0.0,NaN,NaN,0.0,0.0,0.0,-0.0,NaN,NaN,NaN,NaN,NaN,NaN,NaN,NaN,false,false,-0.486387923698675,-0.2604755081961127,-0.15917382238283226,,0.0,,,0.0,0.0,0.0,0.0,0.0,0.0,0.0,0.0,0.0,0.0,-2200,2322,0,0,497,0.0,0.0,,,,,99.99,99.99,3.75E7,0,0,0,,,,20130901,0,61,0,0,0,0,Manual,0,0,0,0,0,30,50,0.0,0.0,0,5,0,0,0,0,0,0,0,0,0,0.0,0.0,0.0,Hover,,lost,100.0,0,0,0,0,0,0,0,0,0,1,0,-530,267,1345,1470.0,NaN,-545,129,1258,1377.0,NaN,-31,44,437,-180,69,346,,,,,,,,,,,,,,,,,,,,,,,,,,,,,,,,,,,,,,,,0.0,,,,,,,,,,,,,,,,,,,,,,,,,,,,,,,,,,0.0,0.0,0.0,0.0,0.0,180.0,0.0,0.0,0.0,0,,Manual,OTHER,NONE,GPS_POSITION_NONMATCH,False,DisConnected,,P,False,False,False,0,0,,0.0,,0.0,0.0,0.0,0.0,NaN,NaN,NaN,0.0,0.0,0.0,0,0,0,14794,0,17.793861,12680.0,14828,-886,0,19,22,1,3700,0,0,0.0,0.0,
27477197,6.106,,,-58.928154,-0.0,,,0,NaN,0.0,0.0,0.10215154,-0.021650784,-0.9796119,0.9851615,-0.22929145,-0.13617553,-0.43318826,0.5086948,0.0,0.0,0.0,0.0,0.0,-527,261,1342,1465.0,25.75,0.0,NaN,NaN,NaN,0.0,NaN,NaN,0.0,0.0,0.0,-0.0,NaN,NaN,NaN,NaN,NaN,NaN,NaN,NaN,false,false,-0.5077474491608345,-0.2713195503646237,-0.16766323137611946,,0.0,,,0.0,0.0,0.0,0.0,0.0,0.0,0.0,0.0,0.0,0.0,-2200,2322,0,0,517,0.0,0.0,,,,,99.99,99.99,3.75E7,0,0,0,,,,20130901,0,63,0,0,0,0,Manual,0,0,0,0,0,30,50,0.0,0.0,0,5,0,0,0,0,0,0,0,0,0,0.0,0.0,0.0,Hover,,lost,100.0,0,0,0,0,0,0,0,0,0,1,0,-527,261,1342,1465.0,NaN,-538,129,1255,1371.0,NaN,-30,47,436,-181,69,347,,,,,,,,,,,,,,,,,,,,,,,,,,,,,,,,,,,,,,,,0.0,,,,,,,,,,,,,,,,,,,,,,,,,,,,,,,,,,0.0,0.0,0.0,0.0,0.0,180.0,0.0,0.0,0.0,0,,Manual,OTHER,NONE,GPS_POSITION_NONMATCH,False,DisConnected,,P,False,False,False,0,0,,0.0,,0.0,0.0,0.0,0.0,NaN,NaN,NaN,0.0,0.0,0.0,0,0,0,14796,0,17.793861,12680.0,14828,-886,0,19,22,1,3700,0,0,0.0,0.0,
27702397,6.156,,,-58.778454,-0.0,,,0,NaN,0.0,0.0,0.10078069,-0.022415612,-0.982147,0.98755854,-0.17373826,-0.15951963,-0.4827017,0.5372452,0.0,0.0,0.0,0.0,0.0,-530,261,1342,1466.0,25.76,0.0,NaN,NaN,NaN,0.0,NaN,NaN,0.0,0.0,0.0,-0.0,NaN,NaN,NaN,NaN,NaN,NaN,NaN,NaN,false,false,-0.531248990170393,-0.27958984040850016,-0.17474307758624993,,0.0,,,0.0,0.0,0.0,0.0,0.0,0.0,0.0,0.0,0.0,0.0,-2200,2323,0,0,537,0.0,0.0,,,,,99.99,99.99,3.75E7,0,0,0,,,,20130901,0,66,0,0,0,0,Manual,0,0,0,0,0,30,50,0.0,0.0,0,5,0,0,0,0,0,0,0,0,0,0.0,0.0,0.0,Hover,,lost,100.0,0,0,0,0,0,0,0,0,0,1,0,-530,261,1342,1466.0,NaN,-530,135,1255,1368.0,NaN,-29,45,435,-176,70,347,,,,,,,,,,,,,,,,,,,,,,,,,,,,,,,,,,,,,,,,0.0,,,,,,,,,,,,,,,,,,,,,,,,,,,,,,,,,,0.0,0.0,0.0,0.0,0.0,180.0,0.0,0.0,0.0,0,,Manual,OTHER,NONE,GPS_POSITION_NONMATCH,False,DisConnected,,P,False,False,False,0,0,,0.0,,0.0,0.0,0.0,0.0,NaN,NaN,NaN,0.0,0.0,0.0,0,0,0,14798,0,17.793861,12680.0,14828,-886,0,19,22,1,3700,0,0,0.0,0.0,
27928318,6.206,,,-59.346397,-0.0,,,0,NaN,0.0,0.0,0.10254666,-0.021182232,-0.98150504,0.9870748,-0.30711997,-0.24320607,-0.7503898,0.84649676,0.0,0.0,0.0,0.0,0.0,-524,264,1340,1462.0,25.73,0.0,NaN,NaN,NaN,0.0,NaN,NaN,0.0,0.0,0.0,-0.0,NaN,NaN,NaN,NaN,NaN,NaN,NaN,NaN,false,false,-0.5516591651552107,-0.28855169431120137,-0.1832962167949541,,0.0,,,0.0,0.0,0.0,0.0,0.0,0.0,0.0,0.0,0.0,0.0,-2200,2323,0,0,557,0.0,0.0,,,,,99.99,99.99,3.75E7,0,0,0,,,,20130901,0,68,0,0,0,0,Manual,0,0,0,0,0,30,50,0.0,0.0,0,5,0,0,0,0,0,0,0,0,0,0.0,0.0,0.0,Hover,,lost,100.0,0,0,0,0,0,0,0,0,0,1,0,-524,264,1340,1462.0,NaN,-541,135,1258,1376.0,NaN,-30,44,435,-176,72,345,,,,,,,,,,,,,,,,,,,,,,,,,,,,,,,,,,,,,,,,0.0,,,,,,,,,,,,,,,,,,,,,,,,,,,,,,,,,,0.0,0.0,0.0,0.0,0.0,180.0,0.0,0.0,0.0,0,,Manual,OTHER,NONE,GPS_POSITION_NONMATCH,False,DisConnected,,P,False,False,False,0,0,,0.0,,0.0,0.0,0.0,0.0,NaN,NaN,NaN,0.0,0.0,0.0,0,0,0,14800,0,17.793861,12680.0,14828,-886,0,19,22,1,3700,0,0,0.0,0.0,
28153332,6.256,,,-58.795723,-0.0,,,0,NaN,0.0,0.0,0.10091242,-0.021637864,-0.9814315,0.9868431,-0.09874741,-0.10705583,-0.42295092,0.4473248,0.0,0.0,0.0,0.0,0.0,-527,261,1340,1463.0,25.72,0.0,NaN,NaN,NaN,0.0,NaN,NaN,0.0,0.0,0.0,-0.0,NaN,NaN,NaN,NaN,NaN,NaN,NaN,NaN,false,false,-0.5735050219264859,-0.29877242066850845,-0.19047140057278852,,0.0,,,0.0,0.0,0.0,0.0,0.0,0.0,0.0,0.0,0.0,0.0,-2200,2323,0,0,577,0.0,0.0,,,,,99.99,99.99,3.75E7,0,0,0,,,,20130901,0,71,0,0,0,0,Manual,0,0,0,0,0,30,50,0.0,0.0,0,5,0,0,0,0,0,0,0,0,0,0.0,0.0,0.0,Hover,,lost,100.0,0,0,0,0,0,0,0,0,0,1,0,-527,261,1340,1463.0,NaN,-552,140,1255,1378.0,NaN,-30,44,435,-178,73,346,,,,,,,,,,,,,,,,,,,,,,,,,,,,,,,,,,,,,,,,0.0,,,,,,,,,,,,,,,,,,,,,,,,,,,,,,,,,,0.0,0.0,0.0,0.0,0.0,180.0,0.0,0.0,0.0,0,,Manual,OTHER,NONE,GPS_POSITION_NONMATCH,False,DisConnected,,P,False,False,False,0,0,,0.0,,0.0,0.0,0.0,0.0,NaN,NaN,NaN,0.0,0.0,0.0,0,0,0,14801,0,17.793861,12680.0,14828,-886,0,19,22,1,3700,0,0,0.0,0.0,
28378361,6.306,,,-58.430374,-0.0,,,0,NaN,0.0,0.0,0.101834625,-0.022852298,-0.97945017,0.984995,-0.30585966,-0.25278944,-0.57988244,0.7026495,0.0,0.0,0.0,0.0,0.0,-524,267,1334,1457.0,25.75,0.0,NaN,NaN,NaN,0.0,NaN,NaN,0.0,0.0,0.0,-0.0,NaN,NaN,NaN,NaN,NaN,NaN,NaN,NaN,false,false,-0.5942870281220745,-0.3091421098033073,-0.19995884846132547,,0.0,,,0.0,0.0,0.0,0.0,0.0,0.0,0.0,0.0,0.0,0.0,-2200,2323,0,0,597,0.0,0.0,,,,,99.99,99.99,3.75E7,0,0,0,,,,20130901,0,73,0,0,0,0,Manual,0,0,0,0,0,30,50,0.0,0.0,0,5,0,0,0,0,0,0,0,0,0,0.0,0.0,0.0,Hover,,lost,100.0,0,0,0,0,0,0,0,0,0,1,0,-524,267,1334,1457.0,NaN,-545,135,1255,1374.0,NaN,-28,47,434,-182,73,345,,,,,,,,,,,,,,,,,,,,,,,,,,,,,,,,,,,,,,,,0.0,,,,,,,,,,,,,,,,,,,,,,,,,,,,,,,,,,0.0,0.0,0.0,0.0,0.0,180.0,0.0,0.0,0.0,0,,Manual,OTHER,NONE,GPS_POSITION_NONMATCH,False,DisConnected,,P,False,False,False,0,0,,0.0,,0.0,0.0,0.0,0.0,NaN,NaN,NaN,0.0,0.0,0.0,0,0,0,14801,0,17.793861,12680.0,14828,-886,0,19,22,1,3700,0,0,0.0,0.0,
28604185,6.356,,,-59.066868,-0.0,,,0,NaN,0.0,0.0,0.101289615,-0.02148277,-0.9809332,0.9863828,-0.39067143,-0.114115,-0.3124142,0.51307803,0.0,0.0,0.0,0.0,0.0,-530,264,1342,1466.0,25.77,0.0,NaN,NaN,NaN,0.0,NaN,NaN,0.0,0.0,0.0,-0.0,NaN,NaN,NaN,NaN,NaN,NaN,NaN,NaN,false,false,-0.6154059961619782,-0.3191965732261259,-0.20691893619562826,,0.0,,,0.0,0.0,0.0,0.0,0.0,0.0,0.0,0.0,0.0,0.0,-2200,2325,0,0,617,0.0,0.0,,,,,99.99,99.99,3.75E7,0,0,0,,,,20130901,1,76,0,0,0,0,Manual,0,0,0,0,0,30,50,0.0,0.0,0,5,0,0,0,0,0,0,0,0,0,0.0,0.0,0.0,Hover,,lost,100.0,0,0,0,0,0,0,0,0,0,1,0,-530,264,1342,1466.0,NaN,-538,129,1255,1371.0,NaN,-30,45,435,-178,70,346,,,,,,,,,,,,,,,,,,,,,,,,,,,,,,,,,,,,,,,,0.0,,,,,,,,,,,,,,,,,,,,,,,,,,,,,,,,,,0.0,0.0,0.0,0.0,0.0,180.0,0.0,0.0,0.0,0,     75 [L-BATTERY]Battery barcode:082AD4D0310ZQX||,Manual,OTHER,NONE,GPS_POSITION_NONMATCH,False,DisConnected,,P,False,False,False,0,0,,0.0,,0.0,0.0,0.0,0.0,NaN,NaN,NaN,0.0,0.0,0.0,0,0,0,14802,0,17.793861,12680.0,14828,-886,0,19,22,1,3700,0,0,0.0,0.0,
28831914,6.407,,,-59.305042,-0.0,,,0,NaN,0.0,0.0,0.10229403,-0.02207091,-0.98049307,0.9860618,-0.2124744,-0.0026448974,-0.36480764,0.42218122,0.0,0.0,0.0,0.0,0.0,-524,267,1342,1465.0,25.77,0.0,NaN,NaN,NaN,0.0,NaN,NaN,0.0,0.0,0.0,-0.0,NaN,NaN,NaN,NaN,NaN,NaN,NaN,NaN,false,false,-0.6377727484144589,-0.33021575475039094,-0.21349270514323246,,0.0,,,0.0,0.0,0.0,0.0,0.0,0.0,0.0,0.0,0.0,0.0,-2200,2325,0,0,637,0.0,0.0,,,,,99.99,99.99,3.75E7,0,0,0,,,,20130901,1,78,0,0,0,0,Manual,0,0,0,0,0,30,50,0.0,0.0,0,5,0,0,0,0,0,0,0,0,0,0.0,0.0,0.0,Hover,,lost,100.0,0,0,0,0,0,0,0,0,0,1,0,-524,267,1342,1465.0,NaN,-541,135,1264,1381.0,NaN,-29,47,434,-178,70,346,,,,,,,,,,,,,,,,,,,,,,,,,,,,,,,,,,,,,,,,0.0,,,,,,,,,,,,,,,,,,,,,,,,,,,,,,,,,,0.0,0.0,0.0,0.0,0.0,180.0,0.0,0.0,0.0,0,,Manual,OTHER,NONE,GPS_POSITION_NONMATCH,False,DisConnected,,P,False,False,False,0,0,,0.0,,0.0,0.0,0.0,0.0,NaN,NaN,NaN,0.0,0.0,0.0,0,0,0,14802,0,17.793861,12680.0,14828,-886,0,19,22,1,3700,0,0,0.0,0.0,
29056941,6.457,,,-58.59316,-0.0,,,0,NaN,0.0,0.0,0.10091596,-0.02265571,-0.9815432,0.98697734,-0.15618747,-0.20228355,-0.4348558,0.5043934,0.0,0.0,0.0,0.0,0.0,-527,270,1342,1466.0,25.8,0.0,NaN,NaN,NaN,0.0,NaN,NaN,0.0,0.0,0.0,-0.0,NaN,NaN,NaN,NaN,NaN,NaN,NaN,NaN,false,false,-0.6591224680083516,-0.33986821213811064,-0.2196264008785269,,0.0,,,0.0,0.0,0.0,0.0,0.0,0.0,0.0,0.0,0.0,0.0,-2200,2325,0,0,657,0.0,0.0,,,,,99.99,99.99,3.75E7,0,0,0,,,,20130901,1,81,0,0,0,0,Manual,0,0,0,0,0,30,50,0.0,0.0,0,5,0,0,0,0,0,0,0,0,0,0.0,0.0,0.0,Hover,,lost,100.0,0,0,0,0,0,0,0,0,0,1,0,-527,270,1342,1466.0,NaN,-538,135,1255,1372.0,NaN,-30,47,435,-177,71,345,,,,,,,,,,,,,,,,,,,,,,,,,,,,,,,,,,,,,,,,0.0,,,,,,,,,,,,,,,,,,,,,,,,,,,,,,,,,,0.0,0.0,0.0,0.0,0.0,180.0,0.0,0.0,0.0,0,,Manual,OTHER,NONE,GPS_POSITION_NONMATCH,False,DisConnected,,P,False,False,False,0,0,,0.0,,0.0,0.0,0.0,0.0,NaN,NaN,NaN,0.0,0.0,0.0,0,0,0,14802,0,17.793861,12680.0,14828,-886,0,19,22,1,3700,0,0,0.0,0.0,
29283656,6.507,,,-58.652824,-0.0,,,0,NaN,0.0,0.0,0.1022222,-0.020168021,-0.98271185,0.98822,-0.26854756,-0.13213296,-0.5262299,0.60538816,0.0,0.0,0.0,0.0,0.0,-527,267,1334,1458.0,25.8,0.0,NaN,NaN,NaN,0.0,NaN,NaN,0.0,0.0,0.0,-0.0,NaN,NaN,NaN,NaN,NaN,NaN,NaN,NaN,false,false,-0.678385535333216,-0.3510672785146202,-0.2256714918055913,,0.0,,,0.0,0.0,0.0,0.0,0.0,0.0,0.0,0.0,0.0,0.0,-2200,2325,0,0,677,0.0,0.0,,,,,99.99,99.99,3.75E7,0,0,0,,,,20130901,1,83,0,0,0,0,Manual,0,0,0,0,0,30,50,0.0,0.0,0,5,0,0,0,0,0,0,0,0,0,0.0,0.0,0.0,Hover,,lost,100.0,0,0,0,0,0,0,0,0,0,1,0,-527,267,1334,1458.0,NaN,-541,132,1255,1373.0,NaN,-29,48,435,-178,71,346,,,,,,,,,,,,,,,,,,,,,,,,,,,,,,,,,,,,,,,,0.0,,,,,,,,,,,,,,,,,,,,,,,,,,,,,,,,,,0.0,0.0,0.0,0.0,0.0,180.0,0.0,0.0,0.0,0,,Manual,OTHER,NONE,GPS_POSITION_NONMATCH,False,DisConnected,,P,False,False,False,0,0,,0.0,,0.0,0.0,0.0,0.0,NaN,NaN,NaN,0.0,0.0,0.0,0,0,0,14802,0,17.793861,12680.0,14828,-886,0,19,22,1,3700,0,0,0.0,0.0,
29508669,6.557,,,-59.095135,-0.0,,,0,NaN,0.0,0.0,0.101214066,-0.021992765,-0.980343,0.9857993,-0.09180754,-0.029281808,-0.25633368,0.2738485,0.0,0.0,0.0,0.0,0.0,-521,259,1342,1462.0,25.79,0.0,NaN,NaN,NaN,0.0,NaN,NaN,0.0,0.0,0.0,-0.0,NaN,NaN,NaN,NaN,NaN,NaN,NaN,NaN,false,false,-0.7001478240411987,-0.3625949940392191,-0.2339335288100541,,0.0,,,0.0,0.0,0.0,0.0,0.0,0.0,0.0,0.0,0.0,0.0,-2200,2326,0,0,697,0.0,0.0,,,,,99.99,99.99,3.75E7,0,0,0,,,,20130901,1,86,0,0,0,0,Manual,0,0,0,0,0,30,50,0.0,0.0,0,5,0,0,0,0,0,0,0,0,0,0.0,0.0,0.0,Hover,,lost,100.0,0,0,0,0,0,0,0,0,0,1,0,-521,259,1342,1462.0,NaN,-534,132,1252,1367.0,NaN,-28,44,436,-178,71,346,,,,,,,,,,,,,,,,,,,,,,,,,,,,,,,,,,,,,,,,0.0,,,,,,,,,,,,,,,,,,,,,,,,,,,,,,,,,,0.0,0.0,0.0,0.0,0.0,180.0,0.0,0.0,0.0,0,,Manual,OTHER,NONE,GPS_POSITION_NONMATCH,False,DisConnected,,P,False,False,False,0,0,,0.0,,0.0,0.0,0.0,0.0,NaN,NaN,NaN,0.0,0.0,0.0,0,0,0,14802,0,17.793861,12680.0,14828,-886,0,19,22,1,3700,0,0,0.0,0.0,
29733825,6.608,,,-58.97736,-0.0,,,0,NaN,0.0,0.0,0.10165046,-0.021868672,-0.98100996,0.98650473,-0.26168656,-0.1678176,-0.65604466,0.7259733,0.0,0.0,0.0,0.0,0.0,-530,267,1342,1467.0,25.81,0.0,NaN,NaN,NaN,0.0,NaN,NaN,0.0,0.0,0.0,-0.0,NaN,NaN,NaN,NaN,NaN,NaN,NaN,NaN,false,false,-0.7219723948123433,-0.3719892007808013,-0.23764591294817647,,0.0,,,0.0,0.0,0.0,0.0,0.0,0.0,0.0,0.0,0.0,0.0,-2200,2326,0,0,717,0.0,0.0,,,,,99.99,99.99,3.75E7,0,0,0,,,,20130901,1,88,0,0,0,0,Manual,0,0,0,0,0,30,50,0.0,0.0,0,5,0,0,0,0,0,0,0,0,0,0.0,0.0,0.0,Hover,,lost,100.0,0,0,0,0,0,0,0,0,0,1,0,-530,267,1342,1467.0,NaN,-541,135,1264,1381.0,NaN,-29,46,434,-177,71,345,,,,,,,,,,,,,,,,,,,,,,,,,,,,,,,,,,,,,,,,0.0,,,,,,,,,,,,,,,,,,,,,,,,,,,,,,,,,,0.0,0.0,0.0,0.0,0.0,180.0,0.0,0.0,0.0,0,,Manual,OTHER,NONE,GPS_POSITION_NONMATCH,False,DisConnected,,P,False,False,False,0,0,,0.0,,0.0,0.0,0.0,0.0,NaN,NaN,NaN,0.0,0.0,0.0,0,0,0,14802,0,82.12212,12680.0,14774,-934,0,19,22,1,3697,0,0,0.0,0.0,
29958829,6.658,,,-58.917164,-0.0,,,0,NaN,0.0,0.0,0.10200389,-0.020222832,-0.9809293,0.98642594,-0.30334392,-0.113828994,-0.55730724,0.644644,0.0,0.0,0.0,0.0,0.0,-530,267,1342,1467.0,25.8,0.0,NaN,NaN,NaN,0.0,NaN,NaN,0.0,0.0,0.0,-0.0,NaN,NaN,NaN,NaN,NaN,NaN,NaN,NaN,false,false,-0.7462561017177509,-0.3814841617127132,-0.2466009414689296,,0.0,,,0.0,0.0,0.0,0.0,0.0,0.0,0.0,0.0,0.0,0.0,-2200,2327,0,0,737,0.0,0.0,,,,,99.99,99.99,3.75E7,0,0,0,,,,20130901,1,91,0,0,0,0,Manual,0,0,0,0,0,30,50,0.0,0.0,0,5,0,0,0,0,0,0,0,0,0,0.0,0.0,0.0,Hover,,lost,100.0,0,0,0,0,0,0,0,0,0,1,0,-530,267,1342,1467.0,NaN,-541,132,1255,1373.0,NaN,-30,46,435,-178,70,343,,,,,,,,,,,,,,,,,,,,,,,,,,,,,,,,,,,,,,,,0.0,,,,,,,,,,,,,,,,,,,,,,,,,,,,,,,,,,0.0,0.0,0.0,0.0,0.0,180.0,0.0,0.0,0.0,0,,Manual,OTHER,NONE,GPS_POSITION_NONMATCH,False,DisConnected,,P,False,False,False,0,0,,0.0,,0.0,0.0,0.0,0.0,NaN,NaN,NaN,0.0,0.0,0.0,0,0,0,14802,0,82.12212,12680.0,14774,-934,0,19,22,1,3697,0,0,0.0,0.0,
30185889,6.708,,,-59.12026,-0.0,,,0,NaN,0.0,0.0,0.10072763,-0.021520015,-0.9806179,0.98601246,-0.11619643,-0.10394981,-0.24679536,0.29191628,0.0,0.0,0.0,0.0,0.0,-530,264,1337,1462.0,25.8,0.0,NaN,NaN,NaN,0.0,NaN,NaN,0.0,0.0,0.0,-0.0,NaN,NaN,NaN,NaN,NaN,NaN,NaN,NaN,false,false,-0.768398324654846,-0.391958211999832,-0.25197597189130594,,0.0,,,0.0,0.0,0.0,0.0,0.0,0.0,0.0,0.0,0.0,0.0,-2200,2327,0,0,757,0.0,0.0,,,,,99.99,99.99,3.75E7,0,0,0,,,,20130901,1,93,0,0,0,0,Manual,0,0,0,0,0,30,50,0.0,0.0,0,5,0,0,0,0,0,0,0,0,0,0.0,0.0,0.0,Hover,,lost,100.0,0,0,0,0,0,0,0,0,0,1,0,-530,264,1337,1462.0,NaN,-541,135,1255,1373.0,NaN,-30,44,434,-179,71,346,,,,,,,,,,,,,,,,,,,,,,,,,,,,,,,,,,,,,,,,0.0,,,,,,,,,,,,,,,,,,,,,,,,,,,,,,,,,,0.0,0.0,0.0,0.0,0.0,180.0,0.0,0.0,0.0,0,,Manual,OTHER,NONE,GPS_POSITION_NONMATCH,False,DisConnected,,P,False,False,False,0,0,,0.0,,0.0,0.0,0.0,0.0,NaN,NaN,NaN,0.0,0.0,0.0,0,0,0,14801,0,82.12212,12680.0,14774,-934,0,19,22,1,3697,0,0,0.0,0.0,
30412887,6.758,,,-58.988876,-0.0,,,0,NaN,0.0,0.0,0.1013035,-0.021214705,-0.9825286,0.98796505,-0.24900031,-0.21996723,-0.62464696,0.7075101,0.0,0.0,0.0,0.0,0.0,-530,264,1345,1469.0,25.82,0.0,NaN,NaN,NaN,0.0,NaN,NaN,0.0,0.0,0.0,-0.0,NaN,NaN,NaN,NaN,NaN,NaN,NaN,NaN,false,false,-0.7894804510926074,-0.4017663579938822,-0.2593218412635552,,0.0,,,0.0,0.0,0.0,0.0,0.0,0.0,0.0,0.0,0.0,0.0,-2200,2328,0,0,777,0.0,0.0,,,,,99.99,99.99,3.75E7,0,0,0,,,,20130901,1,96,0,0,0,0,Manual,0,0,0,0,0,30,50,0.0,0.0,0,5,0,0,0,0,0,0,0,0,0,0.0,0.0,0.0,Hover,,lost,100.0,0,0,0,0,0,0,0,0,0,1,0,-530,264,1345,1469.0,NaN,-545,132,1255,1374.0,NaN,-31,46,437,-178,70,345,,,,,,,,,,,,,,,,,,,,,,,,,,,,,,,,,,,,,,,,0.0,,,,,,,,,,,,,,,,,,,,,,,,,,,,,,,,,,0.0,0.0,0.0,0.0,0.0,180.0,0.0,0.0,0.0,0,,Manual,OTHER,NONE,GPS_POSITION_NONMATCH,False,DisConnected,,P,False,False,False,0,0,,0.0,,0.0,0.0,0.0,0.0,NaN,NaN,NaN,0.0,0.0,0.0,0,0,0,14799,0,82.12212,12680.0,14774,-934,0,19,22,1,3697,0,0,0.0,0.0,
30638149,6.808,,,-58.516212,-0.0,,,0,NaN,0.0,0.0,0.10206756,-0.02089182,-0.98058814,0.9861072,-0.23697197,-0.11901095,-0.5026301,0.5682925,0.0,0.0,0.0,0.0,0.0,-534,267,1337,1464.0,25.86,0.0,NaN,NaN,NaN,0.0,NaN,NaN,0.0,0.0,0.0,-0.0,NaN,NaN,NaN,NaN,NaN,NaN,NaN,NaN,false,false,-0.8120685327123094,-0.41092985887605177,-0.265385614883876,,0.0,,,0.0,0.0,0.0,0.0,0.0,0.0,0.0,0.0,0.0,0.0,-2200,2328,0,0,797,0.0,0.0,,,,,99.99,99.99,3.75E7,0,0,0,,,,20130901,1,98,0,0,0,0,Manual,0,0,0,0,0,30,50,0.0,0.0,0,5,0,0,0,0,0,0,0,0,0,0.0,0.0,0.0,Hover,,lost,100.0,0,0,0,0,0,0,0,0,0,1,0,-534,267,1337,1464.0,NaN,-541,132,1255,1373.0,NaN,-30,46,433,-180,71,346,,,,,,,,,,,,,,,,,,,,,,,,,,,,,,,,,,,,,,,,0.0,,,,,,,,,,,,,,,,,,,,,,,,,,,,,,,,,,0.0,0.0,0.0,0.0,0.0,180.0,0.0,0.0,0.0,0,,Manual,OTHER,NONE,GPS_POSITION_NONMATCH,False,DisConnected,,P,False,False,False,0,0,,0.0,,0.0,0.0,0.0,0.0,NaN,NaN,NaN,0.0,0.0,0.0,0,0,0,14798,0,82.12212,12680.0,14774,-934,0,19,22,1,3697,0,0,0.0,0.0,
30863314,6.859,,,-58.962704,-0.0,,,0,NaN,0.0,0.0,0.101878166,-0.022120632,-0.9827221,0.9882364,-0.14365909,-0.13874969,-0.34759337,0.40088722,0.0,0.0,0.0,0.0,0.0,-530,267,1340,1465.0,25.85,0.0,NaN,NaN,NaN,0.0,NaN,NaN,0.0,0.0,0.0,-0.0,NaN,NaN,NaN,NaN,NaN,NaN,NaN,NaN,false,false,-0.8340687924299064,-0.4212484890210704,-0.2737551716341753,,0.0,,,0.0,0.0,0.0,0.0,0.0,0.0,0.0,0.0,0.0,0.0,-2200,2329,0,0,817,0.0,0.0,,,,,99.99,99.99,3.75E7,0,0,0,,,,20130901,1,101,0,0,0,0,Manual,0,0,0,0,0,30,50,0.0,0.0,0,5,0,0,0,0,0,0,0,0,0,0.0,0.0,0.0,Hover,,lost,100.0,0,0,0,0,0,0,0,0,0,1,0,-530,267,1340,1465.0,NaN,-545,132,1255,1374.0,NaN,-30,46,435,-180,69,344,,,,,,,,,,,,,,,,,,,,,,,,,,,,,,,,,,,,,,,,0.0,,,,,,,,,,,,,,,,,,,,,,,,,,,,,,,,,,0.0,0.0,0.0,0.0,0.0,180.0,0.0,0.0,0.0,0,    100 [L-GPS]index(0) fdi event:turn on|    100 [L-SENSOR][baro(0)] std_filtered_air_press init succeed: press:102.0,Manual,OTHER,NONE,GPS_POSITION_NONMATCH,False,DisConnected,,P,False,False,False,0,0,,0.0,,0.0,0.0,0.0,0.0,NaN,NaN,NaN,0.0,0.0,0.0,0,0,0,14796,0,82.12212,12680.0,14774,-934,0,19,22,1,3697,0,0,0.0,0.0,
31088316,6.909,,,-58.379078,-0.0,,,0,NaN,0.0,0.0,0.101478554,-0.022003874,-0.9810836,0.9865632,-0.093671896,-0.18613788,-0.3386147,0.39759484,0.0,0.0,0.0,0.0,0.0,-537,259,1340,1466.0,25.84,0.0,NaN,NaN,NaN,0.0,NaN,NaN,0.0,0.0,0.0,-0.0,NaN,NaN,NaN,NaN,NaN,NaN,NaN,NaN,false,false,-0.8542410507997888,-0.42994848804815017,-0.28185451207504686,,0.0,,,0.0,0.0,0.0,0.0,0.0,0.0,0.0,0.0,0.0,0.0,-2200,2329,0,0,837,0.0,0.0,,,,,99.99,99.99,3.75E7,0,0,0,,,,20130901,1,103,0,0,0,0,Manual,0,0,0,0,0,30,50,0.0,0.0,0,5,0,0,0,0,0,0,0,0,0,0.0,0.0,0.0,Hover,,lost,100.0,0,0,0,0,0,0,0,0,0,1,0,-537,259,1340,1466.0,NaN,-541,137,1255,1373.0,NaN,-32,46,436,-179,72,346,,,,,,,,,,,,,,,,,,,,,,,,,,,,,,,,,,,,,,,,0.0,,,,,,,,,,,,,,,,,,,,,,,,,,,,,,,,,,0.0,0.0,0.0,0.0,0.0,180.0,0.0,0.0,0.0,0,,Manual,OTHER,NONE,GPS_POSITION_NONMATCH,False,DisConnected,,P,False,False,False,0,0,,0.0,,0.0,0.0,0.0,0.0,NaN,NaN,NaN,0.0,0.0,0.0,0,0,0,14795,0,82.12212,12680.0,14774,-934,0,19,22,1,3697,0,0,0.0,0.0,
31313328,6.959,,,-59.100895,-0.0,,,0,NaN,0.0,0.0,0.10321594,-0.01999662,-0.97970897,0.985334,-0.36407667,-0.16559653,-0.55574423,0.6847085,0.0,0.0,0.0,0.0,0.0,-537,259,1340,1466.0,25.83,0.0,NaN,NaN,NaN,0.0,NaN,NaN,0.0,0.0,0.0,-0.0,NaN,NaN,NaN,NaN,NaN,NaN,NaN,NaN,false,false,-0.8757909467821565,-0.4395210100864391,-0.2866458970302439,,0.0,,,0.0,0.0,0.0,0.0,0.0,0.0,0.0,0.0,0.0,0.0,-2200,2329,0,0,857,0.0,0.0,,,,,99.99,99.99,3.75E7,0,0,0,,,,20130901,1,106,0,0,0,0,Manual,0,0,0,0,0,30,50,0.0,0.0,0,5,0,0,0,0,0,0,0,0,0,0.0,0.0,0.0,Hover,,lost,100.0,0,0,0,0,0,0,0,0,0,1,0,-537,259,1340,1466.0,NaN,-541,132,1264,1381.0,NaN,-32,44,434,-179,69,347,,,,,,,,,,,,,,,,,,,,,,,,,,,,,,,,,,,,,,,,0.0,,,,,,,,,,,,,,,,,,,,,,,,,,,,,,,,,,0.0,0.0,0.0,0.0,0.0,180.0,0.0,0.0,0.0,0,,Manual,OTHER,NONE,GPS_POSITION_NONMATCH,False,DisConnected,,P,False,False,False,0,0,,0.0,,0.0,0.0,0.0,0.0,NaN,NaN,NaN,0.0,0.0,0.0,0,0,0,14792,0,82.12212,12680.0,14774,-934,0,19,22,1,3697,0,0,0.0,0.0,
31538459,7.009,,,-59.08833,-0.0,,,0,NaN,0.0,0.0,0.09931845,-0.021001969,-0.9825199,0.9877503,-0.27797174,0.2283665,-0.3189227,0.48076108,0.0,0.0,0.0,0.0,0.0,-530,264,1342,1466.0,25.85,0.0,NaN,NaN,NaN,0.0,NaN,NaN,0.0,0.0,0.0,-0.0,NaN,NaN,NaN,NaN,NaN,NaN,NaN,NaN,false,false,-0.8980447287673914,-0.4494399076088989,-0.2966681486737315,,0.0,,,0.0,0.0,0.0,0.0,0.0,0.0,0.0,0.0,0.0,0.0,-2200,2329,0,0,877,0.0,0.0,,,,,99.99,99.99,3.75E7,0,0,0,,,,20130901,1,108,0,0,0,0,Manual,0,0,0,0,0,30,50,0.0,0.0,0,5,0,0,0,0,0,0,0,0,0,0.0,0.0,0.0,Hover,,lost,100.0,0,0,0,0,0,0,0,0,0,1,0,-530,264,1342,1466.0,NaN,-548,129,1258,1378.0,NaN,-30,45,436,-179,71,348,,,,,,,,,,,,,,,,,,,,,,,,,,,,,,,,,,,,,,,,0.0,,,,,,,,,,,,,,,,,,,,,,,,,,,,,,,,,,0.0,0.0,0.0,0.0,0.0,180.0,0.0,0.0,0.0,0,    109 [L-ESC]esc alive info = 0x0|||    109 [L-ESC]ESC0 link up|||    109 [L-ESC]ESC1 link up|||    109 [L-ESC]ESC2 link up||,Manual,OTHER,NONE,GPS_POSITION_NONMATCH,False,DisConnected,,P,False,False,False,0,0,,0.0,,0.0,0.0,0.0,0.0,NaN,NaN,NaN,0.0,0.0,0.0,0,0,0,14789,0,82.12212,12680.0,14774,-934,0,19,22,1,3697,0,0,0.0,0.0,
31763655,7.059,,,-58.972126,-0.0,,,0,NaN,0.0,0.0,0.10236572,-0.023894083,-0.9806547,0.98627245,-0.81851923,-0.38802576,-1.1718901,1.4811699,0.0,0.0,0.0,0.0,0.0,-527,253,1342,1463.0,25.86,0.0,NaN,NaN,NaN,0.0,NaN,NaN,0.0,0.0,0.0,-0.0,NaN,NaN,NaN,NaN,NaN,NaN,NaN,NaN,false,false,-0.9167378858539554,-0.46186501803020513,-0.30243643345679594,,0.0,,,0.0,0.0,0.0,0.0,0.0,0.0,0.0,0.0,0.0,0.0,-2200,2331,0,0,897,0.0,0.0,,,,,99.99,99.99,3.75E7,0,0,0,,,,20130901,1,111,0,0,0,0,Manual,0,0,0,0,0,30,50,0.0,0.0,0,5,0,0,0,0,0,0,0,0,0,0.0,0.0,0.0,Hover,,lost,100.0,0,0,0,0,0,0,0,0,0,1,0,-527,253,1342,1463.0,NaN,-545,135,1255,1374.0,NaN,-30,41,435,-178,72,346,,,,,,,,,,,,,,,,,,,,,,,,,,,,,,,,,,,,,,,,0.0,,0,0,0,0,22,23,23,22,48.59375,48.90625,48.90625,49.010418,48.958332,48.958332,48.958332,48.958332,0.0,0.0,0.0,0.0,14.6,14.6,14.3,14.3,0.0,0.0,0.0,0.0,0,0,0,0,0.0,0.0,0.0,0.0,0.0,180.0,0.0,0.0,0.0,0,    110 [L-FMU/MOTOR]fault off. esc(1) is disconnect|    110 [L-FMU/MOTOR]fault off. esc(2) is disconnect|    110 [L-FMU/MOTOR]fault off. esc(3) is disconnect|    110 [L-ESC]ESC3 link up|||    110 [L-ESC]ESC0 version: Protocol = [V1.0] Hardware = "WM330_EV1" |    110 [L-ESC]Loader   = [V01.00.00.00] |    110 [L-ESC]Firmware = [V01.08.00.07] |||    110 [L-ESC]ESC1 version: Protocol = [V1.0] Hardware = "WM330_EV1" |    110 [L-ESC]Loader   = [V01.00.00.00] |    110 [L-ESC]Firmware = [V01.08.00.07] |||    111 [L-FMU/MOTOR]fault off. esc(4) is disconnect|    111 [L-ESC]ESC2 version: Protocol = [V1.0] Hardware = "WM330_EV1" |    111 [L-ESC]Loader   = [V01.00.00.00] |    111 [L-ESC]Firmware = [V01.08.00.07] ||,Manual,OTHER,NONE,GPS_POSITION_NONMATCH,False,DisConnected,,P,False,False,False,0,0,,0.0,,0.0,0.0,0.0,0.0,NaN,NaN,NaN,0.0,0.0,0.0,0,0,0,14786,0,82.12212,12680.0,14774,-934,0,19,22,1,3697,0,0,0.0,0.0,
31988658,7.109,,,-58.877907,-0.0,,,0,NaN,0.0,0.0,0.104250215,-0.019055817,-0.9801014,0.9858144,-0.12582505,-0.30169892,-0.06091003,0.33251196,0.0,0.0,0.0,0.0,0.0,-527,264,1334,1458.0,25.85,0.0,NaN,NaN,NaN,0.0,NaN,NaN,0.0,0.0,0.0,-0.0,NaN,NaN,NaN,NaN,NaN,NaN,NaN,NaN,false,false,-0.9363249982313104,-0.472167443709618,-0.3055303545918244,,0.0,,,0.0,0.0,0.0,0.0,0.0,0.0,0.0,0.0,0.0,0.0,-2200,2331,0,0,917,0.0,0.0,,,,,99.99,99.99,3.75E7,0,0,0,,,,20130901,1,113,0,0,0,0,Manual,0,0,0,0,0,30,50,0.0,0.0,0,5,0,0,0,0,0,0,0,0,0,0.0,0.0,0.0,Hover,,lost,100.0,0,0,0,0,0,0,0,0,0,1,0,-527,264,1334,1458.0,NaN,-538,135,1261,1377.0,NaN,-30,45,436,-179,71,346,,,,,,,,,,,,,,,,,,,,,,,,,,,,,,,,,,,,,,,,0.0,,0,0,0,0,22,23,23,22,48.59375,48.90625,48.90625,49.010418,48.958332,48.958332,48.958332,48.958332,0.0,0.0,0.0,0.0,14.3,14.3,14.3,14.1,0.0,0.0,0.0,0.0,0,0,0,0,0.0,0.0,0.0,0.0,0.0,180.0,0.0,0.0,0.0,0,,Manual,OTHER,NONE,GPS_POSITION_NONMATCH,False,DisConnected,,P,False,False,False,0,0,,0.0,,0.0,0.0,0.0,0.0,NaN,NaN,NaN,0.0,0.0,0.0,0,0,0,14784,0,82.12212,12680.0,14774,-934,0,19,22,1,3697,0,0,0.0,0.0,
32213660,7.159,,,-58.899887,-0.0,,,0,NaN,0.0,0.0,0.09843237,-0.021597154,-0.98306435,0.98821604,-0.08937648,0.19972461,-0.07185947,0.23030819,0.0,0.0,0.0,0.0,0.0,-530,259,1342,1465.0,25.87,0.0,NaN,NaN,NaN,0.0,NaN,NaN,0.0,0.0,0.0,-0.0,NaN,NaN,NaN,NaN,NaN,NaN,NaN,NaN,false,false,-0.9558748678578479,-0.4782931396424644,-0.31607328772058585,,0.0,,,0.0,0.0,0.0,0.0,0.0,0.0,0.0,0.0,0.0,0.0,-2200,2331,0,0,937,0.0,0.0,,,,,99.99,99.99,3.75E7,0,0,0,,,,20130901,1,116,0,0,0,0,Manual,0,0,0,0,0,30,50,0.0,0.0,0,5,0,0,0,0,0,0,0,0,0,0.0,0.0,0.0,Hover,,lost,100.0,0,0,0,0,0,0,0,0,0,1,0,-530,259,1342,1465.0,NaN,-545,135,1264,1383.0,NaN,-30,43,436,-179,71,347,,,,,,,,,,,,,,,,,,,,,,,,,,,,,,,,,,,,,,,,0.0,,0,0,0,0,22,23,23,22,48.59375,48.90625,48.90625,49.010418,48.958332,48.958332,48.958332,48.958332,0.0,0.0,0.0,0.0,14.5,14.4,14.3,14.3,0.0,0.0,0.0,0.0,0,0,0,0,0.0,0.0,0.0,0.0,0.0,180.0,0.0,0.0,0.0,0,,Manual,OTHER,NONE,GPS_POSITION_NONMATCH,False,DisConnected,,P,False,False,False,0,0,,0.0,,0.0,0.0,0.0,0.0,NaN,NaN,NaN,0.0,0.0,0.0,0,0,0,14781,0,82.12212,12680.0,14774,-934,0,19,22,1,3697,0,0,0.0,0.0,
32439575,7.209,,,-58.54134,-0.0,,,0,NaN,0.0,0.0,0.104001716,-0.019421034,-0.9803556,0.986048,0.018715039,-0.31026682,-0.24836983,0.3978735,0.0,0.0,0.0,0.0,0.0,-530,259,1340,1464.0,25.89,0.0,NaN,NaN,NaN,0.0,NaN,NaN,0.0,0.0,0.0,-0.0,NaN,NaN,NaN,NaN,NaN,NaN,NaN,NaN,false,false,-0.977868275750517,-0.48783185294447035,-0.32527939499181224,,0.0,,,0.0,0.0,0.0,0.0,0.0,0.0,0.0,0.0,0.0,0.0,-2200,2331,0,0,957,0.0,0.0,,,,,99.99,99.99,3.75E7,0,0,0,,,,20130901,1,118,0,0,0,0,Manual,0,0,0,0,0,30,50,0.0,0.0,0,5,0,0,0,0,0,0,0,0,0,0.0,0.0,0.0,Hover,,lost,100.0,0,0,0,0,0,0,0,0,0,1,0,-530,259,1340,1464.0,NaN,-541,132,1258,1375.0,NaN,-30,45,435,-179,71,347,,,,,,,,,,,,,,,,,,,,,,,,,,,,,,,,,,,,,,,,0.0,,0,0,0,0,22,23,23,22,48.59375,48.90625,48.854168,49.010418,48.958332,48.958332,48.958332,48.958332,0.0,0.0,0.0,0.0,14.4,14.4,14.3,14.3,0.0,0.0,0.0,0.0,0,0,0,0,0.0,0.0,0.0,0.0,0.0,180.0,0.0,0.0,0.0,0,,Manual,OTHER,NONE,GPS_POSITION_NONMATCH,False,DisConnected,,P,False,False,False,0,0,,0.0,,0.0,0.0,0.0,0.0,NaN,NaN,NaN,0.0,0.0,0.0,0,0,0,14780,0,82.12212,12680.0,14774,-934,0,19,22,1,3697,0,0,0.0,0.0,
