Clock:Tick#,Clock:offsetTime,IMU_ATTI(0):Longitude,IMU_ATTI(0):Latitude,IMU_ATTI(0):press:D,IMU_ATTI(0):alti:D,IMU_ATTI(0):relativeHeight:C,IMU_ATTI(0):absoluteHeight:C,IMU_ATTI(0):numSats,IMU_ATTI(0):roll:C,IMU_ATTI(0):pitch:C,IMU_ATTI(0):yaw:C,IMU_ATTI(0):accelX,IMU_ATTI(0):accelY,IMU_ATTI(0):accelZ,IMU_ATTI(0):accelComposite:C,IMU_ATTI(0):gyroX,IMU_ATTI(0):gyroY,IMU_ATTI(0):gyroZ,IMU_ATTI(0):gyroComposite:C,IMU_ATTI(0):velN,IMU_ATTI(0):velE,IMU_ATTI(0):velD,IMU_ATTI(0):velComposite:C,IMU_ATTI(0):velH:C,IMU_ATTI(0):magX,IMU_ATTI(0):magY,IMU_ATTI(0):magZ,IMU_ATTI(0):magMod:C,IMU_ATTI(0):temperature,IMU_ATTI(0):yawUnWrapped:C,IMU_ATTI(0):tiltInclination:C,IMU_ATTI(0):tiltDirectionEarthFrame:C,IMU_ATTI(0):tiltDirectionBodyFrame:C,IMU_ATTI(0):yaw360:C,IMU_ATTI(0):magYaw:C,IMU_ATTI(0):Yaw-magYaw:C,IMUCalcs(0):PosN:C,IMUCalcs(0):PosE:C,IMUCalcs(0):PosD:C,IMUCalcs(0):height:C,IMUCalcs(0):velN:C,IMUCalcs(0):velE:C,IMUCalcs(0):velD:C,IMUCalcs(0):diffVelN:C,IMUCalcs(0):diffVelE:C,IMUCalcs(0):diffVelD:C,IMUCalcs(0):Lat:C,IMUCalcs(0):Long:C,IMUCalcs(0):VelocityError:C,IMUCalcs(0):PositionError:C,IMUCalcs(0):totalGyroZ:C,IMUCalcs(0):totalGyroX:C,IMUCalcs(0):totalGyroY:C,IMU_ATTI(0):distanceHP:C,IMU_ATTI(0):distanceTravelled:C,IMU_ATTI(0):directionOfTravel[mag]:C,IMU_ATTI(0):directionOfTravel[true]:C,IMU_ATTI(0):quatW:D,IMU_ATTI(0):quatX:D,IMU_ATTI(0):quatY:D,IMU_ATTI(0):quatZ:D,IMU_ATTI(0):agX:D,IMU_ATTI(0):agY:D,IMU_ATTI(0):agZ:D,IMU_ATTI(0):gbX:D,IMU_ATTI(0):gbY:D,IMU_ATTI(0):gbZ:D,IMU_ATTI(0):ty:D,IMU_ATTI(0):tz:D,IMU_ATTI(0):sensor_stat:D,IMU_ATTI(0):filter_stat:D,IMU_ATTI(0):atti_cnt:D,GPS:Long,GPS:Lat,GPS:Date,GPS:Time,GPS:dateTimeStamp,GPS:heightMSL,GPS:hDOP,GPS:pDOP,GPS:sAcc,GPS:numGPS,GPS:numGLNAS,GPS:numSV,GPS:velN,GPS:velE,GPS:velD,GPS:rawDate,GPS:rawTime,Controller:ctrl_tick:D,Controller:ctrl_pitch:D,Controller:ctrl_roll:D,Controller:ctrl_yaw:D,Controller:ctrl_thr:D,Controller:ctrl_mode,Controller:mode_switch:D,Controller:motor_state:D,Controller:sig_level:D,Controller:ctrl_level:D,Controller:sim_model:D,Controller:max_height:D,Controller:max_radius:D,Controller:D2H_x:D,Controller:D2H_y:D,Controller:act_req_id:D,Controller:act_act_id:D,Controller:cmd_mod:D,Controller:mod_req_id:D,Controller:fw_flag:D,Controller:mot_sta:D,Controller:OH_take:D,Controller:OH_take_f:D,Controller:rc_cnt:D,Controller:sup_rc:D,Controller:is_soaring_up:D,Controller:soar_up_timer:D,Controller:vert_vel_err:D,Controller:vert_vel_err_fltr:D,RC_Info:failSafe,RC_Info:dataLost,RC_Info:appLost,RC_Info:sigStrength:C,RC_Info:cur_cmd:D,RC_Info:vedio_lost:D,RC_Info:frame_lost:D,RC_Info:rec_cnt:D,RC_Info:sky_con:D,RC_Info:gnd_con:D,RC_Info:connected:D,RC_Info:m_changed:D,RC_Info:arm_status:D,RC_Info:wifi_en:D,RC_Info:in_wifi:D,MagCali(0):X:D,MagCali(0):Y:D,MagCali(0):Z:D,MagCali(0):Mod:C,MagCali(0):magYaw:C,MagCali(1):X:D,MagCali(1):Y:D,MagCali(1):Z:D,MagCali(1):Mod:C,MagCali(1):magYaw:C,CompassFilter(0):X:D,CompassFilter(0):Y:D,CompassFilter(0):Z:D,CompassFilter(1):X:D,CompassFilter(1):Y:D,CompassFilter(1):Z:D,BatteryStatus:not_ready,BatteryStatus:comm_err,BatteryStatus:first_auth,BatteryStatus:auth_fail,BatteryStatus:need_re,BatteryStatus:volVerylow,BatteryStatus:volNotsafe,BatteryStatus:volLevel1:D,BatteryStatus:vollevel2:D,BatteryStatus:capLevel1:D,BatteryStatus:capLevel2:D,BatteryStatus:smartCap1:D,BatteryStatus:smartCap2:D,BatteryStatus:d_flg:D,BatteryStatus:ccsc:D,BatteryStatus:all:D,SMART_BATT:goHome%,SMART_BATT:land%,SMART_BATT:goHomeTime,SMART_BATT:landTime,OA:frontDistance,MVO:velX,MVO:velY,MVO:velZ,MVO:posX,MVO:posY,MVO:posZ,MVO:hoverPointUncertainty1,MVO:hoverPointUncertainty2,MVO:hoverPointUncertainty3,MVO:hoverPointUncertainty4,MVO:hoverPointUncertainty5,MVO:hoverPointUncertainty6,MVO:velocityUncertainty1,MVO:velocityUncertainty2,MVO:velocityUncertainty3,MVO:velocityUncertainty4,MVO:velocityUncertainty5,MVO:velocityUncertainty6,MVO:height,MVO:heightUncertainty,Motor:Speed:RFront,Motor:Speed:LFront,Motor:Speed:LBack,Motor:Speed:RBack,Motor:EscTemp:RFront,Motor:EscTemp:LFront,Motor:EscTemp:LBack,Motor:EscTemp:RBack,Motor:PPMrecv:RFront,Motor:PPMrecv:LFront,Motor:PPMrecv:LBack,Motor:PPMrecv:RBack,Motor:PPMsend:RFront,Motor:PPMsend:LFront,Motor:PPMsend:LBack,Motor:PPMsend:RBack,Motor:V_out:RFront,Motor:V_out:LFront,Motor:V_out:LBack,Motor:V_out:RBack,Motor:Volts:RFront,Motor:Volts:LFront,Motor:Volts:LBack,Motor:Volts:RBack,Motor:Current:RFront,Motor:Current:LFront,Motor:Current:LBack,Motor:Current:RBack,Motor:Status:RFront,Motor:Status:LFront,Motor:Status:LBack,Motor:Status:RBack,AirSpeed:air_vbx:D,AirSpeed:air_vby:D,AirSpeed:comp_alti:D,AirSpeed:windSpeed,AirSpeed:windDirection,AirSpeed:windFromDir,AirSpeed:windN,AirSpeed:windE,AirSpeed:MotorSpd:D,AirSpeed:vel_level:D,eventLog,osd_data:flyCState,osd_data:flycCommand,osd_data:flightAction,osd_data:nonGPSCause,osd_data:compassError,osd_data:connectedToRC,osd_data:lowVoltage,osd_data:ModeSwitch,osd_data:gpsUsed,osd_data:visionUsed,osd_data:notEnoughForce,osd_data:flightTime,osd_data:navHealth,osd_data:vpsHeight,osd_data:relativeHeight,usonic:usonic_h,ATTI_MINI0:s_qw0,ATTI_MINI0:s_qx0,ATTI_MINI0:s_qy0,ATTI_MINI0:s_qz0,ATTI_MINI0:roll:C,ATTI_MINI0:pitch:C,ATTI_MINI0:yaw:C,ATTI_MINI0:s_pgz0,ATTI_MINI0:s_vgz0,ATTI_MINI0:s_agz0,ATTI_MINI0:s_rsv00,ATTI_MINI0:s_rsv10,ATTI_MINI0:s_cnt0,BatteryInfo:ad_v:D,BatteryInfo:r_time,BatteryInfo:ave_I:D,BatteryInfo:vol_t:D,BatteryInfo:pack_ve:D,BatteryInfo:I:D,BatteryInfo:r_cap:D,BatteryInfo:cap_per:D,BatteryInfo:temp:D,BatteryInfo:right:D,BatteryInfo:l_cell:D,BatteryInfo:dyna_cnt:D,BatteryInfo:f_cap:D,BatteryInfo:out_ctl:D,BatteryInfo:out_ctl_f:D,Attribute|Value,ConvertDatV3,4.3.0
0,.000,,,,,,,,,,,,,,,,,,,,,,,,,,,,,,,,,,,,,,,,,,,,,,,,,,,,,,,,,,,,,,,,,,,,,,,,,,,,,,,,,,,,,,,,,,,,,,,,,,,,,,,,,,,,,,,,,,,,,,,,,,,,,,,,,,,,,,,,,,,,,,,,,,,,,,,,,,,,,,,,,,,,,,,,,,,,,,,,,,,,,,,,,,,,,,,,,,,,,,,,,,,,,,,,,,,,,,,,,,,,,,,,,,,,,,,,,,,,,,,,,,,,,,,,,,,,,,,,,,,,,,,,,,,,,,,,,,,,
11716387,2.604,,,,,,,,,,,,,,,,,,,,,,,,,,,,,,,,,,,,,,,,,,,,,,,,,,,,,,,,,,,,,,,,,,,,,,,,,,,,,,,,,,,,,,,,,,,,,,,,,,,,,,,,,,,,,,,,,,,,,,,,,,,,,,,,,,,,,,,,,,,,,,,,,,,,,,,,,,,,,,,,,,,,,,,,,,,,,,,,,,,,,,,,,,,,0.0,,,,,,,,,,,,,,,,,,,,,,,,,,,,,,,,,,,,,,,,,,,,{root}INFO:lib_route_init ok,,,,,,,,P,,,,,,,,,,,,,,,,,,,,,,,,,,,,,,,,,,,,,Firmware Date| Nov 16 2017
17122913,3.805,,,,,,,,,,,,,,,,,,,,,,,,,,,,,,,,,,,,,,,,,,,,,,,,,,,,,,,,,,,,,,,,,,,,,,,,,,,,,,,,,,,,,,,,,,,,,,,,,,,,,,,,,,,,,,,,,,,,,,,,,,,,,,,,,,,,,,,,,,,,,,,,,,,,,,,,,,,,,,,,,,,,,,,,,,,,,,,,,,,,,,,,,,,,0.0,,,,,,,,,,,,,,,,,,,,,,,,,,,,,,,,,,,,,,,,,,,,{root}INFO:link_host_init ok.|||{root}INFO:link_init <0> link_host. ret(0x0)|||{root}INFO:link_init <1> link_pc. ret(0x0)|||{root}INFO:link_init <2> link_vo. ret(0x0)|||{root}INFO:link_init <3> link_ap. ret(0x0)|||{root}INFO:link_init <4> link_sdk. ret(0x0)|||{root}INFO:link_init <5> link_ofdm. ret(0x0)|||{root}INFO:link_init <6> link_auto_cali. ret(0x0)|||{root}INFO:link_init <7> link_manual_cali. ret(0x0)|||{root}INFO:link_init <8> link_cali_led. ret(0x0)|||      0 [L-SENSOR][ASR]sync host lead offset 0x11a|||{root}INFO:[panic]:******************check fault info and trace(0) ************|||{root}INFO:[panic]:-----fault info is null: addr(0x2045e800).flag(0x7f705a6b)-----|||{root}INFO:[panic]:-----fault info is null: addr(0x2045e938).flag(0x9da8dbce)-----|||{root}INFO:[panic]:-----all task info  is null: addr(0x2045ea70).flag(0x067459d4)-----|||{root}INFO:[panic]:-----trace info  is null: addr(0x2045f260).flag(0x56f6218a)-----|||{root}INFO:[panic]:******************check last trace ******************|||{root}INFO:[panic]:-----trace info  is null: addr(0x2045eca0).flag(0x0b9baae0)-----|||      0 [L-SENSOR][ASR]asr host sync start|{root}INFO:[panic]:-----wdg_time_info is null: addr(0x2045f820).flag(0xa3ceddbc)-----|||      0 [L-SENSOR] hw_ver voltage: 0,,,,,,,,P,,,,,,,,,,,,,,,,,,,,,,,,,,,,,,,,,,,,,ACType|P4
21262805,4.725,,,,,,,,,,,,,,,,,,,,,,,,,,,,,,,,,,,,,,,,,,,,,,,,,,,,,,,,,,,,,,,,,,,,,,,,,,,,,,,,,,,,,,,,,,,,,,,,,,,,,,,,,,,,,,,,,,,,,,,,,,,,,,,,,,,,,,,,,,,,,,,,,,,,,,,,,,,,,,,,,,,,,,,,,,,,,,,,,,,,,,,,,,,,0.0,,,,,,,,,,,,,,,,,,,,,,,,,,,,,,,,,,,,,,,,,,,,      0 [L-SIM]read parameter successfully!,,,,,,,,P,,,,,,,,,,,,,,,,,,,,,,,,,,,,,,,,,,,,,
21487822,4.775,,,,,,,,,,,,,,,,,,,,,,,,,,,,,,,,,,,,,,,,,,,,,,,,,,,,,,,,,,,,,,,,,,,,,,,,,,,,,,,,,,,,,,,,,,,,,,,,,,,,,,,,,,,,,,,,,,,,,,,,,,,,,,,,,,,,,,,,,,,,,,,,,,,,,,,,,,,,,,,,,,,,,,,,,,,,,,,,,,,,,,,,,,,,0.0,,,,,,,,,,,,,,,,,,,,,,,,,,,,,,,,,,,,,,,,,,,,      0 [L-FMU/MOTOR]read motor force disable flag successfully!|      0 [L-FMU/DM]success reg dev type  3(A3). id:2. total num:2|      0 [L-SENSOR][ASR]need re sync host load_offset. freq=0x190|||      0 [L-SENSOR][ASR]need re sync host load_offset. freq=0x190|||      0 [L-SENSOR][ASR]need re sync host load_offset. freq=0x190|||      0 [L-SENSOR][ASR]need re sync host load_offset. freq=0x190|||      0 [L-SENSOR]imu group0 ok|      0 [L-GYRO_ACC]imu_0 group->sensor_id:e36a51 |      0 [L-GYRO_ACC]turn on temp ctrl(0). cur_temp:-50.0. reason:temp ctrl core init|      0 [L-GYRO_ACC]turn on temp ctrl(0). cur_temp:0.0. reason:gyro_acc_tmp_ctl_init|      0 [L-SENSOR][ASR]sync host lead offset 0x11a|||      0 [L-GYRO_ACC]fitler-angular_vel. cheby2_config_7th|      0 [L-GYRO_ACC]fz: 160.000000 hz.50.000000 dB|      0 [L-GYRO_ACC]fitler-linear_acc. butter_config_3rd_z2|      0 [L-SENSOR][ASR]asr host sync start|      0 [L-GYRO_ACC] fp= 16.000000 hz; fz=100.000000 hz fs=2000.000000|      0 [L-GYRO_ACC]bandpass: fp= 50.000000 hz; fs=350.000000 hz; sample=2000.000000|      0 [L-FDI][IMU]0 dir ok 1.000000 0.000000 0.000000 0.000000 1.000000 0.000000 0.000000 0.|      0 [L-FDI][IMU]0 mis cali ok|      0 [L-FDI][IMU]0 level 1&2 temp cali ok|      0 [L-FDI][IMU]0 base cali ok ff aa|      0 [L-FDI][IMU]0 cali ver ok ff 4 6 6|      0 [L-FMU/DM]success reg dev type  8(gyro_acc0). id:3. total num:3|      0 [L-SENSOR]imu group1 ok|      0 [L-GYRO_ACC]imu_1 group->sensor_id:20e36a51 |      0 [L-GYRO_ACC]turn on temp ctrl(1). cur_temp:-50.0. reason:temp ctrl core init|      0 [L-GYRO_ACC]turn on temp ctrl(1). cur_temp:0.0. reason:gyro_acc_tmp_ctl_init|      0 [L-GYRO_ACC]fitler-angular_vel. cheby2_config_7th|      0 [L-GYRO_ACC]fz: 160.000000 hz.50.000000 dB|      0 [L-GYRO_ACC]fitler-linear_acc. butter_config_3rd_z2|      0 [L-GYRO_ACC] fp= 16.000000 hz; fz=100.000000 hz fs=2000.000000|      0 [L-GYRO_ACC]bandpass: fp= 50.000000 hz; fs=350.000000 hz; sample=2000.000000|      0 [L-FDI][IMU]1 dir ok 1.000000 0.000000 0.000000 0.000000 1.000000 0.000000 0.000000 0.|      0 [L-FDI][IMU]1 mis cali ok|      0 [L-FDI][IMU]1 level 1&2 temp cali ok|      0 [L-FDI][IMU]1 base cali ok ff aa|      0 [L-FDI][IMU]1 cali ver ok ff 4 6 6|      0 [L-FMU/DM]success reg dev type  8(gyro_acc1). id:4. total num:4|      0 [L-SENSOR]baro group0 ok|      0 [L-FMU/DM]success reg dev type  9(baro0). id:5. total num:5|      0 [L-SENSOR]compass group0 ok|      0 [L-FMU/DM]success reg dev type 10(compass0). id:6. total num:6|      0 [L-SENSOR]compass group1 ok|      0 [L-FMU/DM]success reg dev type 10(compass0). id:7. total num:7|      0 [L-FMU/DM]success reg dev type  4(imu0_local). id:8. total num:8|      0 [L-FMU/DM]success reg dev type 19(rc0). id:9. total num:9|      0 [L-FMU/DM]success reg dev type 15(zenmus0). id:10. total num:10|      0 [L-FMU/DM]success reg dev type 14(camera0). id:11. total num:11|      0 [L-FMU/DM]success reg dev type 12(vo0). id:12. total num:12|      0 [L-FMU/DM]success reg dev type 11(ultrasonic0). id:13. total num:13|      0 [L-GPS]<AGPS INFO>comm agps init.agps mode :HOST-BASE|      0 [L-SDK][USER] api cfg load success (BR:921600)!|||      0 [L-FMU/DM]success reg dev type 22(sdk0). id:14. total num:14|      0 [L-BATTERY]-------comm_bat_init-------|      0 [L-FMU/DM]success reg dev type 26(battery0). id:15. total num:15|      0 [L-BATTERY]bat_auth_origa_init|      0 [L-BATTERY]bat_auth_origa_stop|      0 [L-FMU/DM]success reg dev type 32(wristband0). id:16. total num:16|      0 [L-FMU/DM]success reg dev type 33(headset0). id:17. total num:17|      0 [L-PWM]actuator_cfg_changed![ACTUATOR_0],,,,,,,,P,,,,,,,,,,,,,,,,,,,,,,,,,,,,,,,,,,,,,
21714638,4.825,,,0.0,-0.0,,,0,NaN,0.0,0.0,-0.04557954,-0.007512889,-0.11178493,0.12095374,0.18790686,0.5594928,-0.51137966,0.78092915,0.0,0.0,0.0,0.0,0.0,316,-83,444,551.0,0.0,0.0,NaN,NaN,NaN,0.0,NaN,NaN,0.0,0.0,0.0,-0.0,NaN,NaN,NaN,NaN,NaN,NaN,NaN,NaN,false,false,-0.0012760399610840523,4.6888189564242566E-4,0.0013960962108967578,,0.0,,,0.0,0.0,0.0,0.0,0.0,0.0,0.0,0.0,0.0,0.0,0,0,0,0,5,0.0,0.0,,,,,99.99,99.99,3.75E7,0,0,0,,,,0,0,,,,,,,,,,,,,,,,,,,,,,,,,,,,,,,,,,,,,,,,,,,,,316,-83,444,551.0,NaN,209,-126,395,464.0,NaN,105,-27,148,69,-42,131,,,,,,,,,,,,,,,,,,,,,,,,,,,,,,,,,,,,,,,,0.0,,,,,,,,,,,,,,,,,,,,,,,,,,,,,,,,,,,,,,,,,,,,      0 [L-PWM]actuator_cfg_changed![ACTUATOR_1]|      0 [L-PWM]actuator_cfg_changed![ACTUATOR_2]|      0 [L-PWM]actuator_cfg_changed![ACTUATOR_3]|      0 [L-PWM]actuator_cfg_changed![ACTUATOR_4]|      0 [L-PWM]actuator_cfg_changed![ACTUATOR_5]|      0 [L-PWM]actuator_cfg_changed![ACTUATOR_6]|      0 [L-PWM]actuator_cfg_changed![ACTUATOR_7]|      0 [L-PWM]set actuator mode:IDLE|      0 [L-PWM]f_chl_cfg changed!|      0 [L-FMU/DM]success reg dev type 17(). id:18. total num:18|      0 [L-FMU/DM]success reg dev type  0(esc4). id:19. total num:19|      0 [L-FMU/DM]success reg dev type 16(GEAR). id:20. total num:20|      0 [L-FMU/DM]success reg dev type 24(DROPSAFE). id:21. total num:21|      0 [L-FMU/DM]success reg dev type 34(PITOT). id:22. total num:22|      0 [L-DBG1][Init]Init ok:|      0 [L-DBG1][Init]HF task : 400Hz @ mode2|      0 [L-DBG1][Init]LF task : 50Hz @ mode0|      0 [L-DBG1][Init]Tail: 400Hz Atti: 200Hz|      0 [L-DBG1][Init]Init ok:|      0 [L-DBG1][Init]MF task : 200Hz @ mode4|      0 [L-USER][USER]Read user config!|      0 [L-USER][USER]Read statistical info!|      0 [L-USER][USER]Read statistical info!|{root}INFO:reset by power.|||{root}INFO:iwdg_set_time_out time_out(0x00000a23)!|{root}INFO:wdg_set_swdg_time_out time_out(2595) set g_swdg_timeout_max(480) |||{root}INFO:watchdog enable.|||      0 [L-SENSOR][ASR]ASR sync start(start).phase lead = 0|      0 [L-GPS]<GPS INFO>m8_poll_uniqid gps[0][0]|      0 [L-GPS]<GPS ERROR>m8 uid not received!|      0 [L-SDK][USER] Init_dji_api_protocol start!|||      0 [L-SDK][USER] Baud_rate: 921600 |||      0 [L-SDK][USER]----------start sdk protocol ---------|||      0 [L-CTRL]horiz vel complement filter fc:0.300000|      0 [L-CTRL]vert vel complement filter fc:0.300000|      0 [L-NS][AHRS] baro abp : 0.100000|      0 [L-NS][AHRS] baro a   : 0.998000|      0 [L-NS][AHRS] baro v   : 0.620000|      0 [L-NS][AHRS] baro p   : 0.680000|      0 [L-NS][AHRS] mag_gain: 100|      0 [L-NS][AHRS]  fs_gnss_hp        :  1|      0 [L-NS][AHRS]  fs_gnss_hv        :  1|      0 [L-NS][AHRS]  fs_gnss_vp        :  1|      0 [L-NS][AHRS]  fs_vodm_hp        :  1|      0 [L-NS][AHRS]  fs_vodm_hv        :  1|      0 [L-NS][AHRS]  fs_vodm_vp        :  1|      0 [L-NS][AHRS]  fs_vodm_vv        :  1|      0 [L-NS][AHRS]  fs_vodm_vh        :  1|      0 [L-NS][AHRS]  fs_usnc_vp        :  1|      0 [L-NS][AHRS]  fs_baro_vp        :  1|      0 [L-NS][AHRS]  fs_magn_yaw       :  1|      0 [L-NS][AHRS]  dlt_gnss_hp       : 35|      0 [L-NS][AHRS]  dlt_gnss_hv       : 55|      0 [L-NS][AHRS]  dlt_gnss_vp       : 35|      0 [L-NS][AHRS]  dlt_gnss_vv       : 55|      0 [L-NS][AHRS]  dlt_vodm_hp       :  4|      0 [L-NS][AHRS]  dlt_vodm_hv       :  4|      0 [L-NS][AHRS]  dlt_vodm_vp       :  4|      0 [L-NS][AHRS]  dlt_vodm_vv       :  4|      0 [L-NS][AHRS]  dlt_vodm_vh       :  4|      0 [L-NS][AHRS]  dlt_rtks_hp_p     : 60|      0 [L-NS][AHRS]  dlt_rtks_hp_s     : 60|      0 [L-NS][AHRS]  dlt_rtks_hv       : 60|      0 [L-NS][AHRS]  dlt_rtks_vp_p     : 40|      0 [L-NS][AHRS]  dlt_rtks_vp_s     : 60|      0 [L-NS][AHRS]  dlt_rtks_vv       : 60|      0 [L-NS][AHRS]  dlt_rtks_yaw      : 60|      0 [L-NS][AHRS]  dlt_magn_yaw      :  5|      0 [L-NS][AHRS]  thermostatic_temp : 65|      0 [L-NS][AHRS]  ground_effect_ht  : 50|      0 [L-NS][AHRS] Rgps:0.000.0.000.-0.030|||      0 [L-NS][AHRS] Rimu:0.023.0.013.-0.014|||      0 [L-NS][AHRS]version: V3_20161218_[09],,,,,,,,P,,,,,,,,,,,,,,,,,,,,,,,,,,,,,,,,,,,,,
23001852,5.112,,,0.0,-0.0,,,0,NaN,0.0,0.0,-0.07659651,-0.0051657255,-0.29460317,0.30444166,0.11868816,0.7363502,-0.41799262,0.85499495,0.0,0.0,0.0,0.0,0.0,316,-83,444,551.0,0.0,0.0,NaN,NaN,NaN,0.0,NaN,NaN,0.0,0.0,0.0,-0.0,NaN,NaN,NaN,NaN,NaN,NaN,NaN,NaN,false,false,-0.0036241191799533112,0.001243500861482616,0.004670071660910935,,0.0,,,0.0,0.0,0.0,0.0,0.0,0.0,0.0,0.0,0.0,0.0,0,0,0,0,7,0.0,0.0,,,,,99.99,99.99,3.75E7,0,0,0,,,,0,0,0,0,0,0,0,Manual,0,0,0,0,0,100,5000,0.0,0.0,0,5,0,0,0,0,0,0,0,0,0,0.0,0.0,0.0,,,,,,,,,,,,,,,,316,-83,444,551.0,NaN,209,-126,395,464.0,NaN,305,-80,428,201,-121,381,,,,,,,,,,,,,,,,,,,,,,,,,,,,,,,,,,,,,,,,0.0,,,,,,,,,,,,,,,,,,,,,,,,,,,,,,,,,,0.0,0.0,0.0,0.0,0.0,180.0,0.0,0.0,0.0,0,,,,,,,,,P,,,,,,,,,0.0,0.0,0.0,0.0,NaN,NaN,NaN,0.0,0.0,0.0,0,0,0,,,,,,,,,,,,,,,,
23229017,5.162,,,0.0,-0.0,,,0,NaN,0.0,0.0,-0.18240514,0.012560195,-0.96956956,0.9866583,0.50424325,0.036564216,-0.25319389,0.5654249,0.0,0.0,0.0,0.0,0.0,604,-106,1366,1497.0,24.83,0.0,NaN,NaN,NaN,0.0,NaN,NaN,0.0,0.0,0.0,-0.0,NaN,NaN,NaN,NaN,NaN,NaN,NaN,NaN,false,false,-0.134437525054814,-0.06902103813903082,0.11432438097681796,,0.0,,,0.0,0.0,0.0,0.0,0.0,0.0,0.0,0.0,0.0,0.0,-2200,2234,0,0,141,0.0,0.0,,,,,99.99,99.99,3.75E7,0,0,0,,,,20130901,0,16,0,0,0,0,Manual,0,0,0,0,0,30,50,0.0,0.0,0,5,0,0,0,0,0,0,0,0,0,0.0,0.0,0.0,Hover,,lost,0.0,0,0,0,0,0,0,0,0,0,1,0,604,-106,1366,1497.0,NaN,819,-426,1409,1684.0,NaN,315,-85,443,207,-127,397,,,,,,,,,,,,,,,,,,,,,,,,,,,,,,,,,,,,,,,,0.0,,,,,,,,,,,,,,,,,,,,,,,,,,,,,,,,,,0.0,0.0,0.0,0.0,0.0,180.0,0.0,0.0,0.0,0,{task_sd}INFO:dyn_map_mem_init input:0x204101f0.0x20411ae8.0x800.|||{task_sd}INFO:dyn_map_mem_init ok:0x20411ae8.0x20.0x40.|||     16 [L-GPS]<GPS ERROR>[0][0] frequency error 110,,,,,,,,P,,,,,,,,,0.0,0.0,0.0,0.0,NaN,NaN,NaN,0.0,0.0,0.0,0,0,0,13224,0,0.0,0.0,0,0,0,0,0,1,0,0,0,0.0,0.0,
23454317,5.212,,,0.0,-0.0,,,0,NaN,0.0,0.0,-0.18303071,0.012492497,-0.96971184,0.986913,0.11410525,-0.4983046,-0.7303031,0.8914427,0.0,0.0,0.0,0.0,0.0,600,-106,1360,1490.0,24.85,0.0,NaN,NaN,NaN,0.0,NaN,NaN,0.0,0.0,0.0,-0.0,NaN,NaN,NaN,NaN,NaN,NaN,NaN,NaN,false,false,-0.1551944545609132,-0.07561571853890214,0.10906905328448957,,0.0,,,0.0,0.0,0.0,0.0,0.0,0.0,0.0,0.0,0.0,0.0,-2200,2234,0,0,161,0.0,0.0,,,,,99.99,99.99,3.75E7,0,0,0,,,,20130901,0,19,0,0,0,0,Manual,0,0,0,0,0,30,50,0.0,0.0,0,5,0,0,0,0,0,0,0,0,0,0.0,0.0,0.0,Hover,,lost,0.0,0,0,0,0,0,0,0,0,0,1,0,600,-106,1360,1490.0,NaN,823,-423,1409,1685.0,NaN,316,-85,442,206,-127,396,,,,,,,,,,,,,,,,,,,,,,,,,,,,,,,,,,,,,,,,0.0,,,,,,,,,,,,,,,,,,,,,,,,,,,,,,,,,,0.0,0.0,0.0,0.0,0.0,180.0,0.0,0.0,0.0,0,,Manual,OTHER,NONE,GPS_POSITION_NONMATCH,True,DisConnected,,P,False,False,False,0,0,,0.0,,0.0,0.0,0.0,0.0,NaN,NaN,NaN,0.0,0.0,0.0,0,0,0,14011,0,0.0,0.0,0,0,0,0,0,1,0,0,0,0.0,0.0,
23679932,5.262,,,0.0,-0.0,,,0,NaN,0.0,0.0,-0.182536,0.0080368435,-0.9694043,0.98647285,-0.44992557,-0.5088168,-1.4592667,1.6095921,0.0,0.0,0.0,0.0,0.0,597,-104,1369,1497.0,24.85,0.0,NaN,NaN,NaN,0.0,NaN,NaN,0.0,0.0,0.0,-0.0,NaN,NaN,NaN,NaN,NaN,NaN,NaN,NaN,false,false,-0.18096256347276274,-0.0872146719375042,0.09550826726497874,,0.0,,,0.0,0.0,0.0,0.0,0.0,0.0,0.0,0.0,0.0,0.0,-2200,2237,0,0,181,0.0,0.0,,,,,99.99,99.99,3.75E7,0,0,0,,,,20130901,0,21,0,0,0,0,Manual,0,0,0,0,0,30,50,0.0,0.0,0,5,0,0,0,0,0,0,0,0,0,0.0,0.0,0.0,Hover,,lost,0.0,0,0,0,0,0,0,0,0,0,1,0,597,-104,1369,1497.0,NaN,816,-423,1409,1682.0,NaN,315,-83,445,207,-125,397,,,,,,,,,,,,,,,,,,,,,,,,,,,,,,,,,,,,,,,,0.0,,,,,,,,,,,,,,,,,,,,,,,,,,,,,,,,,,0.0,0.0,0.0,0.0,0.0,180.0,0.0,0.0,0.0,0,,Manual,OTHER,NONE,GPS_POSITION_NONMATCH,True,DisConnected,,P,False,False,False,0,0,,0.0,,0.0,0.0,0.0,0.0,NaN,NaN,NaN,0.0,0.0,0.0,0,0,0,14394,0,0.0,0.0,0,0,0,0,0,1,0,0,0,0.0,0.0,
23904959,5.312,,,-68.64868,-0.0,,,0,NaN,0.0,0.0,-0.18440169,0.010015583,-0.9710699,0.9884741,0.0032997685,0.14869596,-0.29606518,0.33132458,0.0,0.0,0.0,0.0,0.0,600,-98,1366,1495.0,24.86,0.0,NaN,NaN,NaN,0.0,NaN,NaN,0.0,0.0,0.0,-0.0,NaN,NaN,NaN,NaN,NaN,NaN,NaN,NaN,false,false,-0.20526671840227806,-0.09509726385967177,0.09340353676651958,,0.0,,,0.0,0.0,0.0,0.0,0.0,0.0,0.0,0.0,0.0,0.0,-2200,2237,0,0,201,0.0,0.0,,,,,99.99,99.99,3.75E7,0,0,0,,,,20130901,0,24,0,0,0,0,Manual,0,0,0,0,0,30,50,0.0,0.0,0,5,0,0,0,0,0,0,0,0,0,0.0,0.0,0.0,Hover,,lost,0.0,0,0,0,0,0,0,0,0,0,1,0,600,-98,1366,1495.0,NaN,823,-432,1406,1685.0,NaN,316,-82,443,208,-127,395,,,,,,,,,,,,,,,,,,,,,,,,,,,,,,,,,,,,,,,,0.0,,,,,,,,,,,,,,,,,,,,,,,,,,,,,,,,,,0.0,0.0,0.0,0.0,0.0,180.0,0.0,0.0,0.0,0,     25 [L-SENSOR][baro(0)] connect,Manual,OTHER,NONE,GPS_POSITION_NONMATCH,True,DisConnected,,P,False,False,False,0,0,,0.0,,0.0,0.0,0.0,0.0,NaN,NaN,NaN,0.0,0.0,0.0,0,0,0,14817,0,0.0,0.0,0,0,0,0,0,1,0,0,0,0.0,0.0,
24131164,5.362,,,-68.61934,-0.0,,,0,NaN,0.0,0.0,-0.18268241,0.007605073,-0.9706532,0.98772377,-0.114271894,0.02207201,-0.080686115,0.1416174,0.0,0.0,0.0,0.0,0.0,591,-101,1369,1494.0,24.86,0.0,NaN,NaN,NaN,0.0,NaN,NaN,0.0,0.0,0.0,-0.0,NaN,NaN,NaN,NaN,NaN,NaN,NaN,NaN,false,false,-0.22664673298915972,-0.10534203335730585,0.08459637439267631,,0.0,,,0.0,0.0,0.0,0.0,0.0,0.0,0.0,0.0,0.0,0.0,-2200,2240,0,0,221,0.0,0.0,,,,,99.99,99.99,3.75E7,0,0,0,,,,20130901,0,26,0,0,0,0,Manual,0,0,0,0,0,30,50,0.0,0.0,0,5,0,0,0,0,0,0,0,0,0,0.0,0.0,0.0,Hover,,lost,0.0,0,0,0,0,0,0,0,0,0,1,0,591,-101,1369,1494.0,NaN,823,-420,1403,1679.0,NaN,314,-83,445,209,-125,395,,,,,,,,,,,,,,,,,,,,,,,,,,,,,,,,,,,,,,,,0.0,,,,,,,,,,,,,,,,,,,,,,,,,,,,,,,,,,0.0,0.0,0.0,0.0,0.0,180.0,0.0,0.0,0.0,0,     25 [L-SENSOR][baro(0)] reset filter: 102.1 fc: 30.0 hz 30.0 30.0 1,Manual,OTHER,NONE,GPS_POSITION_NONMATCH,True,DisConnected,,P,False,False,False,0,0,,0.0,,0.0,0.0,0.0,0.0,NaN,NaN,NaN,0.0,0.0,0.0,0,0,0,15024,0,0.0,0.0,0,0,0,0,0,1,0,0,0,0.0,0.0,
24356166,5.412,,,-69.0197,-0.0,,,0,NaN,0.0,0.0,-0.18436672,0.009597226,-0.96863973,0.9860761,-0.22318937,-0.08384492,-0.64040536,0.6833465,0.0,0.0,0.0,0.0,0.0,600,-106,1363,1492.0,24.89,0.0,NaN,NaN,NaN,0.0,NaN,NaN,0.0,0.0,0.0,-0.0,NaN,NaN,NaN,NaN,NaN,NaN,NaN,NaN,false,false,-0.24880412998079215,-0.11304919494857768,0.08225942822724708,,0.0,,,0.0,0.0,0.0,0.0,0.0,0.0,0.0,0.0,0.0,0.0,-2200,2240,0,0,241,0.0,0.0,,,,,99.99,99.99,3.75E7,0,0,0,,,,20130901,0,29,0,0,0,0,Manual,0,0,0,0,0,30,50,0.0,0.0,0,5,0,0,0,0,0,0,0,0,0,0.0,0.0,0.0,Hover,,lost,0.0,0,0,0,0,0,0,0,0,0,1,0,600,-106,1363,1492.0,NaN,819,-426,1406,1681.0,NaN,316,-84,443,207,-125,396,,,,,,,,,,,,,,,,,,,,,,,,,,,,,,,,,,,,,,,,0.0,,,,,,,,,,,,,,,,,,,,,,,,,,,,,,,,,,0.0,0.0,0.0,0.0,0.0,180.0,0.0,0.0,0.0,0,,Manual,OTHER,NONE,GPS_POSITION_NONMATCH,True,DisConnected,,P,False,False,False,0,0,,0.0,,0.0,0.0,0.0,0.0,NaN,NaN,NaN,0.0,0.0,0.0,0,0,0,15254,0,0.0,0.0,0,0,0,0,0,1,0,0,0,0.0,0.0,
24581166,5.462,,,-69.47564,-0.0,,,0,NaN,0.0,0.0,-0.18180871,0.0067478763,-0.96965706,0.98657733,-0.25451967,-0.2490391,-0.38530466,0.5246527,0.0,0.0,0.0,0.0,0.0,607,-106,1363,1495.0,24.9,0.0,NaN,NaN,NaN,0.0,NaN,NaN,0.0,0.0,0.0,-0.0,NaN,NaN,NaN,NaN,NaN,NaN,NaN,NaN,false,false,-0.2714793962976838,-0.12307462742047659,0.08160109772543955,,0.0,,,0.0,0.0,0.0,0.0,0.0,0.0,0.0,0.0,0.0,0.0,-2200,2241,0,0,261,0.0,0.0,,,,,99.99,99.99,3.75E7,0,0,0,,,,20130901,0,31,0,0,0,0,Manual,0,0,0,0,0,30,50,0.0,0.0,0,5,0,0,0,0,0,0,0,0,0,0.0,0.0,0.0,Hover,,lost,0.0,0,0,0,0,0,0,0,0,0,1,0,607,-106,1363,1495.0,NaN,819,-432,1406,1683.0,NaN,316,-84,443,208,-129,395,,,,,,,,,,,,,,,,,,,,,,,,,,,,,,,,,,,,,,,,0.0,,,,,,,,,,,,,,,,,,,,,,,,,,,,,,,,,,0.0,0.0,0.0,0.0,0.0,180.0,0.0,0.0,0.0,0,,Manual,OTHER,NONE,GPS_POSITION_NONMATCH,True,DisConnected,,P,False,False,False,0,0,,0.0,,0.0,0.0,0.0,0.0,NaN,NaN,NaN,0.0,0.0,0.0,0,0,0,15369,0,0.0,0.0,0,0,0,0,0,1,0,0,0,0.0,0.0,
24806166,5.512,,,-68.81218,-0.0,,,0,NaN,0.0,0.0,-0.18348715,0.010673641,-0.96829116,0.9855807,-0.028239604,-0.25876138,-0.53363144,0.5937318,0.0,0.0,0.0,0.0,0.0,597,-106,1369,1497.0,24.92,0.0,NaN,NaN,NaN,0.0,NaN,NaN,0.0,0.0,0.0,-0.0,NaN,NaN,NaN,NaN,NaN,NaN,NaN,NaN,false,false,-0.2926688627997418,-0.1310439828123331,0.06814812975953566,,0.0,,,0.0,0.0,0.0,0.0,0.0,0.0,0.0,0.0,0.0,0.0,-2200,2241,0,0,281,0.0,0.0,,,,,99.99,99.99,3.75E7,0,0,0,,,,20130901,0,34,0,0,0,0,Manual,0,0,0,0,0,30,50,0.0,0.0,0,5,0,0,0,0,0,0,0,0,0,0.0,0.0,0.0,Hover,,lost,0.0,0,0,0,0,0,0,0,0,0,1,0,597,-106,1369,1497.0,NaN,819,-426,1403,1679.0,NaN,314,-84,444,208,-127,397,,,,,,,,,,,,,,,,,,,,,,,,,,,,,,,,,,,,,,,,0.0,,,,,,,,,,,,,,,,,,,,,,,,,,,,,,,,,,0.0,0.0,0.0,0.0,0.0,180.0,0.0,0.0,0.0,0,,Manual,OTHER,NONE,GPS_POSITION_NONMATCH,True,DisConnected,,P,False,False,False,0,0,,0.0,,0.0,0.0,0.0,0.0,NaN,NaN,NaN,0.0,0.0,0.0,0,0,0,15496,0,0.0,0.0,0,0,0,0,0,1,0,0,0,0.0,0.0,
25031334,5.563,,,-69.30216,-0.0,,,0,NaN,0.0,0.0,-0.1835922,0.0059362752,-0.9716387,0.98884934,-0.3195271,-0.17347352,-0.48833537,0.6088202,0.0,0.0,0.0,0.0,0.0,600,-106,1369,1498.0,24.92,0.0,NaN,NaN,NaN,0.0,NaN,NaN,0.0,0.0,0.0,-0.0,NaN,NaN,NaN,NaN,NaN,NaN,NaN,NaN,false,false,-0.3144361053382436,-0.13891928380660068,0.0610305510986644,,0.0,,,0.0,0.0,0.0,0.0,0.0,0.0,0.0,0.0,0.0,0.0,-2200,2243,0,0,301,0.0,0.0,,,,,99.99,99.99,3.75E7,0,0,0,,,,20130901,0,36,0,0,0,0,Manual,0,0,0,0,0,30,50,0.0,0.0,0,5,0,0,0,0,0,0,0,0,0,0.0,0.0,0.0,Hover,,lost,100.0,0,0,0,0,0,0,0,0,0,1,0,600,-106,1369,1498.0,NaN,826,-429,1403,1683.0,NaN,314,-84,444,209,-127,394,,,,,,,,,,,,,,,,,,,,,,,,,,,,,,,,,,,,,,,,0.0,,,,,,,,,,,,,,,,,,,,,,,,,,,,,,,,,,0.0,0.0,0.0,0.0,0.0,180.0,0.0,0.0,0.0,0,,Manual,OTHER,NONE,GPS_POSITION_NONMATCH,True,DisConnected,,P,False,False,False,0,0,,0.0,,0.0,0.0,0.0,0.0,NaN,NaN,NaN,0.0,0.0,0.0,0,0,0,15558,0,29.040546,0.0,15725,-1446,0,67,23,1,3939,0,0,0.0,0.0,
25256344,5.613,,,-69.1135,-0.0,,,0,NaN,0.0,0.0,-0.18240525,0.0085521415,-0.9682985,0.98536634,-0.2881207,-0.110288665,-0.5378687,0.6200644,0.0,0.0,0.0,0.0,0.0,604,-106,1363,1494.0,24.9,0.0,NaN,NaN,NaN,0.0,NaN,NaN,0.0,0.0,0.0,-0.0,NaN,NaN,NaN,NaN,NaN,NaN,NaN,NaN,false,false,-0.33736612564243806,-0.15405053499476629,0.054941182222445706,,0.0,,,0.0,0.0,0.0,0.0,0.0,0.0,0.0,0.0,0.0,0.0,-2200,2243,0,0,321,0.0,0.0,,,,,99.99,99.99,3.75E7,0,0,0,,,,20130901,0,39,0,0,0,0,Manual,0,0,0,0,0,30,50,0.0,0.0,0,5,0,0,0,0,0,0,0,0,0,0.0,0.0,0.0,Hover,,lost,100.0,0,0,0,0,0,0,0,0,0,1,0,604,-106,1363,1494.0,NaN,819,-423,1403,1678.0,NaN,316,-85,443,209,-127,396,,,,,,,,,,,,,,,,,,,,,,,,,,,,,,,,,,,,,,,,0.0,,,,,,,,,,,,,,,,,,,,,,,,,,,,,,,,,,0.0,0.0,0.0,0.0,0.0,180.0,0.0,0.0,0.0,0,,Manual,OTHER,NONE,GPS_POSITION_NONMATCH,True,DisConnected,,P,False,False,False,0,0,,0.0,,0.0,0.0,0.0,0.0,NaN,NaN,NaN,0.0,0.0,0.0,0,0,0,15627,0,29.040546,12720.0,15725,-1446,0,67,23,1,3939,0,0,0.0,0.0,
25483382,5.663,,,-69.49188,-0.0,,,0,NaN,0.0,0.0,-0.18250753,0.008479492,-0.968302,0.9853881,-0.2029902,-0.1634333,-0.31720206,0.41052723,0.0,0.0,0.0,0.0,0.0,597,-104,1369,1497.0,24.91,0.0,NaN,NaN,NaN,0.0,NaN,NaN,0.0,0.0,0.0,-0.0,NaN,NaN,NaN,NaN,NaN,NaN,NaN,NaN,false,false,-0.3594709797036071,-0.15952931435205797,0.04716704371784286,,0.0,,,0.0,0.0,0.0,0.0,0.0,0.0,0.0,0.0,0.0,0.0,-2200,2244,0,0,341,0.0,0.0,,,,,99.99,99.99,3.75E7,0,0,0,,,,20130901,0,41,0,0,0,0,Manual,0,0,0,0,0,30,50,0.0,0.0,0,5,0,0,0,0,0,0,0,0,0,0.0,0.0,0.0,Hover,,lost,100.0,0,0,0,0,0,0,0,0,0,1,0,597,-104,1369,1497.0,NaN,819,-418,1406,1679.0,NaN,315,-84,445,207,-123,395,,,,,,,,,,,,,,,,,,,,,,,,,,,,,,,,,,,,,,,,0.0,,,,,,,,,,,,,,,,,,,,,,,,,,,,,,,,,,0.0,0.0,0.0,0.0,0.0,180.0,0.0,0.0,0.0,0,,Manual,OTHER,NONE,GPS_POSITION_NONMATCH,True,DisConnected,,P,False,False,False,0,0,,0.0,,0.0,0.0,0.0,0.0,NaN,NaN,NaN,0.0,0.0,0.0,0,0,0,15660,0,29.040546,12720.0,15725,-1446,0,67,23,1,3939,0,0,0.0,0.0,
25708550,5.713,,,-69.00712,-0.0,,,0,NaN,0.0,0.0,-0.18369628,0.00835359,-0.97142476,0.98867595,-0.076149,-0.016122328,-0.13455346,0.15544528,0.0,0.0,0.0,0.0,0.0,604,-109,1369,1500.0,24.94,0.0,NaN,NaN,NaN,0.0,NaN,NaN,0.0,0.0,0.0,-0.0,NaN,NaN,NaN,NaN,NaN,NaN,NaN,NaN,false,false,-0.3804619441861856,-0.17029729321205322,0.03684252234804153,,0.0,,,0.0,0.0,0.0,0.0,0.0,0.0,0.0,0.0,0.0,0.0,-2200,2244,0,0,361,0.0,0.0,,,,,99.99,99.99,3.75E7,0,0,0,,,,20130901,0,44,0,0,0,0,Manual,0,0,0,0,0,30,50,0.0,0.0,0,5,0,0,0,0,0,0,0,0,0,0.0,0.0,0.0,Hover,,lost,100.0,0,0,0,0,0,0,0,0,0,1,0,604,-109,1369,1500.0,NaN,823,-418,1400,1676.0,NaN,317,-85,444,208,-124,393,,,,,,,,,,,,,,,,,,,,,,,,,,,,,,,,,,,,,,,,0.0,,,,,,,,,,,,,,,,,,,,,,,,,,,,,,,,,,0.0,0.0,0.0,0.0,0.0,180.0,0.0,0.0,0.0,0,,Manual,OTHER,NONE,GPS_POSITION_NONMATCH,True,DisConnected,,P,False,False,False,0,0,,0.0,,0.0,0.0,0.0,0.0,NaN,NaN,NaN,0.0,0.0,0.0,0,0,0,15696,0,29.040546,12720.0,15725,-1446,0,67,23,1,3939,0,0,0.0,0.0,
25935639,5.763,,,-69.3074,-0.0,,,0,NaN,0.0,0.0,-0.18292172,0.008595072,-0.9697105,0.9868499,-0.03510061,-0.16437514,-0.54900354,0.5741569,0.0,0.0,0.0,0.0,0.0,597,-106,1369,1497.0,24.97,0.0,NaN,NaN,NaN,0.0,NaN,NaN,0.0,0.0,0.0,-0.0,NaN,NaN,NaN,NaN,NaN,NaN,NaN,NaN,false,false,-0.4020627589271637,-0.17819916019428894,0.031059977379545467,,0.0,,,0.0,0.0,0.0,0.0,0.0,0.0,0.0,0.0,0.0,0.0,-2200,2245,0,0,381,0.0,0.0,,,,,99.99,99.99,3.75E7,0,0,0,,,,20130901,0,46,0,0,0,0,Manual,0,0,0,0,0,30,50,0.0,0.0,0,5,0,0,0,0,0,0,0,0,0,0.0,0.0,0.0,Hover,,lost,100.0,0,0,0,0,0,0,0,0,0,1,0,597,-106,1369,1497.0,NaN,819,-423,1406,1681.0,NaN,314,-83,444,208,-125,396,,,,,,,,,,,,,,,,,,,,,,,,,,,,,,,,,,,,,,,,0.0,,,,,,,,,,,,,,,,,,,,,,,,,,,,,,,,,,0.0,0.0,0.0,0.0,0.0,180.0,0.0,0.0,0.0,0,,Manual,OTHER,NONE,GPS_POSITION_NONMATCH,True,DisConnected,,P,False,False,False,0,0,,0.0,,0.0,0.0,0.0,0.0,NaN,NaN,NaN,0.0,0.0,0.0,0,0,0,15712,0,29.040546,12720.0,15725,-1446,0,67,23,1,3939,0,0,0.0,0.0,
26160644,5.813,,,-69.192116,-0.0,,,0,NaN,0.0,0.0,-0.18334629,0.008005309,-0.9705427,0.9877414,-0.32262886,-0.26313996,-0.52614284,0.6709384,0.0,0.0,0.0,0.0,0.0,597,-104,1366,1494.0,25.0,0.0,NaN,NaN,NaN,0.0,NaN,NaN,0.0,0.0,0.0,-0.0,NaN,NaN,NaN,NaN,NaN,NaN,NaN,NaN,false,false,-0.42515676977385475,-0.18738014506110878,0.022119459618321763,,0.0,,,0.0,0.0,0.0,0.0,0.0,0.0,0.0,0.0,0.0,0.0,-2200,2245,0,0,401,0.0,0.0,,,,,99.99,99.99,3.75E7,0,0,0,,,,20130901,0,49,0,0,0,0,Manual,0,0,0,0,0,30,50,0.0,0.0,0,5,0,0,0,0,0,0,0,0,0,0.0,0.0,0.0,Hover,,lost,100.0,0,0,0,0,0,0,0,0,0,1,0,597,-104,1366,1494.0,NaN,823,-423,1406,1683.0,NaN,315,-84,444,209,-125,395,,,,,,,,,,,,,,,,,,,,,,,,,,,,,,,,,,,,,,,,0.0,,,,,,,,,,,,,,,,,,,,,,,,,,,,,,,,,,0.0,0.0,0.0,0.0,0.0,180.0,0.0,0.0,0.0,0,     49 [L-GYRO_ACC]GYRO(0) fdi event:turn on|     49 [L-GYRO_ACC]ACC(0) fdi event:turn on|     49 [L-GYRO_ACC]GYRO(1) fdi event:turn on|     49 [L-GYRO_ACC]ACC(1) fdi event:turn on|     50 [L-COMPASS]index(0) fdi event:turn on|     50 [L-COMPASS]index(1) fdi event:turn on|     50 [L-FDI][BARO(0)] event:turn on|     50 [L-GYRO_ACC][mark] sa(0) regi ok. dtype(8) sid(0) g_uid(0) l_did(3) l_uid(0) l_dindex(|     50 [L-GYRO_ACC][mark] fmu_gyr_acc get register ack. succeed. global_user_id(0)|     50 [L-GYRO_ACC][mark] sa(1) regi ok. dtype(8) sid(0) g_uid(1) l_did(4) l_uid(1) l_dindex(|     50 [L-GYRO_ACC][mark] fmu_gyr_acc get register ack. succeed. global_user_id(1),Manual,OTHER,NONE,GPS_POSITION_NONMATCH,True,DisConnected,,P,False,False,False,0,0,,0.0,,0.0,0.0,0.0,0.0,NaN,NaN,NaN,0.0,0.0,0.0,0,0,0,15729,0,29.040546,12720.0,15725,-1446,0,67,23,1,3939,0,0,0.0,0.0,
26385645,5.863,,,-69.17062,-0.0,,,0,NaN,0.0,0.0,-0.18266983,0.008832947,-0.96846884,0.9855852,-0.02986775,-0.048050206,-0.29005283,0.2955191,0.0,0.0,0.0,0.0,0.0,600,-98,1375,1503.0,25.02,0.0,NaN,NaN,NaN,0.0,NaN,NaN,0.0,0.0,0.0,-0.0,NaN,NaN,NaN,NaN,NaN,NaN,NaN,NaN,false,false,-0.445990075189469,-0.19469516382211505,0.016282540965726483,,0.0,,,0.0,0.0,0.0,0.0,0.0,0.0,0.0,0.0,0.0,0.0,-2200,2247,0,0,421,0.0,0.0,,,,,99.99,99.99,3.75E7,0,0,0,,,,20130901,0,51,0,0,0,0,Manual,0,0,0,0,0,30,50,0.0,0.0,0,5,0,0,0,0,0,0,0,0,0,0.0,0.0,0.0,Hover,,lost,100.0,0,0,0,0,0,0,0,0,0,1,0,600,-98,1375,1503.0,NaN,826,-423,1403,1682.0,NaN,314,-83,445,209,-125,395,,,,,,,,,,,,,,,,,,,,,,,,,,,,,,,,,,,,,,,,0.0,,,,,,,,,,,,,,,,,,,,,,,,,,,,,,,,,,0.0,0.0,0.0,0.0,0.0,180.0,0.0,0.0,0.0,0,     51 [L-FDI]NS(0): init fdi turn on|     51 [L-FDI]NS(0): init: wait_static,Manual,OTHER,NONE,GPS_POSITION_NONMATCH,True,DisConnected,,P,False,False,False,0,0,,0.0,,0.0,0.0,0.0,0.0,NaN,NaN,NaN,0.0,0.0,0.0,0,0,0,15733,0,29.040546,12720.0,15725,-1446,0,67,23,1,3939,0,0,0.0,0.0,
26610675,5.913,,,-69.224075,-0.0,,,0,NaN,0.0,0.0,-0.18314727,0.008081293,-0.96962494,0.9868033,-0.1088416,-0.25995508,-0.48864043,0.56408566,0.0,0.0,0.0,0.0,0.0,597,-106,1366,1494.0,25.06,0.0,NaN,NaN,NaN,0.0,NaN,NaN,0.0,0.0,0.0,-0.0,NaN,NaN,NaN,NaN,NaN,NaN,NaN,NaN,false,false,-0.4678409961584986,-0.20350391763256925,0.009110490165812252,,0.0,,,0.0,0.0,0.0,0.0,0.0,0.0,0.0,0.0,0.0,0.0,-2200,2247,0,0,441,0.0,0.0,,,,,99.99,99.99,3.75E7,0,0,0,,,,20130901,0,54,0,0,0,0,Manual,0,0,0,0,0,30,50,0.0,0.0,0,5,0,0,0,0,0,0,0,0,0,0.0,0.0,0.0,Hover,,lost,100.0,0,0,0,0,0,0,0,0,0,1,0,597,-106,1366,1494.0,NaN,826,-426,1403,1682.0,NaN,314,-85,443,209,-126,395,,,,,,,,,,,,,,,,,,,,,,,,,,,,,,,,,,,,,,,,0.0,,,,,,,,,,,,,,,,,,,,,,,,,,,,,,,,,,0.0,0.0,0.0,0.0,0.0,180.0,0.0,0.0,0.0,0,,Manual,OTHER,NONE,GPS_POSITION_NONMATCH,False,DisConnected,,P,False,False,False,0,0,,0.0,,0.0,0.0,0.0,0.0,NaN,NaN,NaN,0.0,0.0,0.0,0,0,0,15744,0,29.040546,12720.0,15725,-1446,0,67,23,1,3939,0,0,0.0,0.0,
26835811,5.964,,,-69.53957,-0.0,,,0,NaN,0.0,0.0,-0.1838172,0.008672079,-0.9711607,0.98844177,-0.14874704,-0.1597018,-0.6864324,0.7202915,0.0,0.0,0.0,0.0,0.0,600,-104,1369,1498.0,25.03,0.0,NaN,NaN,NaN,0.0,NaN,NaN,0.0,0.0,0.0,-0.0,NaN,NaN,NaN,NaN,NaN,NaN,NaN,NaN,false,false,-0.4889349148284037,-0.21143915058406537,0.0028299305834794952,,0.0,,,0.0,0.0,0.0,0.0,0.0,0.0,0.0,0.0,0.0,0.0,-2200,2247,0,0,461,0.0,0.0,,,,,99.99,99.99,3.75E7,0,0,0,,,,20130901,0,56,0,0,0,0,Manual,0,0,0,0,0,30,50,0.0,0.0,0,5,0,0,0,0,0,0,0,0,0,0.0,0.0,0.0,Hover,,lost,100.0,0,0,0,0,0,0,0,0,0,1,0,600,-104,1369,1498.0,NaN,823,-426,1406,1683.0,NaN,317,-83,445,209,-126,396,,,,,,,,,,,,,,,,,,,,,,,,,,,,,,,,,,,,,,,,0.0,,,,,,,,,,,,,,,,,,,,,,,,,,,,,,,,,,0.0,0.0,0.0,0.0,0.0,180.0,0.0,0.0,0.0,0,,Manual,OTHER,NONE,GPS_POSITION_NONMATCH,False,DisConnected,,P,False,False,False,0,0,,0.0,,0.0,0.0,0.0,0.0,NaN,NaN,NaN,0.0,0.0,0.0,0,0,0,15747,0,29.040546,12720.0,15725,-1446,0,67,23,1,3939,0,0,0.0,0.0,
27060830,6.014,,,-69.55372,-0.0,,,0,NaN,0.0,0.0,-0.1822998,0.007154847,-0.97053665,0.98753524,-0.34721577,-0.14453512,-0.4270315,0.56903875,0.0,0.0,0.0,0.0,0.0,597,-106,1369,1497.0,25.07,0.0,NaN,NaN,NaN,0.0,NaN,NaN,0.0,0.0,0.0,-0.0,NaN,NaN,NaN,NaN,NaN,NaN,NaN,NaN,false,false,-0.5130594455837834,-0.22133151786144256,-0.0040282108892041035,,0.0,,,0.0,0.0,0.0,0.0,0.0,0.0,0.0,0.0,0.0,0.0,-2200,2247,0,0,481,0.0,0.0,,,,,99.99,99.99,3.75E7,0,0,0,,,,20130901,0,59,0,0,0,0,Manual,0,0,0,0,0,30,50,0.0,0.0,0,5,0,0,0,0,0,0,0,0,0,0.0,0.0,0.0,Hover,,lost,100.0,0,0,0,0,0,0,0,0,0,1,0,597,-106,1369,1497.0,NaN,823,-426,1406,1683.0,NaN,315,-84,445,208,-126,395,,,,,,,,,,,,,,,,,,,,,,,,,,,,,,,,,,,,,,,,0.0,,,,,,,,,,,,,,,,,,,,,,,,,,,,,,,,,,0.0,0.0,0.0,0.0,0.0,180.0,0.0,0.0,0.0,0,,Manual,OTHER,NONE,GPS_POSITION_NONMATCH,False,DisConnected,,P,False,False,False,0,0,,0.0,,0.0,0.0,0.0,0.0,NaN,NaN,NaN,0.0,0.0,0.0,0,0,0,15749,0,29.040546,12720.0,15725,-1446,0,67,23,1,3939,0,0,0.0,0.0,
27285942,6.064,,,-69.105644,-0.0,,,0,NaN,0.0,0.0,-0.18354002,0.010568104,-0.97120273,0.98845,-0.089727886,-0.37231132,-0.36835346,0.5313672,0.0,0.0,0.0,0.0,0.0,600,-104,1366,1495.0,25.11,0.0,NaN,NaN,NaN,0.0,NaN,NaN,0.0,0.0,0.0,-0.0,NaN,NaN,NaN,NaN,NaN,NaN,NaN,NaN,false,false,-0.5362939356241565,-0.2318812597147708,-0.012795406417987237,,0.0,,,0.0,0.0,0.0,0.0,0.0,0.0,0.0,0.0,0.0,0.0,-2200,2248,0,0,501,0.0,0.0,,,,,99.99,99.99,3.75E7,0,0,0,,,,20130901,0,61,0,0,0,0,Manual,0,0,0,0,0,30,50,0.0,0.0,0,5,0,0,0,0,0,0,0,0,0,0.0,0.0,0.0,Hover,,lost,100.0,0,0,0,0,0,0,0,0,0,1,0,600,-104,1366,1495.0,NaN,816,-420,1403,1676.0,NaN,316,-84,442,207,-125,394,,,,,,,,,,,,,,,,,,,,,,,,,,,,,,,,,,,,,,,,0.0,,,,,,,,,,,,,,,,,,,,,,,,,,,,,,,,,,0.0,0.0,0.0,0.0,0.0,180.0,0.0,0.0,0.0,0,,Manual,OTHER,NONE,GPS_POSITION_NONMATCH,False,DisConnected,,P,False,False,False,0,0,,0.0,,0.0,0.0,0.0,0.0,NaN,NaN,NaN,0.0,0.0,0.0,0,0,0,15749,0,29.040546,12720.0,15725,-1446,0,67,23,1,3939,0,0,0.0,0.0,
27510952,6.114,,,-69.14704,-0.0,,,0,NaN,0.0,0.0,-0.1824634,0.0059293057,-0.97026986,0.9872951,-0.35713422,-0.27335355,-0.51526505,0.68393356,0.0,0.0,0.0,0.0,0.0,594,-104,1366,1493.0,25.1,0.0,NaN,NaN,NaN,0.0,NaN,NaN,0.0,0.0,0.0,-0.0,NaN,NaN,NaN,NaN,NaN,NaN,NaN,NaN,false,false,-0.5592740218378349,-0.2377545517237094,-0.0234014285407452,,0.0,,,0.0,0.0,0.0,0.0,0.0,0.0,0.0,0.0,0.0,0.0,-2200,2248,0,0,521,0.0,0.0,,,,,99.99,99.99,3.75E7,0,0,0,,,,20130901,0,64,0,0,0,0,Manual,0,0,0,0,0,30,50,0.0,0.0,0,5,0,0,0,0,0,0,0,0,0,0.0,0.0,0.0,Hover,,lost,100.0,0,0,0,0,0,0,0,0,0,1,0,594,-104,1366,1493.0,NaN,823,-432,1406,1685.0,NaN,313,-84,444,209,-129,396,,,,,,,,,,,,,,,,,,,,,,,,,,,,,,,,,,,,,,,,0.0,,,,,,,,,,,,,,,,,,,,,,,,,,,,,,,,,,0.0,0.0,0.0,0.0,0.0,180.0,0.0,0.0,0.0,0,,Manual,OTHER,NONE,GPS_POSITION_NONMATCH,False,DisConnected,,P,False,False,False,0,0,,0.0,,0.0,0.0,0.0,0.0,NaN,NaN,NaN,0.0,0.0,0.0,0,0,0,15748,0,29.040546,12720.0,15725,-1446,0,67,23,1,3939,0,0,0.0,0.0,
27736140,6.164,,,-69.651726,-0.0,,,0,NaN,0.0,0.0,-0.18358853,0.010228747,-0.9710508,0.9883061,-0.1045973,0.025587209,-0.4207212,0.4342829,0.0,0.0,0.0,0.0,0.0,604,-106,1363,1494.0,25.14,0.0,NaN,NaN,NaN,0.0,NaN,NaN,0.0,0.0,0.0,-0.0,NaN,NaN,NaN,NaN,NaN,NaN,NaN,NaN,false,false,-0.5829950348924893,-0.25086492799289517,-0.03069130425948194,,0.0,,,0.0,0.0,0.0,0.0,0.0,0.0,0.0,0.0,0.0,0.0,-2200,2249,0,0,541,0.0,0.0,,,,,99.99,99.99,3.75E7,0,0,0,,,,20130901,0,66,0,0,0,0,Manual,0,0,0,0,0,30,50,0.0,0.0,0,5,0,0,0,0,0,0,0,0,0,0.0,0.0,0.0,Hover,,lost,100.0,0,0,0,0,0,0,0,0,0,1,0,604,-106,1363,1494.0,NaN,816,-429,1403,1678.0,NaN,316,-84,443,206,-127,394,,,,,,,,,,,,,,,,,,,,,,,,,,,,,,,,,,,,,,,,0.0,,,,,,,,,,,,,,,,,,,,,,,,,,,,,,,,,,0.0,0.0,0.0,0.0,0.0,180.0,0.0,0.0,0.0,0,,Manual,OTHER,NONE,GPS_POSITION_NONMATCH,False,DisConnected,,P,False,False,False,0,0,,0.0,,0.0,0.0,0.0,0.0,NaN,NaN,NaN,0.0,0.0,0.0,0,0,0,15746,0,29.040546,12720.0,15725,-1446,0,67,23,1,3939,0,0,0.0,0.0,
27961148,6.214,,,-69.462006,-0.0,,,0,NaN,0.0,0.0,-0.18107791,0.008129077,-0.968795,0.9856059,-0.2221994,-0.218752,-0.5056601,0.5940683,0.0,0.0,0.0,0.0,0.0,597,-98,1369,1496.0,25.15,0.0,NaN,NaN,NaN,0.0,NaN,NaN,0.0,0.0,0.0,-0.0,NaN,NaN,NaN,NaN,NaN,NaN,NaN,NaN,false,false,-0.6066473732930984,-0.25742709892695825,-0.0375213327297462,,0.0,,,0.0,0.0,0.0,0.0,0.0,0.0,0.0,0.0,0.0,0.0,-2200,2249,0,0,561,0.0,0.0,,,,,99.99,99.99,3.75E7,0,0,0,,,,20130901,0,69,0,0,0,0,Manual,0,0,0,0,0,30,50,0.0,0.0,0,5,0,0,0,0,0,0,0,0,0,0.0,0.0,0.0,Hover,,lost,100.0,0,0,0,0,0,0,0,0,0,1,0,597,-98,1369,1496.0,NaN,823,-426,1406,1683.0,NaN,314,-82,445,209,-127,396,,,,,,,,,,,,,,,,,,,,,,,,,,,,,,,,,,,,,,,,0.0,,,,,,,,,,,,,,,,,,,,,,,,,,,,,,,,,,0.0,0.0,0.0,0.0,0.0,180.0,0.0,0.0,0.0,0,,Manual,OTHER,NONE,GPS_POSITION_NONMATCH,False,DisConnected,,P,False,False,False,0,0,,0.0,,0.0,0.0,0.0,0.0,NaN,NaN,NaN,0.0,0.0,0.0,0,0,0,15744,0,29.040546,12720.0,15725,-1446,0,67,23,1,3939,0,0,0.0,0.0,
28187057,6.264,,,-69.25552,-0.0,,,0,NaN,0.0,0.0,-0.18318842,0.008798933,-0.9709685,0.98813725,-0.25451455,0.002532226,-0.50116944,0.5620986,0.0,0.0,0.0,0.0,0.0,597,-104,1363,1491.0,25.18,0.0,NaN,NaN,NaN,0.0,NaN,NaN,0.0,0.0,0.0,-0.0,NaN,NaN,NaN,NaN,NaN,NaN,NaN,NaN,false,false,-0.6290959691698443,-0.2688756813329054,-0.046715061082383075,,0.0,,,0.0,0.0,0.0,0.0,0.0,0.0,0.0,0.0,0.0,0.0,-2200,2250,0,0,581,0.0,0.0,,,,,99.99,99.99,3.75E7,0,0,0,,,,20130901,0,71,0,0,0,0,Manual,0,0,0,0,0,30,50,0.0,0.0,0,5,0,0,0,0,0,0,0,0,0,0.0,0.0,0.0,Hover,,lost,100.0,0,0,0,0,0,0,0,0,0,1,0,597,-104,1363,1491.0,NaN,823,-420,1403,1679.0,NaN,315,-84,442,208,-126,396,,,,,,,,,,,,,,,,,,,,,,,,,,,,,,,,,,,,,,,,0.0,,,,,,,,,,,,,,,,,,,,,,,,,,,,,,,,,,0.0,0.0,0.0,0.0,0.0,180.0,0.0,0.0,0.0,0,,Manual,OTHER,NONE,GPS_POSITION_NONMATCH,False,DisConnected,,P,False,False,False,0,0,,0.0,,0.0,0.0,0.0,0.0,NaN,NaN,NaN,0.0,0.0,0.0,0,0,0,15742,0,29.040546,12720.0,15725,-1446,0,67,23,1,3939,0,0,0.0,0.0,
28412069,6.314,,,-69.46515,-0.0,,,0,NaN,0.0,0.0,-0.18334505,0.0076899207,-0.96947944,0.9866939,-0.18749486,-0.062977426,-0.36601192,0.4160351,0.0,0.0,0.0,0.0,0.0,607,-101,1366,1498.0,25.17,0.0,NaN,NaN,NaN,0.0,NaN,NaN,0.0,0.0,0.0,-0.0,NaN,NaN,NaN,NaN,NaN,NaN,NaN,NaN,false,false,-0.6505364028502107,-0.27463581365979306,-0.0529115925658786,,0.0,,,0.0,0.0,0.0,0.0,0.0,0.0,0.0,0.0,0.0,0.0,-2200,2250,0,0,601,0.0,0.0,,,,,99.99,99.99,3.75E7,0,0,0,,,,20130901,0,74,0,0,0,0,Manual,0,0,0,0,0,30,50,0.0,0.0,0,5,0,0,0,0,0,0,0,0,0,0.0,0.0,0.0,Hover,,lost,100.0,0,0,0,0,0,0,0,0,0,1,0,607,-101,1366,1498.0,NaN,812,-426,1403,1676.0,NaN,318,-82,444,206,-127,395,,,,,,,,,,,,,,,,,,,,,,,,,,,,,,,,,,,,,,,,0.0,,,,,,,,,,,,,,,,,,,,,,,,,,,,,,,,,,0.0,0.0,0.0,0.0,0.0,180.0,0.0,0.0,0.0,0,,Manual,OTHER,NONE,GPS_POSITION_NONMATCH,False,DisConnected,,P,False,False,False,0,0,,0.0,,0.0,0.0,0.0,0.0,NaN,NaN,NaN,0.0,0.0,0.0,0,0,0,15739,0,29.040546,12720.0,15725,-1446,0,67,23,1,3939,0,0,0.0,0.0,
28637076,6.364,,,-69.637054,-0.0,,,0,NaN,0.0,0.0,-0.1835592,0.008405829,-0.9717943,0.9890141,-0.33860636,-0.26414558,-0.5978139,0.7360765,0.0,0.0,0.0,0.0,0.0,604,-106,1372,1502.0,25.19,0.0,NaN,NaN,NaN,0.0,NaN,NaN,0.0,0.0,0.0,-0.0,NaN,NaN,NaN,NaN,NaN,NaN,NaN,NaN,false,false,-0.6742269694623921,-0.2899480091397646,-0.062105562560721014,,0.0,,,0.0,0.0,0.0,0.0,0.0,0.0,0.0,0.0,0.0,0.0,-2200,2251,0,0,621,0.0,0.0,,,,,99.99,99.99,3.75E7,0,0,0,,,,20130901,1,76,0,0,0,0,Manual,0,0,0,0,0,30,50,0.0,0.0,0,5,0,0,0,0,0,0,0,0,0,0.0,0.0,0.0,Hover,,lost,100.0,0,0,0,0,0,0,0,0,0,1,0,604,-106,1372,1502.0,NaN,823,-429,1400,1679.0,NaN,316,-84,445,209,-127,394,,,,,,,,,,,,,,,,,,,,,,,,,,,,,,,,,,,,,,,,0.0,,,,,,,,,,,,,,,,,,,,,,,,,,,,,,,,,,0.0,0.0,0.0,0.0,0.0,180.0,0.0,0.0,0.0,0,     76 [L-BATTERY]Battery barcode:082AD3B0311AU6||,Manual,OTHER,NONE,GPS_POSITION_NONMATCH,False,DisConnected,,P,False,False,False,0,0,,0.0,,0.0,0.0,0.0,0.0,NaN,NaN,NaN,0.0,0.0,0.0,0,0,0,15738,0,29.040546,12720.0,15725,-1446,0,67,23,1,3939,0,0,0.0,0.0,
28862084,6.414,,,-68.73409,-0.0,,,0,NaN,0.0,0.0,-0.18264568,0.01010485,-0.9703655,0.98745674,-0.060424015,-0.22465837,-0.60465586,0.6478666,0.0,0.0,0.0,0.0,0.0,597,-101,1369,1496.0,25.17,0.0,NaN,NaN,NaN,0.0,NaN,NaN,0.0,0.0,0.0,-0.0,NaN,NaN,NaN,NaN,NaN,NaN,NaN,NaN,false,false,-0.6969060134377223,-0.30002334463809865,-0.0697373650850222,,0.0,,,0.0,0.0,0.0,0.0,0.0,0.0,0.0,0.0,0.0,0.0,-2200,2251,0,0,641,0.0,0.0,,,,,99.99,99.99,3.75E7,0,0,0,,,,20130901,1,79,0,0,0,0,Manual,0,0,0,0,0,30,50,0.0,0.0,0,5,0,0,0,0,0,0,0,0,0,0.0,0.0,0.0,Hover,,lost,100.0,0,0,0,0,0,0,0,0,0,1,0,597,-101,1369,1496.0,NaN,819,-426,1400,1676.0,NaN,314,-82,444,207,-126,394,,,,,,,,,,,,,,,,,,,,,,,,,,,,,,,,,,,,,,,,0.0,,,,,,,,,,,,,,,,,,,,,,,,,,,,,,,,,,0.0,0.0,0.0,0.0,0.0,180.0,0.0,0.0,0.0,0,     77 [L-BATTERY]Battery barcode:082AD3B0311AU6||,Manual,OTHER,NONE,GPS_POSITION_NONMATCH,False,DisConnected,,P,False,False,False,0,0,,0.0,,0.0,0.0,0.0,0.0,NaN,NaN,NaN,0.0,0.0,0.0,0,0,0,15735,0,29.040546,12720.0,15725,-1446,0,67,23,1,3939,0,0,0.0,0.0,
29092478,6.465,,,-69.33047,-0.0,,,0,NaN,0.0,0.0,-0.18337308,0.0068820054,-0.97130483,0.9884868,-0.23310064,-0.033098336,-0.40840682,0.47141016,0.0,0.0,0.0,0.0,0.0,604,-101,1366,1496.0,25.16,0.0,NaN,NaN,NaN,0.0,NaN,NaN,0.0,0.0,0.0,-0.0,NaN,NaN,NaN,NaN,NaN,NaN,NaN,NaN,false,false,-0.7198014961598354,-0.307249003660935,-0.07721812154595624,,0.0,,,0.0,0.0,0.0,0.0,0.0,0.0,0.0,0.0,0.0,0.0,-2200,2252,0,0,661,0.0,0.0,,,,,99.99,99.99,3.75E7,0,0,0,,,,20130901,1,81,0,0,0,0,Manual,0,0,0,0,0,30,50,0.0,0.0,0,5,0,0,0,0,0,0,0,0,0,0.0,0.0,0.0,Hover,,lost,100.0,0,0,0,0,0,0,0,0,0,1,0,604,-101,1366,1496.0,NaN,830,-426,1406,1687.0,NaN,317,-83,444,209,-125,395,,,,,,,,,,,,,,,,,,,,,,,,,,,,,,,,,,,,,,,,0.0,,,,,,,,,,,,,,,,,,,,,,,,,,,,,,,,,,0.0,0.0,0.0,0.0,0.0,180.0,0.0,0.0,0.0,0,,Manual,OTHER,NONE,GPS_POSITION_NONMATCH,False,DisConnected,,P,False,False,False,0,0,,0.0,,0.0,0.0,0.0,0.0,NaN,NaN,NaN,0.0,0.0,0.0,0,0,0,15734,0,29.040546,12720.0,15725,-1446,0,67,23,1,3939,0,0,0.0,0.0,
29317496,6.515,,,-68.8824,-0.0,,,0,NaN,0.0,0.0,-0.18300779,0.010214232,-0.9702642,0.9874253,-0.020917028,-0.24491468,-0.53348655,0.5873914,0.0,0.0,0.0,0.0,0.0,597,-104,1369,1497.0,25.18,0.0,NaN,NaN,NaN,0.0,NaN,NaN,0.0,0.0,0.0,-0.0,NaN,NaN,NaN,NaN,NaN,NaN,NaN,NaN,false,false,-0.7415507894478743,-0.3199589114070027,-0.0817632048108246,,0.0,,,0.0,0.0,0.0,0.0,0.0,0.0,0.0,0.0,0.0,0.0,-2200,2252,0,0,681,0.0,0.0,,,,,99.99,99.99,3.75E7,0,0,0,,,,20130901,1,84,0,0,0,0,Manual,0,0,0,0,0,30,50,0.0,0.0,0,5,0,0,0,0,0,0,0,0,0,0.0,0.0,0.0,Hover,,lost,100.0,0,0,0,0,0,0,0,0,0,1,0,597,-104,1369,1497.0,NaN,819,-426,1412,1687.0,NaN,314,-84,444,207,-127,397,,,,,,,,,,,,,,,,,,,,,,,,,,,,,,,,,,,,,,,,0.0,,,,,,,,,,,,,,,,,,,,,,,,,,,,,,,,,,0.0,0.0,0.0,0.0,0.0,180.0,0.0,0.0,0.0,0,,Manual,OTHER,NONE,GPS_POSITION_NONMATCH,False,DisConnected,,P,False,False,False,0,0,,0.0,,0.0,0.0,0.0,0.0,NaN,NaN,NaN,0.0,0.0,0.0,0,0,0,15733,0,29.040546,12720.0,15725,-1446,0,67,23,1,3939,0,0,0.0,0.0,
29542533,6.565,,,-69.09516,-0.0,,,0,NaN,0.0,0.0,-0.18223813,0.0085633695,-0.97046566,0.98746526,-0.053087924,-0.2457827,-0.41295835,0.48348945,0.0,0.0,0.0,0.0,0.0,594,-104,1372,1498.0,25.24,0.0,NaN,NaN,NaN,0.0,NaN,NaN,0.0,0.0,0.0,-0.0,NaN,NaN,NaN,NaN,NaN,NaN,NaN,NaN,false,false,-0.7648821791132967,-0.3230953415493214,-0.09441535930514693,,0.0,,,0.0,0.0,0.0,0.0,0.0,0.0,0.0,0.0,0.0,0.0,-2200,2253,0,0,701,0.0,0.0,,,,,99.99,99.99,3.75E7,0,0,0,,,,20130901,1,86,0,0,0,0,Manual,0,0,0,0,0,30,50,0.0,0.0,0,5,0,0,0,0,0,0,0,0,0,0.0,0.0,0.0,Hover,,lost,100.0,0,0,0,0,0,0,0,0,0,1,0,594,-104,1372,1498.0,NaN,830,-432,1409,1691.0,NaN,314,-83,445,211,-128,396,,,,,,,,,,,,,,,,,,,,,,,,,,,,,,,,,,,,,,,,0.0,,,,,,,,,,,,,,,,,,,,,,,,,,,,,,,,,,0.0,0.0,0.0,0.0,0.0,180.0,0.0,0.0,0.0,0,,Manual,OTHER,NONE,GPS_POSITION_NONMATCH,False,DisConnected,,P,False,False,False,0,0,,0.0,,0.0,0.0,0.0,0.0,NaN,NaN,NaN,0.0,0.0,0.0,0,0,0,15733,0,29.040546,12720.0,15725,-1446,0,67,23,1,3939,0,0,0.0,0.0,
29772170,6.616,,,-69.079445,-0.0,,,0,NaN,0.0,0.0,-0.18370356,0.007980453,-0.97017986,0.9874511,-0.20435184,-0.058553517,-0.4916192,0.5356096,0.0,0.0,0.0,0.0,0.0,604,-106,1366,1497.0,25.27,0.0,NaN,NaN,NaN,0.0,NaN,NaN,0.0,0.0,0.0,-0.0,NaN,NaN,NaN,NaN,NaN,NaN,NaN,NaN,false,false,-0.788522418709487,-0.3342506162371286,-0.10163056267515262,,0.0,,,0.0,0.0,0.0,0.0,0.0,0.0,0.0,0.0,0.0,0.0,-2200,2253,0,0,721,0.0,0.0,,,,,99.99,99.99,3.75E7,0,0,0,,,,20130901,1,89,0,0,0,0,Manual,0,0,0,0,0,30,50,0.0,0.0,0,5,0,0,0,0,0,0,0,0,0,0.0,0.0,0.0,Hover,,lost,100.0,0,0,0,0,0,0,0,0,0,1,0,604,-106,1366,1497.0,NaN,819,-429,1403,1680.0,NaN,317,-84,443,207,-127,395,,,,,,,,,,,,,,,,,,,,,,,,,,,,,,,,,,,,,,,,0.0,,,,,,,,,,,,,,,,,,,,,,,,,,,,,,,,,,0.0,0.0,0.0,0.0,0.0,180.0,0.0,0.0,0.0,0,,Manual,OTHER,NONE,GPS_POSITION_NONMATCH,False,DisConnected,,P,False,False,False,0,0,,0.0,,0.0,0.0,0.0,0.0,NaN,NaN,NaN,0.0,0.0,0.0,0,0,0,15731,0,132.45447,12720.0,15751,-1446,0,67,23,1,3939,0,0,0.0,0.0,
29997186,6.666,,,-69.55529,-0.0,,,0,NaN,0.0,0.0,-0.18243669,0.011309211,-0.97059685,0.9876585,-0.12922014,-0.22395387,-0.49857232,0.56162935,0.0,0.0,0.0,0.0,0.0,600,-109,1363,1493.0,25.28,0.0,NaN,NaN,NaN,0.0,NaN,NaN,0.0,0.0,0.0,-0.0,NaN,NaN,NaN,NaN,NaN,NaN,NaN,NaN,false,false,-0.8125449524354984,-0.34466498695248116,-0.10555510095224178,,0.0,,,0.0,0.0,0.0,0.0,0.0,0.0,0.0,0.0,0.0,0.0,-2200,2254,0,0,741,0.0,0.0,,,,,99.99,99.99,3.75E7,0,0,0,,,,20130901,1,91,0,0,0,0,Manual,0,0,0,0,0,30,50,0.0,0.0,0,5,0,0,0,0,0,0,0,0,0,0.0,0.0,0.0,Hover,,lost,100.0,0,0,0,0,0,0,0,0,0,1,0,600,-109,1363,1493.0,NaN,823,-432,1400,1680.0,NaN,315,-85,443,209,-127,396,,,,,,,,,,,,,,,,,,,,,,,,,,,,,,,,,,,,,,,,0.0,,,,,,,,,,,,,,,,,,,,,,,,,,,,,,,,,,0.0,0.0,0.0,0.0,0.0,180.0,0.0,0.0,0.0,0,,Manual,OTHER,NONE,GPS_POSITION_NONMATCH,False,DisConnected,,P,False,False,False,0,0,,0.0,,0.0,0.0,0.0,0.0,NaN,NaN,NaN,0.0,0.0,0.0,0,0,0,15731,0,132.45447,12720.0,15751,-1446,0,67,23,1,3939,0,0,0.0,0.0,
30222387,6.716,,,-68.47156,-0.0,,,0,NaN,0.0,0.0,-0.18250066,0.008850589,-0.97037107,0.9874233,-0.28933197,-0.2787103,-0.5485676,0.67994034,0.0,0.0,0.0,0.0,0.0,600,-98,1369,1497.0,25.31,0.0,NaN,NaN,NaN,0.0,NaN,NaN,0.0,0.0,0.0,-0.0,NaN,NaN,NaN,NaN,NaN,NaN,NaN,NaN,false,false,-0.837190854514116,-0.351396433656334,-0.11875245420408902,,0.0,,,0.0,0.0,0.0,0.0,0.0,0.0,0.0,0.0,0.0,0.0,-2200,2254,0,0,761,0.0,0.0,,,,,99.99,99.99,3.75E7,0,0,0,,,,20130901,1,94,0,0,0,0,Manual,0,0,0,0,0,30,50,0.0,0.0,0,5,0,0,0,0,0,0,0,0,0,0.0,0.0,0.0,Hover,,lost,100.0,0,0,0,0,0,0,0,0,0,1,0,600,-98,1369,1497.0,NaN,826,-426,1403,1682.0,NaN,316,-81,444,208,-127,395,,,,,,,,,,,,,,,,,,,,,,,,,,,,,,,,,,,,,,,,0.0,,,,,,,,,,,,,,,,,,,,,,,,,,,,,,,,,,0.0,0.0,0.0,0.0,0.0,180.0,0.0,0.0,0.0,0,,Manual,OTHER,NONE,GPS_POSITION_NONMATCH,False,DisConnected,,P,False,False,False,0,0,,0.0,,0.0,0.0,0.0,0.0,NaN,NaN,NaN,0.0,0.0,0.0,0,0,0,15731,0,132.45447,12720.0,15751,-1446,0,67,23,1,3939,0,0,0.0,0.0,
30448325,6.766,,,-69.55005,-0.0,,,0,NaN,0.0,0.0,-0.18507406,0.00832589,-0.9731051,0.9905833,-0.2557306,-0.081294715,-0.32874694,0.42436013,0.0,0.0,0.0,0.0,0.0,600,-109,1369,1498.0,25.3,0.0,NaN,NaN,NaN,0.0,NaN,NaN,0.0,0.0,0.0,-0.0,NaN,NaN,NaN,NaN,NaN,NaN,NaN,NaN,false,false,-0.859120424879162,-0.3614250648133115,-0.12804377206667344,,0.0,,,0.0,0.0,0.0,0.0,0.0,0.0,0.0,0.0,0.0,0.0,-2200,2255,0,0,781,0.0,0.0,,,,,99.99,99.99,3.75E7,0,0,0,,,,20130901,1,96,0,0,0,0,Manual,0,0,0,0,0,30,50,0.0,0.0,0,5,0,0,0,0,0,0,0,0,0,0.0,0.0,0.0,Hover,,lost,100.0,0,0,0,0,0,0,0,0,0,1,0,600,-109,1369,1498.0,NaN,823,-420,1403,1679.0,NaN,316,-86,444,209,-126,394,,,,,,,,,,,,,,,,,,,,,,,,,,,,,,,,,,,,,,,,0.0,,,,,,,,,,,,,,,,,,,,,,,,,,,,,,,,,,0.0,0.0,0.0,0.0,0.0,180.0,0.0,0.0,0.0,0,,Manual,OTHER,NONE,GPS_POSITION_NONMATCH,False,DisConnected,,P,False,False,False,0,0,,0.0,,0.0,0.0,0.0,0.0,NaN,NaN,NaN,0.0,0.0,0.0,0,0,0,15731,0,132.45447,12720.0,15751,-1446,0,67,23,1,3939,0,0,0.0,0.0,
30673334,6.816,,,-69.153854,-0.0,,,0,NaN,0.0,0.0,-0.18373907,0.008720044,-0.9706317,0.9879079,-0.36259726,-0.28835568,-0.54389125,0.7144533,0.0,0.0,0.0,0.0,0.0,594,-104,1360,1487.0,25.36,0.0,NaN,NaN,NaN,0.0,NaN,NaN,0.0,0.0,0.0,-0.0,NaN,NaN,NaN,NaN,NaN,NaN,NaN,NaN,false,false,-0.8811007411614646,-0.37407332221248946,-0.12713058678811498,,0.0,,,0.0,0.0,0.0,0.0,0.0,0.0,0.0,0.0,0.0,0.0,-2200,2255,0,0,801,0.0,0.0,,,,,99.99,99.99,3.75E7,0,0,0,,,,20130901,1,99,0,0,0,0,Manual,0,0,0,0,0,30,50,0.0,0.0,0,5,0,0,0,0,0,0,0,0,0,0.0,0.0,0.0,Hover,,lost,100.0,0,0,0,0,0,0,0,0,0,1,0,594,-104,1360,1487.0,NaN,819,-429,1406,1682.0,NaN,314,-83,441,208,-126,395,,,,,,,,,,,,,,,,,,,,,,,,,,,,,,,,,,,,,,,,0.0,,,,,,,,,,,,,,,,,,,,,,,,,,,,,,,,,,0.0,0.0,0.0,0.0,0.0,180.0,0.0,0.0,0.0,0,     99 [L-SENSOR][baro(0)] std_filtered_air_press init succeed: press:102.1|    100 [L-GPS]index(0) fdi event:turn on,Manual,OTHER,NONE,GPS_POSITION_NONMATCH,False,DisConnected,,P,False,False,False,0,0,,0.0,,0.0,0.0,0.0,0.0,NaN,NaN,NaN,0.0,0.0,0.0,0,0,0,15732,0,132.45447,12720.0,15751,-1446,0,67,23,1,3939,0,0,0.0,0.0,
30898350,6.866,,,-69.079445,-0.0,,,0,NaN,0.0,0.0,-0.18149105,0.00896381,-0.97125673,0.9881088,-0.15248036,-0.3459319,-0.32070452,0.49575248,0.0,0.0,0.0,0.0,0.0,600,-106,1372,1501.0,25.36,0.0,NaN,NaN,NaN,0.0,NaN,NaN,0.0,0.0,0.0,-0.0,NaN,NaN,NaN,NaN,NaN,NaN,NaN,NaN,false,false,-0.9037755053864096,-0.37903912139160445,-0.14246750029196756,,0.0,,,0.0,0.0,0.0,0.0,0.0,0.0,0.0,0.0,0.0,0.0,-2200,2255,0,0,821,0.0,0.0,,,,,99.99,99.99,3.75E7,0,0,0,,,,20130901,1,101,0,0,0,0,Manual,0,0,0,0,0,30,50,0.0,0.0,0,5,0,0,0,0,0,0,0,0,0,0.0,0.0,0.0,Hover,,lost,100.0,0,0,0,0,0,0,0,0,0,1,0,600,-106,1372,1501.0,NaN,830,-426,1415,1694.0,NaN,316,-85,446,208,-127,397,,,,,,,,,,,,,,,,,,,,,,,,,,,,,,,,,,,,,,,,0.0,,,,,,,,,,,,,,,,,,,,,,,,,,,,,,,,,,0.0,0.0,0.0,0.0,0.0,180.0,0.0,0.0,0.0,0,,Manual,OTHER,NONE,GPS_POSITION_NONMATCH,False,DisConnected,,P,False,False,False,0,0,,0.0,,0.0,0.0,0.0,0.0,NaN,NaN,NaN,0.0,0.0,0.0,0,0,0,15732,0,132.45447,12720.0,15751,-1446,0,67,23,1,3939,0,0,0.0,0.0,
31126657,6.917,,,-68.97725,-0.0,,,0,NaN,0.0,0.0,-0.18489295,0.008478434,-0.9721485,0.989611,-0.26562196,-0.053465612,-0.61983466,0.6764677,0.0,0.0,0.0,0.0,0.0,594,-101,1366,1492.0,25.35,0.0,NaN,NaN,NaN,0.0,NaN,NaN,0.0,0.0,0.0,-0.0,NaN,NaN,NaN,NaN,NaN,NaN,NaN,NaN,false,false,-0.9276451095361438,-0.3877994986764013,-0.14969019853674162,,0.0,,,0.0,0.0,0.0,0.0,0.0,0.0,0.0,0.0,0.0,0.0,-2200,2255,0,0,843,0.0,0.0,,,,,99.99,99.99,3.75E7,0,0,0,,,,20130901,1,104,0,0,0,0,Manual,0,0,0,0,0,30,50,0.0,0.0,0,5,0,0,0,0,0,0,0,0,0,0.0,0.0,0.0,Hover,,lost,100.0,0,0,0,0,0,0,0,0,0,1,0,594,-101,1366,1492.0,NaN,826,-426,1403,1682.0,NaN,314,-82,443,210,-126,395,,,,,,,,,,,,,,,,,,,,,,,,,,,,,,,,,,,,,,,,0.0,,,,,,,,,,,,,,,,,,,,,,,,,,,,,,,,,,0.0,0.0,0.0,0.0,0.0,180.0,0.0,0.0,0.0,0,,Manual,OTHER,NONE,GPS_POSITION_NONMATCH,False,DisConnected,,P,False,False,False,0,0,,0.0,,0.0,0.0,0.0,0.0,NaN,NaN,NaN,0.0,0.0,0.0,0,0,0,15733,0,132.45447,12720.0,15751,-1446,0,67,23,1,3939,0,0,0.0,0.0,
31351948,6.967,,,-69.04171,-0.0,,,0,NaN,0.0,0.0,-0.18161142,0.007931318,-0.9703805,0.9872608,-0.16192596,-0.15930064,-0.49973938,0.54894096,0.0,0.0,0.0,0.0,0.0,594,-104,1372,1498.0,25.38,0.0,NaN,NaN,NaN,0.0,NaN,NaN,0.0,0.0,0.0,-0.0,NaN,NaN,NaN,NaN,NaN,NaN,NaN,NaN,false,false,-0.9531229502886838,-0.3985721221348908,-0.15149293333781458,,0.0,,,0.0,0.0,0.0,0.0,0.0,0.0,0.0,0.0,0.0,0.0,-2200,2256,0,0,863,0.0,0.0,,,,,99.99,99.99,3.75E7,0,0,0,,,,20130901,1,106,0,0,0,0,Manual,0,0,0,0,0,30,50,0.0,0.0,0,5,0,0,0,0,0,0,0,0,0,0.0,0.0,0.0,Hover,,lost,100.0,0,0,0,0,0,0,0,0,0,1,0,594,-104,1372,1498.0,NaN,823,-429,1406,1684.0,NaN,314,-84,445,209,-127,395,,,,,,,,,,,,,,,,,,,,,,,,,,,,,,,,,,,,,,,,0.0,,,,,,,,,,,,,,,,,,,,,,,,,,,,,,,,,,0.0,0.0,0.0,0.0,0.0,180.0,0.0,0.0,0.0,0,,Manual,OTHER,NONE,GPS_POSITION_NONMATCH,False,DisConnected,,P,False,False,False,0,0,,0.0,,0.0,0.0,0.0,0.0,NaN,NaN,NaN,0.0,0.0,0.0,0,0,0,15734,0,132.45447,12720.0,15751,-1446,0,67,23,1,3939,0,0,0.0,0.0,
31577005,7.017,,,-68.8955,-0.0,,,0,NaN,0.0,0.0,-0.18215548,0.010449535,-0.9714748,0.98845994,-0.07457028,-0.3101558,-0.39197123,0.50536996,0.0,0.0,0.0,0.0,0.0,600,-106,1363,1492.0,25.38,0.0,NaN,NaN,NaN,0.0,NaN,NaN,0.0,0.0,0.0,-0.0,NaN,NaN,NaN,NaN,NaN,NaN,NaN,NaN,false,false,-0.9764987188045602,-0.40544766405124166,-0.16972323988441332,,0.0,,,0.0,0.0,0.0,0.0,0.0,0.0,0.0,0.0,0.0,0.0,-2200,2256,0,0,883,0.0,0.0,,,,,99.99,99.99,3.75E7,0,0,0,,,,20130901,1,109,0,0,0,0,Manual,0,0,0,0,0,30,50,0.0,0.0,0,5,0,0,0,0,0,0,0,0,0,0.0,0.0,0.0,Hover,,lost,100.0,0,0,0,0,0,0,0,0,0,1,0,600,-106,1363,1492.0,NaN,826,-426,1406,1685.0,NaN,315,-84,442,209,-127,394,,,,,,,,,,,,,,,,,,,,,,,,,,,,,,,,,,,,,,,,0.0,,,,,,,,,,,,,,,,,,,,,,,,,,,,,,,,,,0.0,0.0,0.0,0.0,0.0,180.0,0.0,0.0,0.0,0,    108 [L-ESC]esc alive info = 0x0|||    109 [L-ESC]ESC0 link up|||    109 [L-ESC]ESC1 link up|||    109 [L-ESC]ESC2 link up|||    109 [L-ESC]ESC3 link up|||    110 [L-FMU/MOTOR]fault off. esc(1) is disconnect|    110 [L-FMU/MOTOR]fault off. esc(2) is disconnect|    110 [L-FMU/MOTOR]fault off. esc(3) is disconnect|    110 [L-FMU/MOTOR]fault off. esc(4) is disconnect,Manual,OTHER,NONE,GPS_POSITION_NONMATCH,False,DisConnected,,P,False,False,False,0,0,,0.0,,0.0,0.0,0.0,0.0,NaN,NaN,NaN,0.0,0.0,0.0,0,0,0,15735,0,132.45447,12720.0,15751,-1446,0,67,23,1,3939,0,0,0.0,0.0,
31802034,7.067,,,-69.58621,-0.0,,,0,NaN,0.0,0.0,-0.18386838,0.008073941,-0.97183084,0.9891046,-0.33668616,0.028875412,-0.23230106,0.41006723,0.0,0.0,0.0,0.0,0.0,600,-104,1363,1492.0,25.45,0.0,NaN,NaN,NaN,0.0,NaN,NaN,0.0,0.0,0.0,-0.0,NaN,NaN,NaN,NaN,NaN,NaN,NaN,NaN,false,false,-0.9993133403693726,-0.4148820910309703,-0.17915055008817163,,0.0,,,0.0,0.0,0.0,0.0,0.0,0.0,0.0,0.0,0.0,0.0,-2200,2257,0,0,903,0.0,0.0,,,,,99.99,99.99,3.75E7,0,0,0,,,,20130901,1,111,0,0,0,0,Manual,0,0,0,0,0,30,50,0.0,0.0,0,5,0,0,0,0,0,0,0,0,0,0.0,0.0,0.0,Hover,,lost,100.0,0,0,0,0,0,0,0,0,0,1,0,600,-104,1363,1492.0,NaN,823,-429,1403,1682.0,NaN,315,-83,443,209,-127,396,,,,,,,,,,,,,,,,,,,,,,,,,,,,,,,,,,,,,,,,0.0,,0,0,0,0,22,23,23,22,48.59375,48.90625,48.90625,49.010418,48.958332,48.958332,48.958332,48.958332,0.0,0.0,0.0,0.0,15.4,15.5,15.3,15.2,0.0,0.0,0.0,0.0,0,0,0,0,0.0,0.0,0.0,0.0,0.0,180.0,0.0,0.0,0.0,0,,Manual,OTHER,NONE,GPS_POSITION_NONMATCH,False,DisConnected,,P,False,False,False,0,0,,0.0,,0.0,0.0,0.0,0.0,NaN,NaN,NaN,0.0,0.0,0.0,0,0,0,15736,0,132.45447,12720.0,15751,-1446,0,67,23,1,3939,0,0,0.0,0.0,
32028675,7.117,,,-69.04014,-0.0,,,0,NaN,0.0,0.0,-0.18125667,0.010506597,-0.97011876,0.9869624,-0.2458177,-0.25402695,-0.48948306,0.6037795,0.0,0.0,0.0,0.0,0.0,597,-101,1369,1496.0,25.44,0.0,NaN,NaN,NaN,0.0,NaN,NaN,0.0,0.0,0.0,-0.0,NaN,NaN,NaN,NaN,NaN,NaN,NaN,NaN,false,false,-1.0200629461385553,-0.4276503349536207,-0.184317496086617,,0.0,,,0.0,0.0,0.0,0.0,0.0,0.0,0.0,0.0,0.0,0.0,-2200,2257,0,0,923,0.0,0.0,,,,,99.99,99.99,3.75E7,0,0,0,,,,20130901,1,114,0,0,0,0,Manual,0,0,0,0,0,30,50,0.0,0.0,0,5,0,0,0,0,0,0,0,0,0,0.0,0.0,0.0,Hover,,lost,100.0,0,0,0,0,0,0,0,0,0,1,0,597,-101,1369,1496.0,NaN,823,-426,1409,1686.0,NaN,314,-83,445,207,-127,396,,,,,,,,,,,,,,,,,,,,,,,,,,,,,,,,,,,,,,,,0.0,,0,0,0,0,22,23,23,22,48.59375,48.90625,48.90625,49.010418,48.958332,48.958332,48.958332,48.958332,0.0,0.0,0.0,0.0,15.4,15.4,15.2,15.4,0.0,0.0,0.0,0.0,0,0,0,0,0.0,0.0,0.0,0.0,0.0,180.0,0.0,0.0,0.0,0,,Manual,OTHER,NONE,GPS_POSITION_NONMATCH,False,DisConnected,,P,False,False,False,0,0,,0.0,,0.0,0.0,0.0,0.0,NaN,NaN,NaN,0.0,0.0,0.0,0,0,0,15737,0,132.45447,12720.0,15751,-1446,0,67,23,1,3939,0,0,0.0,0.0,
32258420,7.169,,,-69.49241,-0.0,,,0,NaN,0.0,0.0,-0.18230028,0.008312918,-0.97108823,0.98808646,-0.11041908,-0.017945241,-0.46584424,0.47908795,0.0,0.0,0.0,0.0,0.0,600,-109,1372,1501.0,25.45,0.0,NaN,NaN,NaN,0.0,NaN,NaN,0.0,0.0,0.0,-0.0,NaN,NaN,NaN,NaN,NaN,NaN,NaN,NaN,false,false,-1.0450709866739452,-0.43204398985364145,-0.1993003505975082,,0.0,,,0.0,0.0,0.0,0.0,0.0,0.0,0.0,0.0,0.0,0.0,-2200,2258,0,0,943,0.0,0.0,,,,,99.99,99.99,3.75E7,0,0,0,,,,20130901,1,117,0,0,0,0,Manual,0,0,0,0,0,30,50,0.0,0.0,0,5,0,0,0,0,0,0,0,0,0,0.0,0.0,0.0,Hover,,lost,100.0,0,0,0,0,0,0,0,0,0,1,0,600,-109,1372,1501.0,NaN,819,-420,1406,1680.0,NaN,316,-85,445,209,-126,396,,,,,,,,,,,,,,,,,,,,,,,,,,,,,,,,,,,,,,,,0.0,,0,0,0,0,22,23,23,22,48.59375,48.90625,48.90625,49.010418,48.958332,48.958332,48.958332,48.958332,0.0,0.0,0.0,0.0,15.4,15.4,15.2,15.2,0.0,0.0,0.0,0.0,0,0,0,0,0.0,0.0,0.0,0.0,0.0,180.0,0.0,0.0,0.0,0,,Manual,OTHER,NONE,GPS_POSITION_NONMATCH,False,DisConnected,,P,False,False,False,0,0,,0.0,,0.0,0.0,0.0,0.0,NaN,NaN,NaN,0.0,0.0,0.0,0,0,0,15737,0,132.45447,12720.0,15751,-1446,0,67,23,1,3939,0,0,0.0,0.0,
32483461,7.219,,,-69.51599,-0.0,,,0,NaN,0.0,0.0,-0.18465471,0.008709658,-0.9702051,0.9876595,-0.25779018,-0.034993272,-0.56896776,0.62562335,0.0,0.0,0.0,0.0,0.0,604,-101,1366,1496.0,25.43,0.0,NaN,NaN,NaN,0.0,NaN,NaN,0.0,0.0,0.0,-0.0,NaN,NaN,NaN,NaN,NaN,NaN,NaN,NaN,false,false,-1.0671634648683757,-0.4448314563710327,-0.20577217817358598,,0.0,,,0.0,0.0,0.0,0.0,0.0,0.0,0.0,0.0,0.0,0.0,-2200,2258,0,0,963,0.0,0.0,,,,,99.99,99.99,3.75E7,0,0,0,,,,20130901,1,119,0,0,0,0,Manual,0,0,0,0,0,30,50,0.0,0.0,0,5,0,0,0,0,0,0,0,0,0,0.0,0.0,0.0,Hover,,lost,100.0,0,0,0,0,0,0,0,0,0,1,0,604,-101,1366,1496.0,NaN,826,-426,1403,1682.0,NaN,316,-82,443,208,-126,395,,,,,,,,,,,,,,,,,,,,,,,,,,,,,,,,,,,,,,,,0.0,,0,0,0,0,22,23,23,22,48.59375,48.90625,48.854168,49.010418,48.958332,48.958332,48.958332,48.958332,0.0,0.0,0.0,0.0,15.4,15.4,15.4,15.3,0.0,0.0,0.0,0.0,0,0,0,0,0.0,0.0,0.0,0.0,0.0,180.0,0.0,0.0,0.0,0,,Manual,OTHER,NONE,GPS_POSITION_NONMATCH,False,DisConnected,,P,False,False,False,0,0,,0.0,,0.0,0.0,0.0,0.0,NaN,NaN,NaN,0.0,0.0,0.0,0,0,0,15738,0,132.45447,12720.0,15751,-1446,0,67,23,1,3939,0,0,0.0,0.0,
