Clock:Tick#,Clock:offsetTime,IMU_ATTI(0):Longitude,IMU_ATTI(0):Latitude,IMU_ATTI(0):press:D,IMU_ATTI(0):alti:D,IMU_ATTI(0):relativeHeight:C,IMU_ATTI(0):absoluteHeight:C,IMU_ATTI(0):numSats,IMU_ATTI(0):roll:C,IMU_ATTI(0):pitch:C,IMU_ATTI(0):yaw:C,IMU_ATTI(0):accelX,IMU_ATTI(0):accelY,IMU_ATTI(0):accelZ,IMU_ATTI(0):accelComposite:C,IMU_ATTI(0):gyroX,IMU_ATTI(0):gyroY,IMU_ATTI(0):gyroZ,IMU_ATTI(0):gyroComposite:C,IMU_ATTI(0):velN,IMU_ATTI(0):velE,IMU_ATTI(0):velD,IMU_ATTI(0):velComposite:C,IMU_ATTI(0):velH:C,IMU_ATTI(0):magX,IMU_ATTI(0):magY,IMU_ATTI(0):magZ,IMU_ATTI(0):magMod:C,IMU_ATTI(0):temperature,IMU_ATTI(0):yawUnWrapped:C,IMU_ATTI(0):tiltInclination:C,IMU_ATTI(0):tiltDirectionEarthFrame:C,IMU_ATTI(0):tiltDirectionBodyFrame:C,IMU_ATTI(0):yaw360:C,IMU_ATTI(0):magYaw:C,IMU_ATTI(0):Yaw-magYaw:C,IMUCalcs(0):PosN:C,IMUCalcs(0):PosE:C,IMUCalcs(0):PosD:C,IMUCalcs(0):height:C,IMUCalcs(0):velN:C,IMUCalcs(0):velE:C,IMUCalcs(0):velD:C,IMUCalcs(0):diffVelN:C,IMUCalcs(0):diffVelE:C,IMUCalcs(0):diffVelD:C,IMUCalcs(0):Lat:C,IMUCalcs(0):Long:C,IMUCalcs(0):VelocityError:C,IMUCalcs(0):PositionError:C,IMUCalcs(0):totalGyroZ:C,IMUCalcs(0):totalGyroX:C,IMUCalcs(0):totalGyroY:C,IMU_ATTI(0):distanceHP:C,IMU_ATTI(0):distanceTravelled:C,IMU_ATTI(0):directionOfTravel[mag]:C,IMU_ATTI(0):directionOfTravel[true]:C,IMU_ATTI(0):quatW:D,IMU_ATTI(0):quatX:D,IMU_ATTI(0):quatY:D,IMU_ATTI(0):quatZ:D,IMU_ATTI(0):agX:D,IMU_ATTI(0):agY:D,IMU_ATTI(0):agZ:D,IMU_ATTI(0):gbX:D,IMU_ATTI(0):gbY:D,IMU_ATTI(0):gbZ:D,IMU_ATTI(0):ty:D,IMU_ATTI(0):tz:D,IMU_ATTI(0):sensor_stat:D,IMU_ATTI(0):filter_stat:D,IMU_ATTI(0):atti_cnt:D,GPS:Long,GPS:Lat,GPS:Date,GPS:Time,GPS:dateTimeStamp,GPS:heightMSL,GPS:hDOP,GPS:pDOP,GPS:sAcc,GPS:numGPS,GPS:numGLNAS,GPS:numSV,GPS:velN,GPS:velE,GPS:velD,GPS:rawDate,GPS:rawTime,Controller:ctrl_tick:D,Controller:ctrl_pitch:D,Controller:ctrl_roll:D,Controller:ctrl_yaw:D,Controller:ctrl_thr:D,Controller:ctrl_mode,Controller:mode_switch:D,Controller:motor_state:D,Controller:sig_level:D,Controller:ctrl_level:D,Controller:sim_model:D,Controller:max_height:D,Controller:max_radius:D,Controller:D2H_x:D,Controller:D2H_y:D,Controller:act_req_id:D,Controller:act_act_id:D,Controller:cmd_mod:D,Controller:mod_req_id:D,Controller:fw_flag:D,Controller:mot_sta:D,Controller:OH_take:D,Controller:OH_take_f:D,Controller:rc_cnt:D,Controller:sup_rc:D,Controller:is_soaring_up:D,Controller:soar_up_timer:D,Controller:vert_vel_err:D,Controller:vert_vel_err_fltr:D,RC_Info:failSafe,RC_Info:dataLost,RC_Info:appLost,RC_Info:sigStrength:C,RC_Info:cur_cmd:D,RC_Info:vedio_lost:D,RC_Info:frame_lost:D,RC_Info:rec_cnt:D,RC_Info:sky_con:D,RC_Info:gnd_con:D,RC_Info:connected:D,RC_Info:m_changed:D,RC_Info:arm_status:D,RC_Info:wifi_en:D,RC_Info:in_wifi:D,MagCali(0):X:D,MagCali(0):Y:D,MagCali(0):Z:D,MagCali(0):Mod:C,MagCali(0):magYaw:C,MagCali(1):X:D,MagCali(1):Y:D,MagCali(1):Z:D,MagCali(1):Mod:C,MagCali(1):magYaw:C,CompassFilter(0):X:D,CompassFilter(0):Y:D,CompassFilter(0):Z:D,CompassFilter(1):X:D,CompassFilter(1):Y:D,CompassFilter(1):Z:D,BatteryStatus:not_ready,BatteryStatus:comm_err,BatteryStatus:first_auth,BatteryStatus:auth_fail,BatteryStatus:need_re,BatteryStatus:volVerylow,BatteryStatus:volNotsafe,BatteryStatus:volLevel1:D,BatteryStatus:vollevel2:D,BatteryStatus:capLevel1:D,BatteryStatus:capLevel2:D,BatteryStatus:smartCap1:D,BatteryStatus:smartCap2:D,BatteryStatus:d_flg:D,BatteryStatus:ccsc:D,BatteryStatus:all:D,SMART_BATT:goHome%,SMART_BATT:land%,SMART_BATT:goHomeTime,SMART_BATT:landTime,OA:avoidObst,OA:emergBrake,OA:radiusLimit,OA:airportLimit,OA:groundForceLanding,OA:horizNearBoundary,OA:vertLowLimit,OA:vertAirportLimit,OA:roofLimit,OA:hitGroundLimit,OA:frontDistance,MVO:velX,MVO:velY,MVO:velZ,MVO:posX,MVO:posY,MVO:posZ,MVO:hoverPointUncertainty1,MVO:hoverPointUncertainty2,MVO:hoverPointUncertainty3,MVO:hoverPointUncertainty4,MVO:hoverPointUncertainty5,MVO:hoverPointUncertainty6,MVO:velocityUncertainty1,MVO:velocityUncertainty2,MVO:velocityUncertainty3,MVO:velocityUncertainty4,MVO:velocityUncertainty5,MVO:velocityUncertainty6,MVO:height,MVO:heightUncertainty,Motor:Speed:RFront,Motor:Speed:LFront,Motor:Speed:LBack,Motor:Speed:RBack,Motor:EscTemp:RFront,Motor:EscTemp:LFront,Motor:EscTemp:LBack,Motor:EscTemp:RBack,Motor:PPMrecv:RFront,Motor:PPMrecv:LFront,Motor:PPMrecv:LBack,Motor:PPMrecv:RBack,Motor:PPMsend:RFront,Motor:PPMsend:LFront,Motor:PPMsend:LBack,Motor:PPMsend:RBack,Motor:V_out:RFront,Motor:V_out:LFront,Motor:V_out:LBack,Motor:V_out:RBack,Motor:Volts:RFront,Motor:Volts:LFront,Motor:Volts:LBack,Motor:Volts:RBack,Motor:Current:RFront,Motor:Current:LFront,Motor:Current:LBack,Motor:Current:RBack,Motor:Status:RFront,Motor:Status:LFront,Motor:Status:LBack,Motor:Status:RBack,AirSpeed:air_vbx:D,AirSpeed:air_vby:D,AirSpeed:comp_alti:D,AirSpeed:windSpeed,AirSpeed:windDirection,AirSpeed:windFromDir,AirSpeed:windN,AirSpeed:windE,AirSpeed:MotorSpd:D,AirSpeed:vel_level:D,eventLog,osd_data:flyCState,osd_data:flycCommand,osd_data:flightAction,osd_data:nonGPSCause,osd_data:compassError,osd_data:connectedToRC,osd_data:lowVoltage,osd_data:ModeSwitch,osd_data:gpsUsed,osd_data:visionUsed,osd_data:notEnoughForce,osd_data:flightTime,osd_data:navHealth,osd_data:vpsHeight,osd_data:relativeHeight,usonic:usonic_h,MotorCtrl:PWM:RFront,MotorCtrl:PWM:LFront,MotorCtrl:PWM:LBack,MotorCtrl:PWM:RBack,ATTI_MINI0:s_qw0,ATTI_MINI0:s_qx0,ATTI_MINI0:s_qy0,ATTI_MINI0:s_qz0,ATTI_MINI0:roll:C,ATTI_MINI0:pitch:C,ATTI_MINI0:yaw:C,ATTI_MINI0:s_pgz0,ATTI_MINI0:s_vgz0,ATTI_MINI0:s_agz0,ATTI_MINI0:s_rsv00,ATTI_MINI0:s_rsv10,ATTI_MINI0:s_cnt0,BatteryInfo:ad_v:D,BatteryInfo:r_time,BatteryInfo:ave_I:D,BatteryInfo:vol_t:D,BatteryInfo:pack_ve:D,BatteryInfo:I:D,BatteryInfo:r_cap:D,BatteryInfo:cap_per:D,BatteryInfo:temp:D,BatteryInfo:right:D,BatteryInfo:l_cell:D,BatteryInfo:dyna_cnt:D,BatteryInfo:f_cap:D,BatteryInfo:out_ctl:D,BatteryInfo:out_ctl_f:D,Attribute|Value,ConvertDatV3,4.3.0
0,-2.607,,,,,,,,,,,,,,,,,,,,,,,,,,,,,,,,,,,,,,,,,,,,,,,,,,,,,,,,,,,,,,,,,,,,,,,,,,,,,,,,,,,,,,,,,,,,,,,,,,,,,,,,,,,,,,,,,,,,,,,,,,,,,,,,,,,,,,,,,,,,,,,,,,,,,,,,,,,,,,,,,,,,,,,,,,,,,,,,,,,,,,,,,,,,,,,,,,,,,,,,,,,,,,,,,,,,,,,,,,,,,,,,,,,,,,,,,,,,,,,,,,,,,,,,,,,,,,,,,,,,,,,,,,,,,,,,,,,,,,,,,,,,,,,,,,
11731445,.000,,,,,,,,,,,,,,,,,,,,,,,,,,,,,,,,,,,,,,,,,,,,,,,,,,,,,,,,,,,,,,,,,,,,,,,,,,,,,,,,,,,,,,,,,,,,,,,,,,,,,,,,,,,,,,,,,,,,,,,,,,,,,,,,,,,,,,,,,,,,,,,,,,,,,,,,,,,,,,,,,,,,,,,,,,,,,,,,,,,,,,,,,,,,,,,,,,,,,,0.0,,,,,,,,,,,,,,,,,,,,,,,,,,,,,,,,,,,,,,,,,,,,{root}INFO:lib_route_init ok,,,,,,,,P,,,,,,,,,,,,,,,,,,,,,,,,,,,,,,,,,,,,,,,,,Firmware Date| Nov 16 2017
17137908,1.201,,,,,,,,,,,,,,,,,,,,,,,,,,,,,,,,,,,,,,,,,,,,,,,,,,,,,,,,,,,,,,,,,,,,,,,,,,,,,,,,,,,,,,,,,,,,,,,,,,,,,,,,,,,,,,,,,,,,,,,,,,,,,,,,,,,,,,,,,,,,,,,,,,,,,,,,,,,,,,,,,,,,,,,,,,,,,,,,,,,,,,,,,,,,,,,,,,,,,,0.0,,,,,,,,,,,,,,,,,,,,,,,,,,,,,,,,,,,,,,,,,,,,{root}INFO:link_host_init ok.|||{root}INFO:link_init <0> link_host. ret(0x0)|||{root}INFO:link_init <1> link_pc. ret(0x0)|||{root}INFO:link_init <2> link_vo. ret(0x0)|||{root}INFO:link_init <3> link_ap. ret(0x0)|||{root}INFO:link_init <4> link_sdk. ret(0x0)|||{root}INFO:link_init <5> link_ofdm. ret(0x0)|||{root}INFO:link_init <6> link_auto_cali. ret(0x0)|||{root}INFO:link_init <7> link_manual_cali. ret(0x0)|||{root}INFO:link_init <8> link_cali_led. ret(0x0)|||      0 [L-SENSOR][ASR]sync host lead offset 0x11a|||{root}INFO:[panic]:******************check fault info and trace(0) ************|||{root}INFO:[panic]:-----fault info is null: addr(0x2045e800).flag(0x3f705a6b)-----|||{root}INFO:[panic]:-----fault info is null: addr(0x2045e938).flag(0x9da8db8e)-----|||{root}INFO:[panic]:-----all task info  is null: addr(0x2045ea70).flag(0x067459d4)-----|||{root}INFO:[panic]:-----trace info  is null: addr(0x2045f260).flag(0x5776a10a)-----|||{root}INFO:[panic]:******************check last trace ******************|||{root}INFO:[panic]:-----trace info  is null: addr(0x2045eca0).flag(0x1b1baae2)-----|||      0 [L-SENSOR][ASR]asr host sync start|{root}INFO:[panic]:-----wdg_time_info is null: addr(0x2045f820).flag(0xa3eeddbc)-----|||      0 [L-SENSOR] hw_ver voltage: 0,,,,,,,,P,,,,,,,,,,,,,,,,,,,,,,,,,,,,,,,,,,,,,,,,,ACType|P4
21276051,2.121,,,,,,,,,,,,,,,,,,,,,,,,,,,,,,,,,,,,,,,,,,,,,,,,,,,,,,,,,,,,,,,,,,,,,,,,,,,,,,,,,,,,,,,,,,,,,,,,,,,,,,,,,,,,,,,,,,,,,,,,,,,,,,,,,,,,,,,,,,,,,,,,,,,,,,,,,,,,,,,,,,,,,,,,,,,,,,,,,,,,,,,,,,,,,,,,,,,,,,0.0,,,,,,,,,,,,,,,,,,,,,,,,,,,,,,,,,,,,,,,,,,,,      0 [L-SIM]read parameter successfully!,,,,,,,,P,,,,,,,,,,,,,,,,,,,,,,,,,,,,,,,,,,,,,,,,,
21501529,2.171,,,,,,,,,,,,,,,,,,,,,,,,,,,,,,,,,,,,,,,,,,,,,,,,,,,,,,,,,,,,,,,,,,,,,,,,,,,,,,,,,,,,,,,,,,,,,,,,,,,,,,,,,,,,,,,,,,,,,,,,,,,,,,,,,,,,,,,,,,,,,,,,,,,,,,,,,,,,,,,,,,,,,,,,,,,,,,,,,,,,,,,,,,,,,,,,,,,,,,0.0,,,,,,,,,,,,,,,,,,,,,,,,,,,,,,,,,,,,,,,,,,,,      0 [L-FMU/MOTOR]read motor force disable flag successfully!|      0 [L-FMU/DM]success reg dev type  3(A3). id:2. total num:2|      0 [L-SENSOR][ASR]need re sync host load_offset. freq=0x190|||      0 [L-SENSOR][ASR]need re sync host load_offset. freq=0x190|||      0 [L-SENSOR][ASR]sync host lead offset 0x11a|||      0 [L-SENSOR][ASR]need re sync host load_offset. freq=0x190|||      0 [L-SENSOR][ASR]need re sync host load_offset. freq=0x190|||      0 [L-SENSOR]imu group0 ok|      0 [L-GYRO_ACC]imu_0 group->sensor_id:e36a51 |      0 [L-GYRO_ACC]turn on temp ctrl(0). cur_temp:-50.0. reason:temp ctrl core init|      0 [L-SENSOR][ASR]asr host sync start|      0 [L-GYRO_ACC]turn on temp ctrl(0). cur_temp:0.0. reason:gyro_acc_tmp_ctl_init|      0 [L-GYRO_ACC]fitler-angular_vel. cheby2_config_7th|      0 [L-GYRO_ACC]fz: 160.000000 hz.50.000000 dB|      0 [L-GYRO_ACC]fitler-linear_acc. butter_config_3rd_z2|      0 [L-GYRO_ACC] fp= 16.000000 hz; fz=100.000000 hz fs=2000.000000|      0 [L-GYRO_ACC]bandpass: fp= 50.000000 hz; fs=350.000000 hz; sample=2000.000000|      0 [L-FDI][IMU]0 dir ok 1.000000 0.000000 0.000000 0.000000 1.000000 0.000000 0.000000 0.|      0 [L-FDI][IMU]0 mis cali ok|      0 [L-FDI][IMU]0 level 1&2 temp cali ok|      0 [L-FDI][IMU]0 base cali ok ff aa|      0 [L-FDI][IMU]0 cali ver ok ff 4 6 6|      0 [L-FMU/DM]success reg dev type  8(gyro_acc0). id:3. total num:3|      0 [L-SENSOR]imu group1 ok|      0 [L-GYRO_ACC]imu_1 group->sensor_id:20e36a51 |      0 [L-GYRO_ACC]turn on temp ctrl(1). cur_temp:-50.0. reason:temp ctrl core init|      0 [L-GYRO_ACC]turn on temp ctrl(1). cur_temp:0.0. reason:gyro_acc_tmp_ctl_init|      0 [L-GYRO_ACC]fitler-angular_vel. cheby2_config_7th|      0 [L-GYRO_ACC]fz: 160.000000 hz.50.000000 dB|      0 [L-GYRO_ACC]fitler-linear_acc. butter_config_3rd_z2|      0 [L-GYRO_ACC] fp= 16.000000 hz; fz=100.000000 hz fs=2000.000000|      0 [L-GYRO_ACC]bandpass: fp= 50.000000 hz; fs=350.000000 hz; sample=2000.000000|      0 [L-FDI][IMU]1 dir ok 1.000000 0.000000 0.000000 0.000000 1.000000 0.000000 0.000000 0.|      0 [L-FDI][IMU]1 mis cali ok|      0 [L-FDI][IMU]1 level 1&2 temp cali ok|      0 [L-FDI][IMU]1 base cali ok ff aa|      0 [L-FDI][IMU]1 cali ver ok ff 4 6 6|      0 [L-FMU/DM]success reg dev type  8(gyro_acc1). id:4. total num:4|      0 [L-SENSOR][ASR]sync host lead offset 0x11a|||      0 [L-SENSOR][ASR]asr host sync start|      0 [L-SENSOR]baro group0 ok|      0 [L-FMU/DM]success reg dev type  9(baro0). id:5. total num:5|      0 [L-SENSOR]compass group0 ok|      0 [L-FMU/DM]success reg dev type 10(compass0). id:6. total num:6|      0 [L-SENSOR]compass group1 ok|      0 [L-FMU/DM]success reg dev type 10(compass0). id:7. total num:7|      0 [L-FMU/DM]success reg dev type  4(imu0_local). id:8. total num:8|      0 [L-FMU/DM]success reg dev type 19(rc0). id:9. total num:9|      0 [L-FMU/DM]success reg dev type 15(zenmus0). id:10. total num:10|      0 [L-FMU/DM]success reg dev type 14(camera0). id:11. total num:11|      0 [L-FMU/DM]success reg dev type 12(vo0). id:12. total num:12|      0 [L-FMU/DM]success reg dev type 11(ultrasonic0). id:13. total num:13|      0 [L-GPS]<AGPS INFO>comm agps init.agps mode :HOST-BASE|      0 [L-SDK][USER] api cfg load success (BR:921600)!|||      0 [L-FMU/DM]success reg dev type 22(sdk0). id:14. total num:14|      0 [L-BATTERY]-------comm_bat_init-------|      0 [L-FMU/DM]success reg dev type 26(battery0). id:15. total num:15|      0 [L-BATTERY]bat_auth_origa_init|      0 [L-BATTERY]bat_auth_origa_stop|      0 [L-FMU/DM]success reg dev type 32(wristband0). id:16. total num:16|      0 [L-FMU/DM]success reg dev type 33(headset0). id:17. total num:17|      0 [L-PWM]actuator_cfg_changed![ACTUATOR_0],,,,,,,,P,,,,,,,,,,,,,,,,,,,,,,,,,,,,,,,,,,,,,,,,,
21728162,2.221,,,0.0,-0.0,,,0,NaN,0.0,0.0,-0.016691428,-0.0071143666,-0.114027254,0.11546183,0.40668365,0.4723583,-0.16623588,0.6450956,0.0,0.0,0.0,0.0,0.0,99,-251,485,555.0,0.0,0.0,NaN,NaN,NaN,0.0,NaN,NaN,0.0,0.0,0.0,-0.0,NaN,NaN,NaN,NaN,NaN,NaN,NaN,NaN,false,false,-4.129437503728184E-4,0.0010102360217061346,0.001173377272081666,,0.0,,,0.0,0.0,0.0,0.0,0.0,0.0,0.0,0.0,0.0,0.0,0,0,0,0,5,,,,,,,,,,,,,,,,,,,,,,,,,,,,,,,,,,,,,,,,,,,,,,,,,,,,,,,,,,,,,,99,-251,485,555.0,NaN,-61,-229,428,489.0,NaN,33,-83,161,-20,-76,142,,,,,,,,,,,,,,,,,,,,,,,,,,,,,,,,,,,,,,,,,,,,,,,,,,0.0,,,,,,,,,,,,,,,,,,,,,,,,,,,,,,,,,,,,,,,,,,,,      0 [L-PWM]actuator_cfg_changed![ACTUATOR_1]|      0 [L-PWM]actuator_cfg_changed![ACTUATOR_2]|      0 [L-PWM]actuator_cfg_changed![ACTUATOR_3]|      0 [L-PWM]actuator_cfg_changed![ACTUATOR_4]|      0 [L-PWM]actuator_cfg_changed![ACTUATOR_5]|      0 [L-PWM]actuator_cfg_changed![ACTUATOR_6]|      0 [L-PWM]actuator_cfg_changed![ACTUATOR_7]|      0 [L-PWM]set actuator mode:IDLE|      0 [L-PWM]f_chl_cfg changed!|      0 [L-FMU/DM]success reg dev type 17(). id:18. total num:18|      0 [L-FMU/DM]success reg dev type  0(esc4). id:19. total num:19|      0 [L-FMU/DM]success reg dev type 16(GEAR). id:20. total num:20|      0 [L-FMU/DM]success reg dev type 24(DROPSAFE). id:21. total num:21|      0 [L-FMU/DM]success reg dev type 34(PITOT). id:22. total num:22|      0 [L-DBG1][Init]Init ok:|      0 [L-DBG1][Init]HF task : 400Hz @ mode2|      0 [L-DBG1][Init]LF task : 50Hz @ mode0|      0 [L-DBG1][Init]Tail: 400Hz Atti: 200Hz|      0 [L-DBG1][Init]Init ok:|      0 [L-DBG1][Init]MF task : 200Hz @ mode4|      0 [L-USER][USER]Read user config!|      0 [L-USER][USER]Read statistical info!|      0 [L-USER][USER]Read statistical info!|{root}INFO:reset by power.|||{root}INFO:iwdg_set_time_out time_out(0x00000a23)!|{root}INFO:wdg_set_swdg_time_out time_out(2595) set g_swdg_timeout_max(480) |||{root}INFO:watchdog enable.|||      0 [L-SENSOR][ASR]ASR sync start(start).phase lead = 0|      0 [L-GPS]<GPS INFO>m8_poll_uniqid gps[0][0]|      0 [L-GPS]<GPS ERROR>m8 uid not received!|      0 [L-SDK][USER] Init_dji_api_protocol start!|||      0 [L-SDK][USER] Baud_rate: 921600 |||      0 [L-SDK][USER]----------start sdk protocol ---------|||      0 [L-CTRL]horiz vel complement filter fc:0.300000|      0 [L-CTRL]vert vel complement filter fc:0.300000|      0 [L-NS][AHRS] baro abp : 0.100000|      0 [L-NS][AHRS] baro a   : 0.998000|      0 [L-NS][AHRS] baro v   : 0.620000|      0 [L-NS][AHRS] baro p   : 0.680000|      0 [L-NS][AHRS] mag_gain: 100|      0 [L-NS][AHRS]  fs_gnss_hp        :  1|      0 [L-NS][AHRS]  fs_gnss_hv        :  1|      0 [L-NS][AHRS]  fs_gnss_vp        :  1|      0 [L-NS][AHRS]  fs_vodm_hp        :  1|      0 [L-NS][AHRS]  fs_vodm_hv        :  1|      0 [L-NS][AHRS]  fs_vodm_vp        :  1|      0 [L-NS][AHRS]  fs_vodm_vv        :  1|      0 [L-NS][AHRS]  fs_vodm_vh        :  1|      0 [L-NS][AHRS]  fs_usnc_vp        :  1|      0 [L-NS][AHRS]  fs_baro_vp        :  1|      0 [L-NS][AHRS]  fs_magn_yaw       :  1|      0 [L-NS][AHRS]  dlt_gnss_hp       : 35|      0 [L-NS][AHRS]  dlt_gnss_hv       : 55|      0 [L-NS][AHRS]  dlt_gnss_vp       : 35|      0 [L-NS][AHRS]  dlt_gnss_vv       : 55|      0 [L-NS][AHRS]  dlt_vodm_hp       :  4|      0 [L-NS][AHRS]  dlt_vodm_hv       :  4|      0 [L-NS][AHRS]  dlt_vodm_vp       :  4|      0 [L-NS][AHRS]  dlt_vodm_vv       :  4|      0 [L-NS][AHRS]  dlt_vodm_vh       :  4|      0 [L-NS][AHRS]  dlt_rtks_hp_p     : 60|      0 [L-NS][AHRS]  dlt_rtks_hp_s     : 60|      0 [L-NS][AHRS]  dlt_rtks_hv       : 60|      0 [L-NS][AHRS]  dlt_rtks_vp_p     : 40|      0 [L-NS][AHRS]  dlt_rtks_vp_s     : 60|      0 [L-NS][AHRS]  dlt_rtks_vv       : 60|      0 [L-NS][AHRS]  dlt_rtks_yaw      : 60|      0 [L-NS][AHRS]  dlt_magn_yaw      :  5|      0 [L-NS][AHRS]  thermostatic_temp : 65|      0 [L-NS][AHRS]  ground_effect_ht  : 50|      0 [L-NS][AHRS] Rgps:0.000.0.000.-0.030|||      0 [L-NS][AHRS] Rimu:0.023.0.013.-0.014|||      0 [L-NS][AHRS]version: V3_20161218_[09],,,,,,,,P,,,,,,,,,,,,,,,,,,,,,,,,,,,,,,,,,,,,,,,,,
23069183,2.519,,,0.0,-0.0,,,0,NaN,0.0,0.0,-0.01741568,-0.0010116168,-0.5072411,0.50754094,0.32416204,0.56614715,-0.15316328,0.6701214,0.0,0.0,0.0,0.0,0.0,99,-251,485,555.0,0.0,0.0,NaN,NaN,NaN,0.0,NaN,NaN,0.0,0.0,0.0,-0.0,NaN,NaN,NaN,NaN,NaN,NaN,NaN,NaN,false,false,-0.002207645909781064,0.00506951727081173,0.006075952642248694,,0.0,,,0.0,0.0,0.0,0.0,0.0,0.0,0.0,0.0,0.0,0.0,0,0,0,0,9,,,,,,,,,,,,,,,,,,0,0,0,0,0,Manual,0,0,0,0,0,100,5000,0.0,0.0,0,5,0,0,0,0,0,0,0,0,0,0.0,0.0,0.0,,,,,,,,,,,,,,,,99,-251,485,555.0,NaN,-61,-227,427,487.0,NaN,95,-242,468,-58,-220,413,,,,,,,,,,,,,,,,,,,,,,,,,,,,,,,,,,,,,,,,,,,,,,,,,,0.0,,,,,,,,,,,,,,,,,,,,,,,,,,,,,,,,,,0.0,0.0,0.0,0.0,0.0,180.0,0.0,0.0,0.0,0,,,,,,,,,P,,,,,,,,,,,,,0.0,0.0,0.0,0.0,NaN,NaN,NaN,0.0,0.0,0.0,0,0,0,,,,,,,,,,,,,,,,
23296548,2.570,,,0.0,-0.0,,,0,NaN,0.0,0.0,-0.011603334,0.009232667,-0.98110485,0.9812169,-0.10931224,-0.087597534,-0.6529864,0.6678426,0.0,0.0,0.0,0.0,0.0,-116,-589,1488,1604.0,54.8,0.0,NaN,NaN,NaN,0.0,NaN,NaN,0.0,0.0,0.0,-0.0,NaN,NaN,NaN,NaN,NaN,NaN,NaN,NaN,false,false,-0.040738697868263785,0.0698097166307948,0.08877639271603166,,0.0,,,0.0,0.0,0.0,0.0,0.0,0.0,0.0,0.0,0.0,0.0,-2200,3081,0,0,145,,,,,,,,,,,,,,,,,,17,0,0,0,0,Manual,0,0,0,0,0,30,50,0.0,0.0,0,5,0,0,0,0,0,0,0,0,0,0.0,0.0,0.0,Hover,,lost,0.0,0,0,0,0,0,0,0,0,0,1,0,-116,-589,1488,1604.0,NaN,-133,-711,1499,1664.0,NaN,96,-253,485,-62,-228,427,,,,,,,,,,,,,,,,,,,,,,,,,,,,,,,,,,,,,,,,,,,,,,,,,,0.0,,,,,,,,,,,,,,,,,,,,,,,,,,,,,,,,,,0.0,0.0,0.0,0.0,0.0,180.0,0.0,0.0,0.0,0,{task_sd}INFO:dyn_map_mem_init input:0x204101f0.0x20411ae8.0x800.|||{task_sd}INFO:dyn_map_mem_init ok:0x20411ae8.0x20.0x40.||,,,,,,,,P,,,,,,,,,,,,,0.0,0.0,0.0,0.0,NaN,NaN,NaN,0.0,0.0,0.0,0,0,0,13280,0,0.0,0.0,0,0,0,0,0,1,0,0,0,0.0,0.0,
23521554,2.620,,,0.0,-0.0,,,0,NaN,0.0,0.0,-0.012460528,0.01331878,-0.98231936,0.9824887,-0.34571156,0.28817746,0.2398063,0.50997037,0.0,0.0,0.0,0.0,0.0,-106,-580,1488,1600.0,54.75,0.0,NaN,NaN,NaN,0.0,NaN,NaN,0.0,0.0,0.0,-0.0,NaN,NaN,NaN,NaN,NaN,NaN,NaN,NaN,false,false,-0.04377653215965083,0.07277595713790838,0.08576873653279571,,0.0,,,0.0,0.0,0.0,0.0,0.0,0.0,0.0,0.0,0.0,0.0,-2200,3083,0,0,165,,,,,,,,,,,,,,,,,,19,0,0,0,0,Manual,0,0,0,0,0,30,50,0.0,0.0,0,5,0,0,0,0,0,0,0,0,0,0.0,0.0,0.0,Hover,,lost,0.0,0,0,0,0,0,0,0,0,0,1,0,-106,-580,1488,1600.0,NaN,-98,-725,1418,1595.0,NaN,97,-254,484,-60,-229,419,,,,,,,,,,,,,,,,,,,,,,,,,,,,,,,,,,,,,,,,,,,,,,,,,,0.0,,,,,,,,,,,,,,,,,,,,,,,,,,,,,,,,,,0.0,0.0,0.0,0.0,0.0,180.0,0.0,0.0,0.0,0,,Manual,OTHER,NONE,GPS_POSITION_NONMATCH,True,Connected,,P,False,False,False,0,0,,0.0,,,,,,0.0,0.0,0.0,0.0,NaN,NaN,NaN,0.0,0.0,0.0,0,0,0,13766,0,0.0,0.0,0,0,0,0,0,1,0,0,0,0.0,0.0,
23746587,2.670,,,0.0,-0.0,,,0,NaN,0.0,0.0,-0.010544441,0.009395887,-0.9809968,0.9810985,-0.2995695,-0.53367805,-0.013207639,0.6121508,0.0,0.0,0.0,0.0,0.0,-116,-583,1491,1605.0,54.71,0.0,NaN,NaN,NaN,0.0,NaN,NaN,0.0,0.0,0.0,-0.0,NaN,NaN,NaN,NaN,NaN,NaN,NaN,NaN,false,false,-0.049841438039807784,0.07015130015339985,0.08204955481690868,,0.0,,,0.0,0.0,0.0,0.0,0.0,0.0,0.0,0.0,0.0,0.0,-2200,3083,0,0,185,,,,,,,,,,,,,,,,,,22,0,0,0,0,Manual,0,0,0,0,0,30,50,0.0,0.0,0,5,0,0,0,0,0,0,0,0,0,0.0,0.0,0.0,Hover,,lost,0.0,0,0,0,0,0,0,0,0,0,1,0,-116,-583,1491,1605.0,NaN,-137,-714,1505,1671.0,NaN,95,-252,485,-64,-228,429,,,,,,,,,,,,,,,,,,,,,,,,,,,,,,,,,,,,,,,,,,,,,,,,,,0.0,,,,,,,,,,,,,,,,,,,,,,,,,,,,,,,,,,0.0,0.0,0.0,0.0,0.0,180.0,0.0,0.0,0.0,0,,Manual,OTHER,NONE,GPS_POSITION_NONMATCH,True,Connected,,P,False,False,False,0,0,,0.0,,,,,,0.0,0.0,0.0,0.0,NaN,NaN,NaN,0.0,0.0,0.0,0,0,0,14300,0,0.0,0.0,0,0,0,0,0,1,0,0,0,0.0,0.0,
23971734,2.720,,,-59.47255,-0.0,,,0,NaN,0.0,0.0,-0.011007162,0.011435886,-0.9803887,0.9805172,0.11885547,0.2413634,-0.034060366,0.27118817,0.0,0.0,0.0,0.0,0.0,-110,-580,1494,1606.0,54.71,0.0,NaN,NaN,NaN,0.0,NaN,NaN,0.0,0.0,0.0,-0.0,NaN,NaN,NaN,NaN,NaN,NaN,NaN,NaN,false,false,-0.06045959044109761,0.07501914807036567,0.07463344835372632,,0.0,,,0.0,0.0,0.0,0.0,0.0,0.0,0.0,0.0,0.0,0.0,-2200,3086,0,0,205,,,,,,,,,,,,,,,,,,24,0,0,0,0,Manual,0,0,0,0,0,30,50,0.0,0.0,0,5,0,0,0,0,0,0,0,0,0,0.0,0.0,0.0,Hover,,lost,0.0,0,0,0,0,0,0,0,0,0,1,0,-110,-580,1494,1606.0,NaN,-133,-705,1526,1686.0,NaN,97,-252,486,-60,-229,427,,,,,,,,,,,,,,,,,,,,,,,,,,,,,,,,,,,,,,,,,,,,,,,,,,0.0,,,,,,,,,,,,,,,,,,,,,,,,,,,,,,,,,,0.0,0.0,0.0,0.0,0.0,180.0,0.0,0.0,0.0,0,     25 [L-SENSOR][baro(0)] connect|     25 [L-SENSOR][baro(0)] reset filter: 102.0 fc: 30.0 hz 30.0 30.0 1,Manual,OTHER,NONE,GPS_POSITION_NONMATCH,True,Connected,,P,False,False,False,0,0,,0.0,,,,,,0.0,0.0,0.0,0.0,NaN,NaN,NaN,0.0,0.0,0.0,0,0,0,14558,0,0.0,0.0,0,0,0,0,0,1,0,0,0,0.0,0.0,
24196906,2.770,,,-59.76309,-0.0,,,0,NaN,0.0,0.0,-0.011253728,0.013276204,-0.98005396,0.9802085,-0.03455538,-0.09013889,0.057810795,0.11252192,0.0,0.0,0.0,0.0,0.0,-113,-586,1482,1597.0,54.68,0.0,NaN,NaN,NaN,0.0,NaN,NaN,0.0,0.0,0.0,-0.0,NaN,NaN,NaN,NaN,NaN,NaN,NaN,NaN,false,false,-0.0691183598477787,0.07037895835542748,0.06728595941847515,,0.0,,,0.0,0.0,0.0,0.0,0.0,0.0,0.0,0.0,0.0,0.0,-2200,3086,0,0,225,,,,,,,,,,,,,,,,,,27,0,0,0,0,Manual,0,0,0,0,0,30,50,0.0,0.0,0,5,0,0,0,0,0,0,0,0,0,0.0,0.0,0.0,Hover,,lost,0.0,0,0,0,0,0,0,0,0,0,1,0,-113,-586,1482,1597.0,NaN,-115,-714,1517,1680.0,NaN,97,-252,484,-58,-229,432,,,,,,,,,,,,,,,,,,,,,,,,,,,,,,,,,,,,,,,,,,,,,,,,,,0.0,,,,,,,,,,,,,,,,,,,,,,,,,,,,,,,,,,0.0,0.0,0.0,0.0,0.0,180.0,0.0,0.0,0.0,0,,Manual,OTHER,NONE,GPS_POSITION_NONMATCH,True,Connected,,P,False,False,False,0,0,,0.0,,,,,,0.0,0.0,0.0,0.0,NaN,NaN,NaN,0.0,0.0,0.0,0,0,0,14841,0,0.0,0.0,0,0,0,0,0,1,0,0,0,0.0,0.0,
24421922,2.820,,,-59.89815,-0.0,,,0,NaN,0.0,0.0,-0.009598568,0.0076592187,-0.9825726,0.9826493,0.07012172,-0.4929532,-0.4462597,0.6686312,0.0,0.0,0.0,0.0,0.0,-110,-580,1485,1598.0,54.6,0.0,NaN,NaN,NaN,0.0,NaN,NaN,0.0,0.0,0.0,-0.0,NaN,NaN,NaN,NaN,NaN,NaN,NaN,NaN,false,false,-0.07422765687926969,0.07393812184816226,0.06457726974443712,,0.0,,,0.0,0.0,0.0,0.0,0.0,0.0,0.0,0.0,0.0,0.0,-2200,3087,0,0,245,,,,,,,,,,,,,,,,,,29,0,0,0,0,Manual,0,0,0,0,0,30,50,0.0,0.0,0,5,0,0,0,0,0,0,0,0,0,0.0,0.0,0.0,Hover,,lost,0.0,0,0,0,0,0,0,0,0,0,1,0,-110,-580,1485,1598.0,NaN,-101,-691,1499,1653.0,NaN,97,-253,483,-57,-224,433,,,,,,,,,,,,,,,,,,,,,,,,,,,,,,,,,,,,,,,,,,,,,,,,,,0.0,,,,,,,,,,,,,,,,,,,,,,,,,,,,,,,,,,0.0,0.0,0.0,0.0,0.0,180.0,0.0,0.0,0.0,0,,Manual,OTHER,NONE,GPS_POSITION_NONMATCH,True,Connected,,P,False,False,False,0,0,,0.0,,,,,,0.0,0.0,0.0,0.0,NaN,NaN,NaN,0.0,0.0,0.0,0,0,0,14978,0,0.0,0.0,0,0,0,0,0,1,0,0,0,0.0,0.0,
24647522,2.870,,,-59.791355,-0.0,,,0,NaN,0.0,0.0,-0.010810936,0.012385036,-0.9821228,0.98226035,0.47017747,0.15224375,-0.32476553,0.59136933,0.0,0.0,0.0,0.0,0.0,-110,-583,1494,1607.0,54.58,0.0,NaN,NaN,NaN,0.0,NaN,NaN,0.0,0.0,0.0,-0.0,NaN,NaN,NaN,NaN,NaN,NaN,NaN,NaN,false,false,-0.08212205790756144,0.07382725990509217,0.05345903414777875,,0.0,,,0.0,0.0,0.0,0.0,0.0,0.0,0.0,0.0,0.0,0.0,-2200,3087,0,0,265,,,,,,,,,,,,,,,,,,32,0,0,0,0,Manual,0,0,0,0,0,30,50,0.0,0.0,0,5,0,0,0,0,0,0,0,0,0,0.0,0.0,0.0,Hover,,lost,0.0,0,0,0,0,0,0,0,0,0,1,0,-110,-583,1494,1607.0,NaN,-108,-686,1502,1654.0,NaN,97,-253,486,-56,-219,428,,,,,,,,,,,,,,,,,,,,,,,,,,,,,,,,,,,,,,,,,,,,,,,,,,0.0,,,,,,,,,,,,,,,,,,,,,,,,,,,,,,,,,,0.0,0.0,0.0,0.0,0.0,180.0,0.0,0.0,0.0,0,,Manual,OTHER,NONE,GPS_POSITION_NONMATCH,True,Connected,,P,False,False,False,0,0,,0.0,,,,,,0.0,0.0,0.0,0.0,NaN,NaN,NaN,0.0,0.0,0.0,0,0,0,15129,0,0.0,0.0,0,0,0,0,0,1,0,0,0,0.0,0.0,
24872738,2.920,,,-60.049442,-0.0,,,0,NaN,0.0,0.0,-0.010393026,0.009363806,-0.9822449,0.9823445,-0.07953035,-0.3607147,-0.35514924,0.51241696,0.0,0.0,0.0,0.0,0.0,-106,-577,1488,1599.0,54.54,0.0,NaN,NaN,NaN,0.0,NaN,NaN,0.0,0.0,0.0,-0.0,NaN,NaN,NaN,NaN,NaN,NaN,NaN,NaN,false,false,-0.0893922729107004,0.07522599754071144,0.05453873140150445,,0.0,,,0.0,0.0,0.0,0.0,0.0,0.0,0.0,0.0,0.0,0.0,-2200,3088,0,0,285,,,,,,,,,,,,,,,,,,34,0,0,0,0,Manual,0,0,0,0,0,30,50,0.0,0.0,0,5,0,0,0,0,0,0,0,0,0,0.0,0.0,0.0,Hover,,lost,0.0,0,0,0,0,0,0,0,0,0,1,0,-106,-577,1488,1599.0,NaN,-98,-674,1496,1643.0,NaN,99,-250,485,-52,-216,424,,,,,,,,,,,,,,,,,,,,,,,,,,,,,,,,,,,,,,,,,,,,,,,,,,0.0,,,,,,,,,,,,,,,,,,,,,,,,,,,,,,,,,,0.0,0.0,0.0,0.0,0.0,180.0,0.0,0.0,0.0,0,,Manual,OTHER,NONE,GPS_POSITION_NONMATCH,True,Connected,,P,False,False,False,0,0,,0.0,,,,,,0.0,0.0,0.0,0.0,NaN,NaN,NaN,0.0,0.0,0.0,0,0,0,15202,0,0.0,0.0,0,0,0,0,0,1,0,0,0,0.0,0.0,
25101724,2.971,,,-59.801304,-0.0,,,0,NaN,0.0,0.0,-0.010169409,0.010131274,-0.98036087,0.98046595,0.086433895,0.053389493,-0.18209359,0.20851699,0.0,0.0,0.0,0.0,0.0,-110,-580,1488,1600.0,54.49,0.0,NaN,NaN,NaN,0.0,NaN,NaN,0.0,0.0,0.0,-0.0,NaN,NaN,NaN,NaN,NaN,NaN,NaN,NaN,false,false,-0.09639282175600528,0.07685232105229065,0.048554935997798365,,0.0,,,0.0,0.0,0.0,0.0,0.0,0.0,0.0,0.0,0.0,0.0,-2200,3088,0,0,305,,,,,,,,,,,,,,,,,,37,0,0,0,0,Manual,0,0,0,0,0,30,50,0.0,0.0,0,5,0,0,0,0,0,0,0,0,0,0.0,0.0,0.0,Hover,,lost,100.0,0,0,0,0,0,0,0,0,0,1,0,-110,-580,1488,1600.0,NaN,-108,-680,1520,1668.0,NaN,97,-252,485,-55,-217,433,,,,,,,,,,,,,,,,,,,,,,,,,,,,,,,,,,,,,,,,,,,,,,,,,,0.0,,,,,,,,,,,,,,,,,,,,,,,,,,,,,,,,,,0.0,0.0,0.0,0.0,0.0,180.0,0.0,0.0,0.0,0,,Manual,OTHER,NONE,GPS_POSITION_NONMATCH,True,Connected,,P,False,False,False,0,0,,0.0,,,,,,0.0,0.0,0.0,0.0,NaN,NaN,NaN,0.0,0.0,0.0,0,0,0,15283,0,18.79803,0.0,15447,-936,0,60,22,1,3856,0,0,0.0,0.0,
25328152,3.021,,,-59.62803,-0.0,,,0,NaN,0.0,0.0,-0.011940028,0.01222966,-0.9815919,0.98174065,-0.038866285,-0.18081386,-0.049908906,0.19155976,0.0,0.0,0.0,0.0,0.0,-119,-583,1488,1602.0,54.47,0.0,NaN,NaN,NaN,0.0,NaN,NaN,0.0,0.0,0.0,-0.0,NaN,NaN,NaN,NaN,NaN,NaN,NaN,NaN,false,false,-0.10065877060943706,0.07889407731284812,0.040129156910850616,,0.0,,,0.0,0.0,0.0,0.0,0.0,0.0,0.0,0.0,0.0,0.0,-2200,3090,0,0,325,,,,,,,,,,,,,,,,,,39,0,0,0,0,Manual,0,0,0,0,0,30,50,0.0,0.0,0,5,0,0,0,0,0,0,0,0,0,0.0,0.0,0.0,Hover,,lost,100.0,0,0,0,0,0,0,0,0,0,1,0,-119,-583,1488,1602.0,NaN,-105,-683,1523,1672.0,NaN,94,-253,483,-53,-217,434,,,,,,,,,,,,,,,,,,,,,,,,,,,,,,,,,,,,,,,,,,,,,,,,,,0.0,,,,,,,,,,,,,,,,,,,,,,,,,,,,,,,,,,0.0,0.0,0.0,0.0,0.0,180.0,0.0,0.0,0.0,0,,Manual,OTHER,NONE,GPS_POSITION_NONMATCH,True,Connected,,P,False,False,False,0,0,,0.0,,,,,,0.0,0.0,0.0,0.0,NaN,NaN,NaN,0.0,0.0,0.0,0,0,0,15321,0,18.79803,12680.0,15447,-936,0,60,22,1,3856,0,0,0.0,0.0,
25553321,3.072,,,-60.234768,-0.0,,,0,NaN,0.0,0.0,-0.01123754,0.010594445,-0.98126286,0.9813844,-0.05592228,-0.06509308,-0.09960701,0.1314761,0.0,0.0,0.0,0.0,0.0,-110,-580,1485,1598.0,54.47,0.0,NaN,NaN,NaN,0.0,NaN,NaN,0.0,0.0,0.0,-0.0,NaN,NaN,NaN,NaN,NaN,NaN,NaN,NaN,false,false,-0.10700529046875151,0.07862590479939732,0.03413774275603765,,0.0,,,0.0,0.0,0.0,0.0,0.0,0.0,0.0,0.0,0.0,0.0,-2200,3090,0,0,345,,,,,,,,,,,,,,,,,,42,0,0,0,0,Manual,0,0,0,0,0,30,50,0.0,0.0,0,5,0,0,0,0,0,0,0,0,0,0.0,0.0,0.0,Hover,,lost,100.0,0,0,0,0,0,0,0,0,0,1,0,-110,-580,1485,1598.0,NaN,-112,-683,1526,1675.0,NaN,98,-251,484,-56,-218,434,,,,,,,,,,,,,,,,,,,,,,,,,,,,,,,,,,,,,,,,,,,,,,,,,,0.0,,,,,,,,,,,,,,,,,,,,,,,,,,,,,,,,,,0.0,0.0,0.0,0.0,0.0,180.0,0.0,0.0,0.0,0,,Manual,OTHER,NONE,GPS_POSITION_NONMATCH,True,Connected,,P,False,False,False,0,0,,0.0,,,,,,0.0,0.0,0.0,0.0,NaN,NaN,NaN,0.0,0.0,0.0,0,0,0,15364,0,18.79803,12680.0,15447,-936,0,60,22,1,3856,0,0,0.0,0.0,
25778322,3.122,,,-59.873543,-0.0,,,0,NaN,0.0,0.0,-0.01056839,0.011268202,-0.98119795,0.98131955,-0.05741189,-0.034836058,0.0812576,0.10541572,0.0,0.0,0.0,0.0,0.0,-119,-583,1488,1602.0,54.45,0.0,NaN,NaN,NaN,0.0,NaN,NaN,0.0,0.0,0.0,-0.0,NaN,NaN,NaN,NaN,NaN,NaN,NaN,NaN,false,false,-0.11298930419862896,0.079299860949232,0.029924527891726838,,0.0,,,0.0,0.0,0.0,0.0,0.0,0.0,0.0,0.0,0.0,0.0,-2200,3090,0,0,365,,,,,,,,,,,,,,,,,,44,0,0,0,0,Manual,0,0,0,0,0,30,50,0.0,0.0,0,5,0,0,0,0,0,0,0,0,0,0.0,0.0,0.0,Hover,,lost,100.0,0,0,0,0,0,0,0,0,0,1,0,-119,-583,1488,1602.0,NaN,-105,-683,1520,1669.0,NaN,97,-251,484,-56,-217,435,,,,,,,,,,,,,,,,,,,,,,,,,,,,,,,,,,,,,,,,,,,,,,,,,,0.0,,,,,,,,,,,,,,,,,,,,,,,,,,,,,,,,,,0.0,0.0,0.0,0.0,0.0,180.0,0.0,0.0,0.0,0,,Manual,OTHER,NONE,GPS_POSITION_NONMATCH,True,Connected,,P,False,False,False,0,0,,0.0,,,,,,0.0,0.0,0.0,0.0,NaN,NaN,NaN,0.0,0.0,0.0,0,0,0,15385,0,18.79803,12680.0,15447,-936,0,60,22,1,3856,0,0,0.0,0.0,
26003454,3.172,,,-60.114883,-0.0,,,0,NaN,0.0,0.0,-0.012295543,0.010144549,-0.9811681,0.98129755,0.030894987,-0.1499571,0.018814843,0.15425833,0.0,0.0,0.0,0.0,0.0,-116,-580,1500,1612.0,54.45,0.0,NaN,NaN,NaN,0.0,NaN,NaN,0.0,0.0,0.0,-0.0,NaN,NaN,NaN,NaN,NaN,NaN,NaN,NaN,false,false,-0.11806602647903158,0.08035410271733476,0.022159393419308726,,0.0,,,0.0,0.0,0.0,0.0,0.0,0.0,0.0,0.0,0.0,0.0,-2200,3090,0,0,385,,,,,,,,,,,,,,,,,,47,0,0,0,0,Manual,0,0,0,0,0,30,50,0.0,0.0,0,5,0,0,0,0,0,0,0,0,0,0.0,0.0,0.0,Hover,,lost,100.0,0,0,0,0,0,0,0,0,0,1,0,-116,-580,1500,1612.0,NaN,-112,-677,1520,1667.0,NaN,96,-251,488,-55,-216,432,,,,,,,,,,,,,,,,,,,,,,,,,,,,,,,,,,,,,,,,,,,,,,,,,,0.0,,,,,,,,,,,,,,,,,,,,,,,,,,,,,,,,,,0.0,0.0,0.0,0.0,0.0,180.0,0.0,0.0,0.0,0,     47 [L-GPS]<GPS INFO>m8_poll_uniqid gps[0][0]|     47 [L-GPS]<GPS INFO>[SEC] need check hardware-id version|,Manual,OTHER,NONE,GPS_POSITION_NONMATCH,True,Connected,,P,False,False,False,0,0,,0.0,,,,,,0.0,0.0,0.0,0.0,NaN,NaN,NaN,0.0,0.0,0.0,0,0,0,15408,0,18.79803,12680.0,15447,-936,0,60,22,1,3856,0,0,0.0,0.0,
26228459,3.222,,,-59.664146,-0.0,,,0,NaN,0.0,0.0,-0.010248169,0.010645193,-0.9823483,0.9824594,-0.01214984,0.017109543,-0.123184025,0.124958634,0.0,0.0,0.0,0.0,0.0,-113,-580,1488,1601.0,54.36,0.0,NaN,NaN,NaN,0.0,NaN,NaN,0.0,0.0,0.0,-0.0,NaN,NaN,NaN,NaN,NaN,NaN,NaN,NaN,false,false,-0.12359695727024728,0.08164666815290475,0.019280199971057788,,0.0,,,0.0,0.0,0.0,0.0,0.0,0.0,0.0,0.0,0.0,0.0,-2200,3091,0,0,405,,,,,,,,,,,,,,,,,,49,0,0,0,0,Manual,0,0,0,0,0,30,50,0.0,0.0,0,5,0,0,0,0,0,0,0,0,0,0.0,0.0,0.0,Hover,,lost,100.0,0,0,0,0,0,0,0,0,0,1,0,-113,-580,1488,1601.0,NaN,-105,-683,1520,1669.0,NaN,96,-251,486,-56,-216,434,,,,,,,,,,,,,,,,,,,,,,,,,,,,,,,,,,,,,,,,,,,,,,,,,,0.0,,,,,,,,,,,,,,,,,,,,,,,,,,,,,,,,,,0.0,0.0,0.0,0.0,0.0,180.0,0.0,0.0,0.0,0,     50 [L-GYRO_ACC][mark] sa(0) regi ok. dtype(8) sid(0) g_uid(0) l_did(3) l_uid(0) l_dindex(|     50 [L-GYRO_ACC][mark] fmu_gyr_acc get register ack. succeed. global_user_id(0)|     50 [L-GYRO_ACC][mark] sa(1) regi ok. dtype(8) sid(0) g_uid(1) l_did(4) l_uid(1) l_dindex(|     50 [L-GYRO_ACC][mark] fmu_gyr_acc get register ack. succeed. global_user_id(1)|     50 [L-GYRO_ACC]GYRO(0) fdi event:turn on|     50 [L-GYRO_ACC]ACC(0) fdi event:turn on|     50 [L-GYRO_ACC]GYRO(1) fdi event:turn on|     50 [L-GYRO_ACC]ACC(1) fdi event:turn on,Manual,OTHER,NONE,GPS_POSITION_NONMATCH,True,Connected,,P,False,False,False,0,0,,0.0,,,,,,0.0,0.0,0.0,0.0,NaN,NaN,NaN,0.0,0.0,0.0,0,0,0,15418,0,18.79803,12680.0,15447,-936,0,60,22,1,3856,0,0,0.0,0.0,
26453459,3.272,,,-59.922752,-0.0,,,0,NaN,0.0,0.0,-0.010501575,0.011408117,-0.9842901,0.98441225,-0.113192,-0.176944,-0.03630765,0.21316627,0.0,0.0,0.0,0.0,0.0,-110,-583,1485,1599.0,54.33,0.0,NaN,NaN,NaN,0.0,NaN,NaN,0.0,0.0,0.0,-0.0,NaN,NaN,NaN,NaN,NaN,NaN,NaN,NaN,false,false,-0.13074083567883504,0.08098943620225149,0.012729500307737784,,0.0,,,0.0,0.0,0.0,0.0,0.0,0.0,0.0,0.0,0.0,0.0,-2200,3091,0,0,425,,,,,,,,,,,,,,,,,,52,0,0,0,0,Manual,0,0,0,0,0,30,50,0.0,0.0,0,5,0,0,0,0,0,0,0,0,0,0.0,0.0,0.0,Hover,,lost,100.0,0,0,0,0,0,0,0,0,0,1,0,-110,-583,1485,1599.0,NaN,-101,-683,1517,1666.0,NaN,97,-253,484,-54,-218,433,,,,,,,,,,,,,,,,,,,,,,,,,,,,,,,,,,,,,,,,,,,,,,,,,,0.0,,,,,,,,,,,,,,,,,,,,,,,,,,,,,,,,,,0.0,0.0,0.0,0.0,0.0,180.0,0.0,0.0,0.0,0,     51 [L-COMPASS]index(0) fdi event:turn on|     51 [L-COMPASS]index(1) fdi event:turn on|     51 [L-FDI][BARO(0)] event:turn on|     51 [L-FDI]NS(0): init fdi turn on|     51 [L-FDI]NS(0): init: wait_static,Manual,OTHER,NONE,GPS_POSITION_NONMATCH,True,Connected,,P,False,False,False,0,0,,0.0,,,,,,0.0,0.0,0.0,0.0,NaN,NaN,NaN,0.0,0.0,0.0,0,0,0,15430,0,18.79803,12680.0,15447,-936,0,60,22,1,3856,0,0,0.0,0.0,
26678461,3.322,,,-60.004944,-0.0,,,0,NaN,0.0,0.0,-0.010682745,0.01013259,-0.9840876,0.98419774,-0.07724189,-0.123516366,0.044503246,0.15232578,0.0,0.0,0.0,0.0,0.0,-113,-589,1491,1607.0,54.37,0.0,NaN,NaN,NaN,0.0,NaN,NaN,0.0,0.0,0.0,-0.0,NaN,NaN,NaN,NaN,NaN,NaN,NaN,NaN,false,false,-0.13608205744953156,0.08180568995336887,0.005773672711882782,,0.0,,,0.0,0.0,0.0,0.0,0.0,0.0,0.0,0.0,0.0,0.0,-2200,3092,0,0,445,,,,,,,,,,,,,,,,,,54,0,0,0,0,Manual,0,0,0,0,0,30,50,0.0,0.0,0,5,0,0,0,0,0,0,0,0,0,0.0,0.0,0.0,Hover,,lost,100.0,0,0,0,0,0,0,0,0,0,1,0,-113,-589,1491,1607.0,NaN,-108,-683,1523,1672.0,NaN,96,-252,483,-54,-217,433,,,,,,,,,,,,,,,,,,,,,,,,,,,,,,,,,,,,,,,,,,,,,,,,,,0.0,,,,,,,,,,,,,,,,,,,,,,,,,,,,,,,,,,0.0,0.0,0.0,0.0,0.0,180.0,0.0,0.0,0.0,0,,Manual,OTHER,NONE,GPS_POSITION_NONMATCH,False,Connected,,P,False,False,False,0,0,,0.0,,,,,,0.0,0.0,0.0,0.0,NaN,NaN,NaN,0.0,0.0,0.0,0,0,0,15433,0,18.79803,12680.0,15447,-936,0,60,22,1,3856,0,0,0.0,0.0,
26903649,3.372,,,-59.61808,-0.0,,,0,NaN,0.0,0.0,-0.0101633,0.011290275,-0.9835716,0.9836889,0.042345077,-0.1007208,-0.14795153,0.18392237,0.0,0.0,0.0,0.0,0.0,-103,-583,1488,1601.0,54.35,0.0,NaN,NaN,NaN,0.0,NaN,NaN,0.0,0.0,0.0,-0.0,NaN,NaN,NaN,NaN,NaN,NaN,NaN,NaN,false,false,-0.14154176710041372,0.08642517674318348,8.787411827994029E-4,,0.0,,,0.0,0.0,0.0,0.0,0.0,0.0,0.0,0.0,0.0,0.0,-2200,3092,0,0,465,26.7254091,58.3894092,,,,,99.99,99.99,226.49,0,0,0,,,,20240309,84314,57,0,0,0,0,Manual,0,0,0,0,0,30,50,0.0,0.0,0,5,0,0,0,0,0,0,0,0,0,0.0,0.0,0.0,Hover,,lost,100.0,0,0,0,0,0,0,0,0,0,1,0,-103,-583,1488,1601.0,NaN,-105,-683,1523,1672.0,NaN,99,-252,484,-55,-218,434,,,,,,,,,,,,,,,,,,,,,,,,,,,,,,,,,,,,,,,,,,,,,,,,,,0.0,,,,,,,,,,,,,,,,,,,,,,,,,,,,,,,,,,0.0,0.0,0.0,0.0,0.0,180.0,0.0,0.0,0.0,0,,Manual,OTHER,NONE,GPS_POSITION_NONMATCH,False,Connected,,P,False,False,False,0,0,,0.0,,,,,,0.0,0.0,0.0,0.0,NaN,NaN,NaN,0.0,0.0,0.0,0,0,0,15440,0,18.79803,12680.0,15447,-936,0,60,22,1,3856,0,0,0.0,0.0,
27128653,3.422,,,-60.02065,-0.0,,,0,NaN,0.0,0.0,-0.010168104,0.010488383,-0.9830878,0.9831963,-0.013807534,-0.13839869,-0.11510739,0.18053962,0.0,0.0,0.0,0.0,0.0,-116,-580,1491,1604.0,54.37,0.0,NaN,NaN,NaN,0.0,NaN,NaN,0.0,0.0,0.0,-0.0,NaN,NaN,NaN,NaN,NaN,NaN,NaN,NaN,false,false,-0.1456615403720007,0.08589375415530096,-0.008536678849972446,,0.0,,,0.0,0.0,0.0,0.0,0.0,0.0,0.0,0.0,0.0,0.0,-2200,3092,0,0,485,26.7254091,58.3894092,,,,,99.99,99.99,226.49,0,0,0,,,,20240309,84314,59,0,0,0,0,Manual,0,0,0,0,0,30,50,0.0,0.0,0,5,0,0,0,0,0,0,0,0,0,0.0,0.0,0.0,Hover,,lost,100.0,0,0,0,0,0,0,0,0,0,1,0,-116,-580,1491,1604.0,NaN,-108,-683,1526,1675.0,NaN,97,-252,484,-55,-217,435,,,,,,,,,,,,,,,,,,,,,,,,,,,,,,,,,,,,,,,,,,,,,,,,,,0.0,,,,,,,,,,,,,,,,,,,,,,,,,,,,,,,,,,0.0,0.0,0.0,0.0,0.0,180.0,0.0,0.0,0.0,0,,Manual,OTHER,NONE,GPS_POSITION_NONMATCH,False,Connected,,P,False,False,False,0,0,,0.0,,,,,,0.0,0.0,0.0,0.0,NaN,NaN,NaN,0.0,0.0,0.0,0,0,0,15441,0,18.79803,12680.0,15447,-936,0,60,22,1,3856,0,0,0.0,0.0,
27353658,3.472,,,-59.946312,-0.0,,,0,NaN,0.0,0.0,-0.011379846,0.010097191,-0.98488384,0.9850013,0.13061282,-0.32377052,-0.06452245,0.35503548,0.0,0.0,0.0,0.0,0.0,-116,-586,1488,1603.0,54.34,0.0,NaN,NaN,NaN,0.0,NaN,NaN,0.0,0.0,0.0,-0.0,NaN,NaN,NaN,NaN,NaN,NaN,NaN,NaN,false,false,-0.14917291023270413,0.08858208325606831,-0.01492705174343445,,0.0,,,0.0,0.0,0.0,0.0,0.0,0.0,0.0,0.0,0.0,0.0,-2200,3092,0,0,505,26.7254091,58.3894092,,,,,99.99,99.99,226.49,0,0,0,,,,20240309,84314,62,0,0,0,0,Manual,0,0,0,0,0,30,50,0.0,0.0,0,5,0,0,0,0,0,0,0,0,0,0.0,0.0,0.0,Hover,,lost,100.0,0,0,0,0,0,0,0,0,0,1,0,-116,-586,1488,1603.0,NaN,-105,-683,1520,1669.0,NaN,96,-254,485,-55,-218,434,,,,,,,,,,,,,,,,,,,,,,,,,,,,,,,,,,,,,,,,,,,,,,,,,,0.0,,,,,,,,,,,,,,,,,,,,,,,,,,,,,,,,,,0.0,0.0,0.0,0.0,0.0,180.0,0.0,0.0,0.0,0,,Manual,OTHER,NONE,GPS_POSITION_NONMATCH,False,Connected,,P,False,False,False,0,0,,0.0,,,,,,0.0,0.0,0.0,0.0,NaN,NaN,NaN,0.0,0.0,0.0,0,0,0,15441,0,18.79803,12680.0,15447,-936,0,60,22,1,3856,0,0,0.0,0.0,
27578671,3.522,,,-59.617558,-0.0,,,0,NaN,0.0,0.0,-0.010767795,0.0113661,-0.9850175,0.98514193,0.038585473,-0.19395536,-0.06213718,0.20728856,0.0,0.0,0.0,0.0,0.0,-113,-575,1491,1602.0,54.34,0.0,NaN,NaN,NaN,0.0,NaN,NaN,0.0,0.0,0.0,-0.0,NaN,NaN,NaN,NaN,NaN,NaN,NaN,NaN,false,false,-0.15369280442072403,0.09086681740948258,-0.022082402397491374,,0.0,,,0.0,0.0,0.0,0.0,0.0,0.0,0.0,0.0,0.0,0.0,-2200,3093,0,0,525,26.7254091,58.3894092,,,,,99.99,99.99,226.49,0,0,0,,,,20240309,84314,64,0,0,0,0,Manual,0,0,0,0,0,30,50,0.0,0.0,0,5,0,0,0,0,0,0,0,0,0,0.0,0.0,0.0,Hover,,lost,100.0,0,0,0,0,0,0,0,0,0,1,0,-113,-575,1491,1602.0,NaN,-108,-686,1523,1673.0,NaN,98,-251,484,-55,-218,434,,,,,,,,,,,,,,,,,,,,,,,,,,,,,,,,,,,,,,,,,,,,,,,,,,0.0,,,,,,,,,,,,,,,,,,,,,,,,,,,,,,,,,,0.0,0.0,0.0,0.0,0.0,180.0,0.0,0.0,0.0,0,,Manual,OTHER,NONE,GPS_POSITION_NONMATCH,False,Connected,,P,False,False,False,0,0,,0.0,,,,,,0.0,0.0,0.0,0.0,NaN,NaN,NaN,0.0,0.0,0.0,0,0,0,15441,0,18.79803,12680.0,15447,-936,0,60,22,1,3856,0,0,0.0,0.0,
27804571,3.572,,,-59.641113,-0.0,,,0,NaN,0.0,0.0,-0.010382366,0.010032883,-0.984763,0.9848688,-0.1435293,-0.21066654,0.024376841,0.2560767,0.0,0.0,0.0,0.0,0.0,-119,-575,1500,1610.0,54.35,0.0,NaN,NaN,NaN,0.0,NaN,NaN,0.0,0.0,0.0,-0.0,NaN,NaN,NaN,NaN,NaN,NaN,NaN,NaN,false,false,-0.15893200539191216,0.09105048050474154,-0.030087589507942103,,0.0,,,0.0,0.0,0.0,0.0,0.0,0.0,0.0,0.0,0.0,0.0,-2200,3093,0,0,545,26.7254091,58.3894092,,,,,99.99,99.99,226.49,0,0,0,,,,20240309,84314,67,0,0,0,0,Manual,0,0,0,0,0,30,50,0.0,0.0,0,5,0,0,0,0,0,0,0,0,0,0.0,0.0,0.0,Hover,,lost,100.0,0,0,0,0,0,0,0,0,0,1,0,-119,-575,1500,1610.0,NaN,-112,-686,1523,1674.0,NaN,94,-250,488,-56,-217,433,,,,,,,,,,,,,,,,,,,,,,,,,,,,,,,,,,,,,,,,,,,,,,,,,,0.0,,,,,,,,,,,,,,,,,,,,,,,,,,,,,,,,,,0.0,0.0,0.0,0.0,0.0,180.0,0.0,0.0,0.0,0,,Manual,OTHER,NONE,GPS_POSITION_NONMATCH,False,Connected,,P,False,False,False,0,0,,0.0,,,,,,0.0,0.0,0.0,0.0,NaN,NaN,NaN,0.0,0.0,0.0,0,0,0,15439,0,18.79803,12680.0,15447,-936,0,60,22,1,3856,0,0,0.0,0.0,
28029579,3.622,,,-59.991856,-0.0,,,0,NaN,0.0,0.0,-0.010219524,0.01118513,-0.9856914,0.98580784,0.15329106,-0.19376612,-0.15093479,0.28952506,0.0,0.0,0.0,0.0,0.0,-110,-586,1485,1600.0,54.38,0.0,NaN,NaN,NaN,0.0,NaN,NaN,0.0,0.0,0.0,-0.0,NaN,NaN,NaN,NaN,NaN,NaN,NaN,NaN,false,false,-0.1619785846098683,0.09342816711606564,-0.03769007898936849,,0.0,,,0.0,0.0,0.0,0.0,0.0,0.0,0.0,0.0,0.0,0.0,-2200,3093,0,0,565,26.7254091,58.3894092,,,,,99.99,99.99,230.31,0,0,0,,,,20240309,84314,69,0,0,0,0,Manual,0,0,0,0,0,30,50,0.0,0.0,0,5,0,0,0,0,0,0,0,0,0,0.0,0.0,0.0,Hover,,lost,100.0,0,0,0,0,0,0,0,0,0,1,0,-110,-586,1485,1600.0,NaN,-108,-677,1523,1670.0,NaN,97,-251,484,-56,-218,435,,,,,,,,,,,,,,,,,,,,,,,,,,,,,,,,,,,,,,,,,,,,,,,,,,0.0,,,,,,,,,,,,,,,,,,,,,,,,,,,,,,,,,,0.0,0.0,0.0,0.0,0.0,180.0,0.0,0.0,0.0,0,,Manual,OTHER,NONE,GPS_POSITION_NONMATCH,False,Connected,,P,False,False,False,0,0,,0.0,,,,,,0.0,0.0,0.0,0.0,NaN,NaN,NaN,0.0,0.0,0.0,0,0,0,15438,0,18.79803,12680.0,15447,-936,0,60,22,1,3856,0,0,0.0,0.0,
28255434,3.672,,,-59.540085,-0.0,,,0,NaN,0.0,0.0,-0.011705567,0.01182757,-0.9859863,0.9861267,0.032626733,-0.21021092,-0.01598363,0.21332748,0.0,0.0,0.0,0.0,0.0,-116,-583,1485,1599.0,54.39,0.0,NaN,NaN,NaN,0.0,NaN,NaN,0.0,0.0,0.0,-0.0,NaN,NaN,NaN,NaN,NaN,NaN,NaN,NaN,false,false,-0.16627660193022492,0.09550154425608307,-0.044768501707591946,,0.0,,,0.0,0.0,0.0,0.0,0.0,0.0,0.0,0.0,0.0,0.0,-2200,3093,0,0,585,26.7254091,58.3894092,,,,,99.99,99.99,230.31,0,0,0,,,,20240309,84314,72,0,0,0,0,Manual,0,0,0,0,0,30,50,0.0,0.0,0,5,0,0,0,0,0,0,0,0,0,0.0,0.0,0.0,Hover,,lost,100.0,0,0,0,0,0,0,0,0,0,1,0,-116,-583,1485,1599.0,NaN,-108,-677,1517,1664.0,NaN,95,-252,484,-57,-217,433,,,,,,,,,,,,,,,,,,,,,,,,,,,,,,,,,,,,,,,,,,,,,,,,,,0.0,,,,,,,,,,,,,,,,,,,,,,,,,,,,,,,,,,0.0,0.0,0.0,0.0,0.0,180.0,0.0,0.0,0.0,0,,Manual,OTHER,NONE,GPS_POSITION_NONMATCH,False,Connected,,P,False,False,False,0,0,,0.0,,,,,,0.0,0.0,0.0,0.0,NaN,NaN,NaN,0.0,0.0,0.0,0,0,0,15436,0,18.79803,12680.0,15447,-936,0,60,22,1,3856,0,0,0.0,0.0,
28484980,3.723,,,-59.416542,-0.0,,,0,NaN,0.0,0.0,-0.0096000945,0.010985532,-0.98778576,0.9878935,0.04881028,-0.19214453,-0.11919155,0.23131923,0.0,0.0,0.0,0.0,0.0,-113,-577,1488,1599.0,54.42,0.0,NaN,NaN,NaN,0.0,NaN,NaN,0.0,0.0,0.0,-0.0,NaN,NaN,NaN,NaN,NaN,NaN,NaN,NaN,false,false,-0.16964242783374772,0.0981002170182387,-0.05230126423313808,,0.0,,,0.0,0.0,0.0,0.0,0.0,0.0,0.0,0.0,0.0,0.0,-2200,3094,0,0,605,26.7254091,58.3894092,,,,,99.99,99.99,230.31,0,0,0,,,,20240309,84314,74,0,0,0,0,Manual,0,0,0,0,0,30,50,0.0,0.0,0,5,0,0,0,0,0,0,0,0,0,0.0,0.0,0.0,Hover,,lost,100.0,0,0,0,0,0,0,0,0,0,1,0,-113,-577,1488,1599.0,NaN,-112,-683,1517,1667.0,NaN,95,-251,485,-55,-216,433,,,,,,,,,,,,,,,,,,,,,,,,,,,,,,,,,,,,,,,,,,,,,,,,,,0.0,,,,,,,,,,,,,,,,,,,,,,,,,,,,,,,,,,0.0,0.0,0.0,0.0,0.0,180.0,0.0,0.0,0.0,0,,Manual,OTHER,NONE,GPS_POSITION_NONMATCH,False,Connected,,P,False,False,False,0,0,,0.0,,,,,,0.0,0.0,0.0,0.0,NaN,NaN,NaN,0.0,0.0,0.0,0,0,0,15435,0,18.79803,12680.0,15447,-936,0,60,22,1,3856,0,0,0.0,0.0,
28710013,3.773,,,-59.60133,-0.0,,,0,NaN,0.0,0.0,-0.010291392,0.011463062,-0.9883691,0.98848915,0.10908323,-0.18338689,-0.0061920066,0.2134672,0.0,0.0,0.0,0.0,0.0,-110,-580,1494,1606.0,54.42,0.0,NaN,NaN,NaN,0.0,NaN,NaN,0.0,0.0,0.0,-0.0,NaN,NaN,NaN,NaN,NaN,NaN,NaN,NaN,false,false,-0.17332088312692362,0.10022993063456728,-0.06279614401992328,,0.0,,,0.0,0.0,0.0,0.0,0.0,0.0,0.0,0.0,0.0,0.0,-2200,3094,0,0,625,26.7254091,58.3894092,,,,,99.99,99.99,230.31,0,0,0,,,,20240309,84314,77,0,0,0,0,Manual,0,0,0,0,0,30,50,0.0,0.0,0,5,0,0,0,0,0,0,0,0,0,0.0,0.0,0.0,Hover,,lost,100.0,0,0,0,0,0,0,0,0,0,1,0,-110,-580,1494,1606.0,NaN,-105,-683,1523,1672.0,NaN,97,-252,486,-56,-218,434,,,,,,,,,,,,,,,,,,,,,,,,,,,,,,,,,,,,,,,,,,,,,,,,,,0.0,,,,,,,,,,,,,,,,,,,,,,,,,,,,,,,,,,0.0,0.0,0.0,0.0,0.0,180.0,0.0,0.0,0.0,0,     75 [L-BATTERY]Battery barcode:082AD4D0310ZQX||,Manual,OTHER,NONE,GPS_POSITION_NONMATCH,False,Connected,,P,False,False,False,0,0,,0.0,,,,,,0.0,0.0,0.0,0.0,NaN,NaN,NaN,0.0,0.0,0.0,0,0,0,15434,0,18.79803,12680.0,15447,-936,0,60,22,1,3856,0,0,0.0,0.0,
28935900,3.823,,,-60.08713,-0.0,,,0,NaN,0.0,0.0,-0.009776909,0.010775541,-0.9893359,0.9894429,0.07153448,-0.1569501,-0.13702826,0.22028905,0.0,0.0,0.0,0.0,0.0,-116,-580,1491,1604.0,54.48,0.0,NaN,NaN,NaN,0.0,NaN,NaN,0.0,0.0,0.0,-0.0,NaN,NaN,NaN,NaN,NaN,NaN,NaN,NaN,false,false,-0.1777002713175524,0.10257045038822624,-0.07144089779567653,,0.0,,,0.0,0.0,0.0,0.0,0.0,0.0,0.0,0.0,0.0,0.0,-2200,3094,0,0,645,26.7254091,58.3894092,,,,,99.99,99.99,230.31,0,0,0,,,,20240309,84314,80,0,0,0,0,Manual,0,0,0,0,0,30,50,0.0,0.0,0,5,0,0,0,0,0,0,0,0,0,0.0,0.0,0.0,Hover,,lost,100.0,0,0,0,0,0,0,0,0,0,1,0,-116,-580,1491,1604.0,NaN,-112,-680,1523,1671.0,NaN,96,-252,487,-55,-217,434,,,,,,,,,,,,,,,,,,,,,,,,,,,,,,,,,,,,,,,,,,,,,,,,,,0.0,,,,,,,,,,,,,,,,,,,,,,,,,,,,,,,,,,0.0,0.0,0.0,0.0,0.0,180.0,0.0,0.0,0.0,0,,Manual,OTHER,NONE,GPS_POSITION_NONMATCH,False,Connected,,P,False,False,False,0,0,,0.0,,,,,,0.0,0.0,0.0,0.0,NaN,NaN,NaN,0.0,0.0,0.0,0,0,0,15434,0,18.79803,12680.0,15447,-936,0,60,22,1,3856,0,0,0.0,0.0,
29162145,3.873,,,-59.84475,-0.0,,,0,NaN,0.0,0.0,-0.009326481,0.011312225,-0.9881533,0.98826206,-0.022776399,-0.35920548,-0.11424076,0.3776219,0.0,0.0,0.0,0.0,0.0,-119,-580,1491,1604.0,54.54,0.0,NaN,NaN,NaN,0.0,NaN,NaN,0.0,0.0,0.0,-0.0,NaN,NaN,NaN,NaN,NaN,NaN,NaN,NaN,false,false,-0.1802997751421962,0.10633310349726979,-0.08084930537401791,,0.0,,,0.0,0.0,0.0,0.0,0.0,0.0,0.0,0.0,0.0,0.0,-2200,3094,0,0,665,26.7264859,58.3915425,,,,,21.93,62.57,49258.54,1,4,5,,,,20240309,84315,82,0,0,0,0,Manual,0,0,0,0,0,30,50,0.0,0.0,0,5,0,0,0,0,0,0,0,0,0,0.0,0.0,0.0,Hover,,lost,100.0,0,0,0,0,0,0,0,0,0,1,0,-119,-580,1491,1604.0,NaN,-108,-688,1520,1671.0,NaN,95,-251,486,-54,-219,432,,,,,,,,,,,,,,,,,,,,,,,,,,,,,,,,,,,,,,,,,,,,,,,,,,0.0,,,,,,,,,,,,,,,,,,,,,,,,,,,,,,,,,,0.0,0.0,0.0,0.0,0.0,180.0,0.0,0.0,0.0,0,     83 [L-GPS]<GPS ERROR>[0][0] frequency error 120|f3e<fly-task_ctr>calender_setup_time  [2024-3-9]10:43:15. last_type(7).updates(0),Manual,OTHER,NONE,GPS_POSITION_NONMATCH,False,Connected,,P,False,False,False,0,0,,0.0,,,,,,0.0,0.0,0.0,0.0,NaN,NaN,NaN,0.0,0.0,0.0,0,0,0,15434,0,18.79803,12680.0,15447,-936,0,60,22,1,3856,0,0,0.0,0.0,
29387261,3.924,,,-60.168278,-0.0,,,5,NaN,0.0,0.0,-0.010175243,0.010971715,-0.98833805,0.98845136,0.051170055,-0.17918423,-0.105504155,0.21414128,0.0,0.0,0.0,0.0,0.0,-106,-589,1491,1606.0,54.55,0.0,NaN,NaN,NaN,0.0,NaN,NaN,0.0,0.0,0.0,-0.0,NaN,NaN,NaN,NaN,NaN,NaN,NaN,NaN,false,false,-0.18291178245319872,0.10841840968138797,-0.0880470104181984,,0.0,,,0.0,0.0,0.0,0.0,0.0,0.0,0.0,0.0,0.0,0.0,-2200,3095,0,0,685,26.7264859,58.3915425,,,,,21.93,62.57,49258.54,1,4,5,,,,20240309,84315,85,0,0,0,0,Manual,0,0,0,0,0,30,50,0.0,0.0,0,5,0,0,0,0,0,0,0,0,0,0.0,0.0,0.0,Hover,,lost,100.0,0,0,0,0,0,0,0,0,0,1,0,-106,-589,1491,1606.0,NaN,-112,-688,1523,1674.0,NaN,98,-252,485,-56,-220,434,,,,,,,,,,,,,,,,,,,,,,,,,,,,,,,,,,,,,,,,,,,,,,,,,,0.0,,,,,,,,,,,,,,,,,,,,,,,,,,,,,,,,,,0.0,0.0,0.0,0.0,0.0,180.0,0.0,0.0,0.0,0,,Manual,OTHER,NONE,GPS_POSITION_NONMATCH,False,Connected,,P,False,False,False,0,0,,0.0,,,,,,0.0,0.0,0.0,0.0,NaN,NaN,NaN,0.0,0.0,0.0,0,0,0,15434,0,18.79803,12680.0,15447,-936,0,60,22,1,3856,0,0,0.0,0.0,
29612314,3.974,,,-60.097603,-0.0,,,5,NaN,0.0,0.0,-0.009727464,0.011104918,-0.9895333,0.9896434,0.18068849,-0.10317298,-0.025862565,0.20967084,0.0,0.0,0.0,0.0,0.0,-113,-586,1488,1603.0,54.59,0.0,NaN,NaN,NaN,0.0,NaN,NaN,0.0,0.0,0.0,-0.0,NaN,NaN,NaN,NaN,NaN,NaN,NaN,NaN,false,false,-0.18849395668871893,0.11077874936531298,-0.09610856036652271,,0.0,,,0.0,0.0,0.0,0.0,0.0,0.0,0.0,0.0,0.0,0.0,-2200,3095,0,0,705,26.7264859,58.3915425,,,,,21.93,62.57,49258.54,1,4,5,,,,20240309,84315,87,0,0,0,0,Manual,0,0,0,0,0,30,50,0.0,0.0,0,5,0,0,0,0,0,0,0,0,0,0.0,0.0,0.0,Hover,,lost,100.0,0,0,0,0,0,0,0,0,0,1,0,-113,-586,1488,1603.0,NaN,-112,-683,1526,1675.0,NaN,96,-253,485,-57,-216,436,,,,,,,,,,,,,,,,,,,,,,,,,,,,,,,,,,,,,,,,,,,,,,,,,,0.0,,,,,,,,,,,,,,,,,,,,,,,,,,,,,,,,,,0.0,0.0,0.0,0.0,0.0,180.0,0.0,0.0,0.0,0,,Manual,OTHER,NONE,GPS_POSITION_NONMATCH,False,Connected,,P,False,False,False,0,0,,0.0,,,,,,0.0,0.0,0.0,0.0,NaN,NaN,NaN,0.0,0.0,0.0,0,0,0,15434,0,18.79803,12680.0,15447,-936,0,60,22,1,3856,0,0,0.0,0.0,
29837334,4.024,,,-59.344826,-0.0,,,14,NaN,0.0,0.0,-0.01029163,0.010972574,-0.9889508,0.9890652,0.05377919,-0.17142552,-0.03137917,0.18238302,0.0,0.0,0.0,0.0,0.0,-113,-580,1488,1601.0,54.63,0.0,NaN,NaN,NaN,0.0,NaN,NaN,0.0,0.0,0.0,-0.0,NaN,NaN,NaN,NaN,NaN,NaN,NaN,NaN,false,false,-0.19356024216354362,0.11567289590862509,-0.10401436482953363,,0.0,,,0.0,0.0,0.0,0.0,0.0,0.0,0.0,0.0,0.0,0.0,-2200,3095,0,0,725,26.725486,58.3894337,,,,,0.86,1.66,811.49,8,6,14,,,,20240309,84315,90,0,0,0,0,Manual,0,0,0,0,0,30,50,0.0,0.0,0,5,0,0,0,0,0,0,0,0,0,0.0,0.0,0.0,Hover,,lost,100.0,0,0,0,0,0,0,0,0,0,1,0,-113,-580,1488,1601.0,NaN,-115,-688,1514,1666.0,NaN,98,-252,485,-57,-218,434,,,,,,,,,,,,,,,,,,,,,,,,,,,,,,,,,,,,,,,,,,,,,,,,,,0.0,,,,,,,,,,,,,,,,,,,,,,,,,,,,,,,,,,0.0,0.0,0.0,0.0,0.0,180.0,0.0,0.0,0.0,0,,Manual,OTHER,NONE,GPS_POSITION_NONMATCH,False,Connected,,P,False,False,False,0,0,,0.0,,,,,,0.0,0.0,0.0,0.0,NaN,NaN,NaN,0.0,0.0,0.0,0,0,0,15435,0,85.73816,12680.0,15420,-936,0,60,22,1,3857,0,0,0.0,0.0,
30064385,4.074,,,-60.05206,-0.0,,,14,NaN,0.0,0.0,-0.009715576,0.010834387,-0.9901505,0.99025744,0.02809757,-0.021143865,0.15726806,0.16115142,0.0,0.0,0.0,0.0,0.0,-116,-580,1491,1604.0,54.65,0.0,NaN,NaN,NaN,0.0,NaN,NaN,0.0,0.0,0.0,-0.0,NaN,NaN,NaN,NaN,NaN,NaN,NaN,NaN,false,false,-0.19734405778692987,0.11671007101673539,-0.11362449332791036,,0.0,,,0.0,0.0,0.0,0.0,0.0,0.0,0.0,0.0,0.0,0.0,-2200,3095,0,0,745,26.725486,58.3894337,,,,,0.86,1.66,811.49,8,6,14,,,,20240309,84315,92,0,0,0,0,Manual,0,0,0,0,0,30,50,0.0,0.0,0,5,0,0,0,0,0,0,0,0,0,0.0,0.0,0.0,Hover,,lost,100.0,0,0,0,0,0,0,0,0,0,1,0,-116,-580,1491,1604.0,NaN,-112,-686,1517,1668.0,NaN,96,-252,485,-55,-219,435,,,,,,,,,,,,,,,,,,,,,,,,,,,,,,,,,,,,,,,,,,,,,,,,,,0.0,,,,,,,,,,,,,,,,,,,,,,,,,,,,,,,,,,0.0,0.0,0.0,0.0,0.0,180.0,0.0,0.0,0.0,0,,Manual,OTHER,NONE,GPS_POSITION_NONMATCH,False,Connected,,P,False,False,False,0,0,,0.0,,,,,,0.0,0.0,0.0,0.0,NaN,NaN,NaN,0.0,0.0,0.0,0,0,0,15435,0,85.73816,12680.0,15420,-936,0,60,22,1,3857,0,0,0.0,0.0,
30289441,4.124,,,-60.19236,-0.0,,,14,NaN,0.0,0.0,-0.010116564,0.012006474,-0.9911554,0.9912797,0.077654384,-0.090453304,0.02862639,0.12260291,0.0,0.0,0.0,0.0,0.0,-106,-580,1488,1600.0,54.68,0.0,NaN,NaN,NaN,0.0,NaN,NaN,0.0,0.0,0.0,-0.0,NaN,NaN,NaN,NaN,NaN,NaN,NaN,NaN,false,false,-0.2012783292352801,0.1207807546515153,-0.12078215179002305,,0.0,,,0.0,0.0,0.0,0.0,0.0,0.0,0.0,0.0,0.0,0.0,-2200,3096,0,0,765,26.725486,58.3894337,,,,,0.86,1.66,811.49,8,6,14,,,,20240309,84315,95,0,0,0,0,Manual,0,0,0,0,0,30,50,0.0,0.0,0,5,0,0,0,0,0,0,0,0,0,0.0,0.0,0.0,Hover,,lost,100.0,0,0,0,0,0,0,0,0,0,1,0,-106,-580,1488,1600.0,NaN,-101,-683,1523,1672.0,NaN,97,-251,484,-56,-218,432,,,,,,,,,,,,,,,,,,,,,,,,,,,,,,,,,,,,,,,,,,,,,,,,,,0.0,,,,,,,,,,,,,,,,,,,,,,,,,,,,,,,,,,0.0,0.0,0.0,0.0,0.0,180.0,0.0,0.0,0.0,0,,Manual,OTHER,NONE,GPS_POSITION_NONMATCH,False,Connected,,P,False,False,False,0,0,,0.0,,,,,,0.0,0.0,0.0,0.0,NaN,NaN,NaN,0.0,0.0,0.0,0,0,0,15434,0,85.73816,12680.0,15420,-936,0,60,22,1,3857,0,0,0.0,0.0,
30514498,4.174,,,-59.702362,-0.0,,,14,NaN,0.0,0.0,-0.00995895,0.01059232,-0.9913895,0.9914961,0.017466836,-0.0911838,-0.09009031,0.12936707,0.0,0.0,0.0,0.0,0.0,-110,-577,1494,1605.0,54.74,0.0,NaN,NaN,NaN,0.0,NaN,NaN,0.0,0.0,0.0,-0.0,NaN,NaN,NaN,NaN,NaN,NaN,NaN,NaN,false,false,-0.20652030104923014,0.12301671750175233,-0.12995371513924125,,0.0,,,0.0,0.0,0.0,0.0,0.0,0.0,0.0,0.0,0.0,0.0,-2200,3096,0,0,785,26.725482,58.3894281,,,,,0.86,1.66,543.55,8,6,14,,,,20240309,84315,97,0,0,0,0,Manual,0,0,0,0,0,30,50,0.0,0.0,0,5,0,0,0,0,0,0,0,0,0,0.0,0.0,0.0,Hover,,lost,100.0,0,0,0,0,0,0,0,0,0,1,0,-110,-577,1494,1605.0,NaN,-108,-683,1517,1667.0,NaN,97,-251,486,-55,-218,434,,,,,,,,,,,,,,,,,,,,,,,,,,,,,,,,,,,,,,,,,,,,,,,,,,0.0,,,,,,,,,,,,,,,,,,,,,,,,,,,,,,,,,,0.0,0.0,0.0,0.0,0.0,180.0,0.0,0.0,0.0,0,,Manual,OTHER,NONE,GPS_POSITION_NONMATCH,False,Connected,,P,False,False,False,0,0,,0.0,,,,,,0.0,0.0,0.0,0.0,NaN,NaN,NaN,0.0,0.0,0.0,0,0,0,15433,0,85.73816,12680.0,15420,-936,0,60,22,1,3857,0,0,0.0,0.0,
30739627,4.224,,,-59.682995,-0.0,,,14,NaN,0.0,0.0,-0.009714042,0.011777665,-0.9927665,0.99288386,0.03572633,-0.29346243,-0.14050066,0.3273179,0.0,0.0,0.0,0.0,0.0,-110,-583,1494,1607.0,54.76,0.0,NaN,NaN,NaN,0.0,NaN,NaN,0.0,0.0,0.0,-0.0,NaN,NaN,NaN,NaN,NaN,NaN,NaN,NaN,false,false,-0.2090416365134154,0.12484737494912732,-0.13850362888359025,,0.0,,,0.0,0.0,0.0,0.0,0.0,0.0,0.0,0.0,0.0,0.0,-2200,3096,0,0,805,26.725482,58.3894281,,,,,0.86,1.66,543.55,8,6,14,,,,20240309,84315,100,0,0,0,0,Manual,0,0,0,0,0,30,50,0.0,0.0,0,5,0,0,0,0,0,0,0,0,0,0.0,0.0,0.0,Hover,,lost,100.0,0,0,0,0,0,0,0,0,0,1,0,-110,-583,1494,1607.0,NaN,-108,-686,1529,1679.0,NaN,97,-252,486,-55,-218,434,,,,,,,,,,,,,,,,,,,,,,,,,,,,,,,,,,,,,,,,,,,,,,,,,,0.0,,,,,,,,,,,,,,,,,,,,,,,,,,,,,,,,,,0.0,0.0,0.0,0.0,0.0,180.0,0.0,0.0,0.0,0,    100 [L-GPS]index(0) fdi event:turn on|    100 [L-SENSOR][baro(0)] std_filtered_air_press init succeed: press:102.0,Manual,OTHER,NONE,GPS_POSITION_NONMATCH,False,Connected,,P,False,False,False,0,0,,0.0,,,,,,0.0,0.0,0.0,0.0,NaN,NaN,NaN,0.0,0.0,0.0,0,0,0,15432,0,85.73816,12680.0,15420,-936,0,60,22,1,3857,0,0,0.0,0.0,
30964689,4.274,,,-59.700268,-0.0,,,14,NaN,0.0,0.0,-0.010866759,0.011420695,-0.9922352,0.9923604,-0.039600756,-0.064174496,-0.13831235,0.15753378,0.0,0.0,0.0,0.0,0.0,-110,-580,1488,1600.0,54.83,0.0,NaN,NaN,NaN,0.0,NaN,NaN,0.0,0.0,0.0,-0.0,NaN,NaN,NaN,NaN,NaN,NaN,NaN,NaN,false,false,-0.21337143162937783,0.12752374367253436,-0.14599862703802702,,0.0,,,0.0,0.0,0.0,0.0,0.0,0.0,0.0,0.0,0.0,0.0,-2200,3096,0,0,825,26.725482,58.3894281,,,,,0.86,1.66,543.55,8,6,14,,,,20240309,84315,102,0,0,0,0,Manual,0,0,0,0,0,30,50,0.0,0.0,0,5,0,0,0,0,0,0,0,0,0,0.0,0.0,0.0,Hover,,lost,100.0,0,0,0,0,0,0,0,0,0,1,0,-110,-580,1488,1600.0,NaN,-108,-683,1517,1667.0,NaN,98,-251,485,-56,-218,432,,,,,,,,,,,,,,,,,,,,,,,,,,,,,,,,,,,,,,,,,,,,,,,,,,0.0,,,,,,,,,,,,,,,,,,,,,,,,,,,,,,,,,,0.0,0.0,0.0,0.0,0.0,180.0,0.0,0.0,0.0,0,,Manual,OTHER,NONE,GPS_POSITION_NONMATCH,False,Connected,,P,False,False,False,0,0,,0.0,,,,,,0.0,0.0,0.0,0.0,NaN,NaN,NaN,0.0,0.0,0.0,0,0,0,15431,0,85.73816,12680.0,15420,-936,0,60,22,1,3857,0,0,0.0,0.0,
31189774,4.324,,,-59.946312,-0.0,,,14,NaN,0.0,0.0,-0.010433458,0.010734479,-0.992264,0.9923769,0.10157597,-0.2962238,-0.20813088,0.37601155,0.0,0.0,0.0,0.0,0.0,-110,-583,1491,1604.0,54.89,0.0,NaN,NaN,NaN,0.0,NaN,NaN,0.0,0.0,0.0,-0.0,NaN,NaN,NaN,NaN,NaN,NaN,NaN,NaN,false,false,-0.21722405884654422,0.1310801042662649,-0.15339433068978325,,0.0,,,0.0,0.0,0.0,0.0,0.0,0.0,0.0,0.0,0.0,0.0,-2200,3097,0,0,845,26.725482,58.3894281,,,,,0.86,1.66,543.55,8,6,14,,,,20240309,84315,105,0,0,0,0,Manual,0,0,0,0,0,30,50,0.0,0.0,0,5,0,0,0,0,0,0,0,0,0,0.0,0.0,0.0,Hover,,lost,100.0,0,0,0,0,0,0,0,0,0,1,0,-110,-583,1491,1604.0,NaN,-105,-686,1523,1673.0,NaN,94,-252,484,-55,-218,433,,,,,,,,,,,,,,,,,,,,,,,,,,,,,,,,,,,,,,,,,,,,,,,,,,0.0,,,,,,,,,,,,,,,,,,,,,,,,,,,,,,,,,,0.0,0.0,0.0,0.0,0.0,180.0,0.0,0.0,0.0,0,,Manual,OTHER,NONE,GPS_POSITION_NONMATCH,False,Connected,,P,False,False,False,0,0,,0.0,,,,,,0.0,0.0,0.0,0.0,NaN,NaN,NaN,0.0,0.0,0.0,0,0,0,15431,0,85.73816,12680.0,15420,-936,0,60,22,1,3857,0,0,0.0,0.0,
31414888,4.374,,,-59.71859,-0.0,,,14,NaN,0.0,0.0,-0.008704038,0.010458467,-0.993502,0.9935952,-0.0066140643,-0.1539189,-0.034273274,0.15782723,0.0,0.0,0.0,0.0,0.0,-110,-586,1491,1605.0,54.95,0.0,NaN,NaN,NaN,0.0,NaN,NaN,0.0,0.0,0.0,-0.0,NaN,NaN,NaN,NaN,NaN,NaN,NaN,NaN,false,false,-0.22193898915354354,0.13408254186390597,-0.16063965774037803,,0.0,,,0.0,0.0,0.0,0.0,0.0,0.0,0.0,0.0,0.0,0.0,-2200,3097,0,0,865,26.7254781,58.3893924,,,,,0.86,1.66,362.69,8,6,14,,,,20240309,84315,107,0,0,0,0,Manual,0,0,0,0,0,30,50,0.0,0.0,0,5,0,0,0,0,0,0,0,0,0,0.0,0.0,0.0,Hover,,lost,100.0,0,0,0,0,0,0,0,0,0,1,0,-110,-586,1491,1605.0,NaN,-98,-686,1514,1665.0,NaN,98,-253,485,-55,-218,431,,,,,,,,,,,,,,,,,,,,,,,,,,,,,,,,,,,,,,,,,,,,,,,,,,0.0,,,,,,,,,,,,,,,,,,,,,,,,,,,,,,,,,,0.0,0.0,0.0,0.0,0.0,180.0,0.0,0.0,0.0,0,,Manual,OTHER,NONE,GPS_POSITION_NONMATCH,False,Connected,,P,False,False,False,0,0,,0.0,,,,,,0.0,0.0,0.0,0.0,NaN,NaN,NaN,0.0,0.0,0.0,0,0,0,15432,0,85.73816,12680.0,15420,-936,0,60,22,1,3857,0,0,0.0,0.0,
31639994,4.424,,,-59.955734,-0.0,,,14,NaN,0.0,0.0,-0.009738667,0.0111479815,-0.99409467,0.9942049,0.010436569,-0.15487464,-0.1058214,0.18786496,0.0,0.0,0.0,0.0,0.0,-113,-577,1491,1602.0,55.03,0.0,NaN,NaN,NaN,0.0,NaN,NaN,0.0,0.0,0.0,-0.0,NaN,NaN,NaN,NaN,NaN,NaN,NaN,NaN,false,false,-0.22641024903530288,0.13712214059918623,-0.16920107675794205,,0.0,,,0.0,0.0,0.0,0.0,0.0,0.0,0.0,0.0,0.0,0.0,-2200,3097,0,0,885,26.7254781,58.3893924,,,,,0.86,1.66,362.69,8,6,14,,,,20240309,84315,110,0,0,0,0,Manual,0,0,0,0,0,30,50,0.0,0.0,0,5,0,0,0,0,0,0,0,0,0,0.0,0.0,0.0,Hover,,lost,100.0,0,0,0,0,0,0,0,0,0,1,0,-113,-577,1491,1602.0,NaN,-115,-680,1520,1669.0,NaN,97,-252,486,-54,-218,432,,,,,,,,,,,,,,,,,,,,,,,,,,,,,,,,,,,,,,,,,,,,,,,,,,0.0,,0,0,0,0,23,23,23,23,48.59375,48.90625,48.90625,49.010418,48.958332,48.958332,48.958332,48.958332,0.0,0.0,0.0,0.0,15.1,15.1,14.9,14.9,0.0,0.0,0.0,0.0,0,0,0,0,0.0,0.0,0.0,0.0,0.0,180.0,0.0,0.0,0.0,0,    109 [L-ESC]esc alive info = 0x0|||    109 [L-ESC]ESC0 link up|||    109 [L-ESC]ESC1 link up|||    109 [L-ESC]ESC2 link up|||    110 [L-FMU/MOTOR]fault off. esc(1) is disconnect|    110 [L-FMU/MOTOR]fault off. esc(2) is disconnect|    110 [L-FMU/MOTOR]fault off. esc(3) is disconnect|    110 [L-ESC]ESC3 link up|||    110 [L-ESC]ESC0 version: Protocol = [V1.0] Hardware = "WM330_EV1" |    110 [L-ESC]Loader   = [V01.00.00.00] |    110 [L-ESC]Firmware = [V01.08.00.07] |||    110 [L-ESC]ESC1 version: Protocol = [V1.0] Hardware = "WM330_EV1" |    110 [L-ESC]Loader   = [V01.00.00.00] |    110 [L-ESC]Firmware = [V01.08.00.07] |||    111 [L-FMU/MOTOR]fault off. esc(4) is disconnect,Manual,OTHER,NONE,GPS_POSITION_NONMATCH,False,Connected,,P,False,False,False,0,0,,0.0,,,,,,0.0,0.0,0.0,0.0,NaN,NaN,NaN,0.0,0.0,0.0,0,0,0,15434,0,85.73816,12680.0,15420,-936,0,60,22,1,3857,0,0,0.0,0.0,
31865805,4.474,,,-59.90338,-0.0,,,14,NaN,0.0,0.0,-0.009638309,0.01096012,-0.99431944,0.99442655,0.06928788,-0.07806395,-0.17376299,0.20270266,0.0,0.0,0.0,0.0,0.0,-116,-580,1488,1601.0,55.06,0.0,NaN,NaN,NaN,0.0,NaN,NaN,0.0,0.0,0.0,-0.0,NaN,NaN,NaN,NaN,NaN,NaN,NaN,NaN,false,false,-0.22859983647379317,0.1378963397574274,-0.17659313568587065,,0.0,,,0.0,0.0,0.0,0.0,0.0,0.0,0.0,0.0,0.0,0.0,-2200,3097,0,0,905,26.7254781,58.3893924,,,,,0.86,1.66,362.69,8,6,14,,,,20240309,84315,112,0,0,0,0,Manual,0,0,0,0,0,30,50,0.0,0.0,0,5,0,0,0,0,0,0,0,0,0,0.0,0.0,0.0,Hover,,lost,100.0,0,0,0,0,0,0,0,0,0,1,0,-116,-580,1488,1601.0,NaN,-105,-686,1526,1676.0,NaN,96,-252,485,-56,-219,435,,,,,,,,,,,,,,,,,,,,,,,,,,,,,,,,,,,,,,,,,,,,,,,,,,0.0,,0,0,0,0,23,23,23,23,48.59375,48.90625,48.854168,49.010418,48.958332,48.958332,48.958332,48.958332,0.0,0.0,0.0,0.0,15.1,15.1,14.9,14.9,0.0,0.0,0.0,0.0,0,0,0,0,0.0,0.0,0.0,0.0,0.0,180.0,0.0,0.0,0.0,0,    111 [L-ESC]ESC2 version: Protocol = [V1.0] Hardware = "WM330_EV1" |    111 [L-ESC]Loader   = [V01.00.00.00] |    111 [L-ESC]Firmware = [V01.08.00.07] ||,Manual,OTHER,NONE,GPS_POSITION_NONMATCH,False,Connected,,P,False,False,False,0,0,,0.0,,,,,,0.0,0.0,0.0,0.0,NaN,NaN,NaN,0.0,0.0,0.0,0,0,0,15435,0,85.73816,12680.0,15420,-936,0,60,22,1,3857,0,0,0.0,0.0,
32090867,4.524,,,-59.798683,-0.0,,,14,NaN,0.0,0.0,-0.009470507,0.011243532,-0.9942713,0.99438,-0.012503528,-0.17458238,-0.20588927,0.27023274,0.0,0.0,0.0,0.0,0.0,-113,-583,1494,1607.0,55.14,0.0,NaN,NaN,NaN,0.0,NaN,NaN,0.0,0.0,0.0,-0.0,NaN,NaN,NaN,NaN,NaN,NaN,NaN,NaN,false,false,-0.23295539255243175,0.1415038800665159,-0.18658984079858298,,0.0,,,0.0,0.0,0.0,0.0,0.0,0.0,0.0,0.0,0.0,0.0,-2200,3098,0,0,925,26.7254781,58.3893924,,,,,0.86,1.66,362.69,8,6,14,,,,20240309,84315,115,0,0,0,0,Manual,0,0,0,0,0,30,50,0.0,0.0,0,5,0,0,0,0,0,0,0,0,0,0.0,0.0,0.0,Hover,,lost,100.0,0,0,0,0,0,0,0,0,0,1,0,-113,-583,1494,1607.0,NaN,-115,-686,1523,1674.0,NaN,96,-252,486,-55,-218,435,,,,,,,,,,,,,,,,,,,,,,,,,,,,,,,,,,,,,,,,,,,,,,,,,,0.0,,0,0,0,0,23,23,23,23,48.59375,48.90625,48.90625,49.010418,48.958332,48.958332,48.958332,48.958332,0.0,0.0,0.0,0.0,15.2,15.1,14.9,14.9,0.0,0.0,0.0,0.0,0,0,0,0,0.0,0.0,0.0,0.0,0.0,180.0,0.0,0.0,0.0,0,,Manual,OTHER,NONE,GPS_POSITION_NONMATCH,False,Connected,,P,False,False,False,0,0,,0.0,,,,,,0.0,0.0,0.0,0.0,NaN,NaN,NaN,0.0,0.0,0.0,0,0,0,15438,0,85.73816,12680.0,15420,-936,0,60,22,1,3857,0,0,0.0,0.0,
32316682,4.574,,,-59.677757,-0.0,,,14,NaN,0.0,0.0,-0.010309693,0.011379504,-0.9940218,0.9941404,0.09141457,-0.20521696,-0.16017608,0.2759112,0.0,0.0,0.0,0.0,0.0,-113,-580,1488,1601.0,55.17,0.0,NaN,NaN,NaN,0.0,NaN,NaN,0.0,0.0,0.0,-0.0,NaN,NaN,NaN,NaN,NaN,NaN,NaN,NaN,false,false,-0.23766760311979324,0.14488135935401777,-0.1960155651790917,,0.0,,,0.0,0.0,0.0,0.0,0.0,0.0,0.0,0.0,0.0,0.0,-2200,3098,0,0,945,26.7254656,58.3893903,,,,,0.86,1.66,264.13,8,6,14,,,,20240309,84315,117,0,0,0,0,Manual,0,0,0,0,0,30,50,0.0,0.0,0,5,0,0,0,0,0,0,0,0,0,0.0,0.0,0.0,Hover,,lost,100.0,0,0,0,0,0,0,0,0,0,1,0,-113,-580,1488,1601.0,NaN,-105,-680,1520,1668.0,NaN,96,-251,484,-55,-217,435,,,,,,,,,,,,,,,,,,,,,,,,,,,,,,,,,,,,,,,,,,,,,,,,,,0.0,,0,0,0,0,23,23,23,23,48.59375,48.90625,48.90625,49.010418,48.958332,48.958332,48.958332,48.958332,0.0,0.0,0.0,0.0,15.2,15.1,14.9,15.0,0.0,0.0,0.0,0.0,0,0,0,0,0.0,0.0,0.0,0.0,0.0,180.0,0.0,0.0,0.0,0,,Manual,OTHER,NONE,GPS_POSITION_NONMATCH,False,Connected,,P,False,False,False,0,0,,0.0,,,,,,0.0,0.0,0.0,0.0,NaN,NaN,NaN,0.0,0.0,0.0,0,0,0,15439,0,85.73816,12680.0,15420,-936,0,60,22,1,3857,0,0,0.0,0.0,
