Clock:Tick#,Clock:offsetTime,IMU_ATTI(0):Longitude,IMU_ATTI(0):Latitude,IMU_ATTI(0):press:D,IMU_ATTI(0):alti:D,IMU_ATTI(0):relativeHeight:C,IMU_ATTI(0):absoluteHeight:C,IMU_ATTI(0):numSats,IMU_ATTI(0):roll:C,IMU_ATTI(0):pitch:C,IMU_ATTI(0):yaw:C,IMU_ATTI(0):accelX,IMU_ATTI(0):accelY,IMU_ATTI(0):accelZ,IMU_ATTI(0):accelComposite:C,IMU_ATTI(0):gyroX,IMU_ATTI(0):gyroY,IMU_ATTI(0):gyroZ,IMU_ATTI(0):gyroComposite:C,IMU_ATTI(0):velN,IMU_ATTI(0):velE,IMU_ATTI(0):velD,IMU_ATTI(0):velComposite:C,IMU_ATTI(0):velH:C,IMU_ATTI(0):magX,IMU_ATTI(0):magY,IMU_ATTI(0):magZ,IMU_ATTI(0):magMod:C,IMU_ATTI(0):temperature,IMU_ATTI(0):yawUnWrapped:C,IMU_ATTI(0):tiltInclination:C,IMU_ATTI(0):tiltDirectionEarthFrame:C,IMU_ATTI(0):tiltDirectionBodyFrame:C,IMU_ATTI(0):yaw360:C,IMU_ATTI(0):magYaw:C,IMU_ATTI(0):Yaw-magYaw:C,IMUCalcs(0):PosN:C,IMUCalcs(0):PosE:C,IMUCalcs(0):PosD:C,IMUCalcs(0):height:C,IMUCalcs(0):velN:C,IMUCalcs(0):velE:C,IMUCalcs(0):velD:C,IMUCalcs(0):diffVelN:C,IMUCalcs(0):diffVelE:C,IMUCalcs(0):diffVelD:C,IMUCalcs(0):Lat:C,IMUCalcs(0):Long:C,IMUCalcs(0):VelocityError:C,IMUCalcs(0):PositionError:C,IMUCalcs(0):totalGyroZ:C,IMUCalcs(0):totalGyroX:C,IMUCalcs(0):totalGyroY:C,IMU_ATTI(0):distanceHP:C,IMU_ATTI(0):distanceTravelled:C,IMU_ATTI(0):directionOfTravel[mag]:C,IMU_ATTI(0):directionOfTravel[true]:C,IMU_ATTI(0):quatW:D,IMU_ATTI(0):quatX:D,IMU_ATTI(0):quatY:D,IMU_ATTI(0):quatZ:D,IMU_ATTI(0):agX:D,IMU_ATTI(0):agY:D,IMU_ATTI(0):agZ:D,IMU_ATTI(0):gbX:D,IMU_ATTI(0):gbY:D,IMU_ATTI(0):gbZ:D,IMU_ATTI(0):ty:D,IMU_ATTI(0):tz:D,IMU_ATTI(0):sensor_stat:D,IMU_ATTI(0):filter_stat:D,IMU_ATTI(0):atti_cnt:D,GPS:Long,GPS:Lat,GPS:Date,GPS:Time,GPS:dateTimeStamp,GPS:heightMSL,GPS:hDOP,GPS:pDOP,GPS:sAcc,GPS:numGPS,GPS:numGLNAS,GPS:numSV,GPS:velN,GPS:velE,GPS:velD,GPS:rawDate,GPS:rawTime,Controller:ctrl_tick:D,Controller:ctrl_pitch:D,Controller:ctrl_roll:D,Controller:ctrl_yaw:D,Controller:ctrl_thr:D,Controller:ctrl_mode,Controller:mode_switch:D,Controller:motor_state:D,Controller:sig_level:D,Controller:ctrl_level:D,Controller:sim_model:D,Controller:max_height:D,Controller:max_radius:D,Controller:D2H_x:D,Controller:D2H_y:D,Controller:act_req_id:D,Controller:act_act_id:D,Controller:cmd_mod:D,Controller:mod_req_id:D,Controller:fw_flag:D,Controller:mot_sta:D,Controller:OH_take:D,Controller:OH_take_f:D,Controller:rc_cnt:D,Controller:sup_rc:D,Controller:is_soaring_up:D,Controller:soar_up_timer:D,Controller:vert_vel_err:D,Controller:vert_vel_err_fltr:D,RC_Info:failSafe,RC_Info:dataLost,RC_Info:appLost,RC_Info:sigStrength:C,RC_Info:cur_cmd:D,RC_Info:vedio_lost:D,RC_Info:frame_lost:D,RC_Info:rec_cnt:D,RC_Info:sky_con:D,RC_Info:gnd_con:D,RC_Info:connected:D,RC_Info:m_changed:D,RC_Info:arm_status:D,RC_Info:wifi_en:D,RC_Info:in_wifi:D,MagCali(0):X:D,MagCali(0):Y:D,MagCali(0):Z:D,MagCali(0):Mod:C,MagCali(0):magYaw:C,MagCali(1):X:D,MagCali(1):Y:D,MagCali(1):Z:D,MagCali(1):Mod:C,MagCali(1):magYaw:C,CompassFilter(0):X:D,CompassFilter(0):Y:D,CompassFilter(0):Z:D,CompassFilter(1):X:D,CompassFilter(1):Y:D,CompassFilter(1):Z:D,BatteryStatus:not_ready,BatteryStatus:comm_err,BatteryStatus:first_auth,BatteryStatus:auth_fail,BatteryStatus:need_re,BatteryStatus:volVerylow,BatteryStatus:volNotsafe,BatteryStatus:volLevel1:D,BatteryStatus:vollevel2:D,BatteryStatus:capLevel1:D,BatteryStatus:capLevel2:D,BatteryStatus:smartCap1:D,BatteryStatus:smartCap2:D,BatteryStatus:d_flg:D,BatteryStatus:ccsc:D,BatteryStatus:all:D,SMART_BATT:goHome%,SMART_BATT:land%,SMART_BATT:goHomeTime,SMART_BATT:landTime,OA:frontDistance,MVO:velX,MVO:velY,MVO:velZ,MVO:posX,MVO:posY,MVO:posZ,MVO:hoverPointUncertainty1,MVO:hoverPointUncertainty2,MVO:hoverPointUncertainty3,MVO:hoverPointUncertainty4,MVO:hoverPointUncertainty5,MVO:hoverPointUncertainty6,MVO:velocityUncertainty1,MVO:velocityUncertainty2,MVO:velocityUncertainty3,MVO:velocityUncertainty4,MVO:velocityUncertainty5,MVO:velocityUncertainty6,MVO:height,MVO:heightUncertainty,Motor:Speed:RFront,Motor:Speed:LFront,Motor:Speed:LBack,Motor:Speed:RBack,Motor:EscTemp:RFront,Motor:EscTemp:LFront,Motor:EscTemp:LBack,Motor:EscTemp:RBack,Motor:PPMrecv:RFront,Motor:PPMrecv:LFront,Motor:PPMrecv:LBack,Motor:PPMrecv:RBack,Motor:PPMsend:RFront,Motor:PPMsend:LFront,Motor:PPMsend:LBack,Motor:PPMsend:RBack,Motor:V_out:RFront,Motor:V_out:LFront,Motor:V_out:LBack,Motor:V_out:RBack,Motor:Volts:RFront,Motor:Volts:LFront,Motor:Volts:LBack,Motor:Volts:RBack,Motor:Current:RFront,Motor:Current:LFront,Motor:Current:LBack,Motor:Current:RBack,Motor:Status:RFront,Motor:Status:LFront,Motor:Status:LBack,Motor:Status:RBack,AirSpeed:air_vbx:D,AirSpeed:air_vby:D,AirSpeed:comp_alti:D,AirSpeed:windSpeed,AirSpeed:windDirection,AirSpeed:windFromDir,AirSpeed:windN,AirSpeed:windE,AirSpeed:MotorSpd:D,AirSpeed:vel_level:D,eventLog,osd_data:flyCState,osd_data:flycCommand,osd_data:flightAction,osd_data:nonGPSCause,osd_data:compassError,osd_data:connectedToRC,osd_data:lowVoltage,osd_data:ModeSwitch,osd_data:gpsUsed,osd_data:visionUsed,osd_data:notEnoughForce,osd_data:flightTime,osd_data:navHealth,osd_data:vpsHeight,osd_data:relativeHeight,usonic:usonic_h,ATTI_MINI0:s_qw0,ATTI_MINI0:s_qx0,ATTI_MINI0:s_qy0,ATTI_MINI0:s_qz0,ATTI_MINI0:roll:C,ATTI_MINI0:pitch:C,ATTI_MINI0:yaw:C,ATTI_MINI0:s_pgz0,ATTI_MINI0:s_vgz0,ATTI_MINI0:s_agz0,ATTI_MINI0:s_rsv00,ATTI_MINI0:s_rsv10,ATTI_MINI0:s_cnt0,BatteryInfo:ad_v:D,BatteryInfo:r_time,BatteryInfo:ave_I:D,BatteryInfo:vol_t:D,BatteryInfo:pack_ve:D,BatteryInfo:I:D,BatteryInfo:r_cap:D,BatteryInfo:cap_per:D,BatteryInfo:temp:D,BatteryInfo:right:D,BatteryInfo:l_cell:D,BatteryInfo:dyna_cnt:D,BatteryInfo:f_cap:D,BatteryInfo:out_ctl:D,BatteryInfo:out_ctl_f:D,Attribute|Value,ConvertDatV3,4.3.0
0,.000,,,,,,,,,,,,,,,,,,,,,,,,,,,,,,,,,,,,,,,,,,,,,,,,,,,,,,,,,,,,,,,,,,,,,,,,,,,,,,,,,,,,,,,,,,,,,,,,,,,,,,,,,,,,,,,,,,,,,,,,,,,,,,,,,,,,,,,,,,,,,,,,,,,,,,,,,,,,,,,,,,,,,,,,,,,,,,,,,,,,,,,,,,,,,,,,,,,,,,,,,,,,,,,,,,,,,,,,,,,,,,,,,,,,,,,,,,,,,,,,,,,,,,,,,,,,,,,,,,,,,,,,,,,,,,,,,,,,
11809715,2.624,,,,,,,,,,,,,,,,,,,,,,,,,,,,,,,,,,,,,,,,,,,,,,,,,,,,,,,,,,,,,,,,,,,,,,,,,,,,,,,,,,,,,,,,,,,,,,,,,,,,,,,,,,,,,,,,,,,,,,,,,,,,,,,,,,,,,,,,,,,,,,,,,,,,,,,,,,,,,,,,,,,,,,,,,,,,,,,,,,,,,,,,,,,,0.0,,,,,,,,,,,,,,,,,,,,,,,,,,,,,,,,,,,,,,,,,,,,{root}INFO:lib_route_init ok,,,,,,,,P,,,,,,,,,,,,,,,,,,,,,,,,,,,,,,,,,,,,,Firmware Date| Nov 16 2017
17216542,3.826,,,,,,,,,,,,,,,,,,,,,,,,,,,,,,,,,,,,,,,,,,,,,,,,,,,,,,,,,,,,,,,,,,,,,,,,,,,,,,,,,,,,,,,,,,,,,,,,,,,,,,,,,,,,,,,,,,,,,,,,,,,,,,,,,,,,,,,,,,,,,,,,,,,,,,,,,,,,,,,,,,,,,,,,,,,,,,,,,,,,,,,,,,,,0.0,,,,,,,,,,,,,,,,,,,,,,,,,,,,,,,,,,,,,,,,,,,,{root}INFO:link_host_init ok.|||{root}INFO:link_init <0> link_host. ret(0x0)|||{root}INFO:link_init <1> link_pc. ret(0x0)|||{root}INFO:link_init <2> link_vo. ret(0x0)|||{root}INFO:link_init <3> link_ap. ret(0x0)|||{root}INFO:link_init <4> link_sdk. ret(0x0)|||{root}INFO:link_init <5> link_ofdm. ret(0x0)|||{root}INFO:link_init <6> link_auto_cali. ret(0x0)|||{root}INFO:link_init <7> link_manual_cali. ret(0x0)|||{root}INFO:link_init <8> link_cali_led. ret(0x0)|||      0 [L-SENSOR][ASR]sync host lead offset 0x11a|||{root}INFO:[panic]:******************check fault info and trace(0) ************|||{root}INFO:[panic]:-----fault info is null: addr(0x2045e800).flag(0x3f705a69)-----|||{root}INFO:[panic]:-----fault info is null: addr(0x2045e938).flag(0x9da8dbce)-----|||{root}INFO:[panic]:-----all task info  is null: addr(0x2045ea70).flag(0x06745954)-----|||{root}INFO:[panic]:-----trace info  is null: addr(0x2045f260).flag(0x56f6a1ca)-----|||{root}INFO:[panic]:******************check last trace ******************|||{root}INFO:[panic]:-----trace info  is null: addr(0x2045eca0).flag(0x0b9b8ae0)-----|||      0 [L-SENSOR][ASR]asr host sync start|{root}INFO:[panic]:-----wdg_time_info is null: addr(0x2045f820).flag(0xa3ceddbc)-----|||      0 [L-SENSOR] hw_ver voltage: 0,,,,,,,,P,,,,,,,,,,,,,,,,,,,,,,,,,,,,,,,,,,,,,ACType|P4
21353634,4.745,,,,,,,,,,,,,,,,,,,,,,,,,,,,,,,,,,,,,,,,,,,,,,,,,,,,,,,,,,,,,,,,,,,,,,,,,,,,,,,,,,,,,,,,,,,,,,,,,,,,,,,,,,,,,,,,,,,,,,,,,,,,,,,,,,,,,,,,,,,,,,,,,,,,,,,,,,,,,,,,,,,,,,,,,,,,,,,,,,,,,,,,,,,,0.0,,,,,,,,,,,,,,,,,,,,,,,,,,,,,,,,,,,,,,,,,,,,      0 [L-SIM]read parameter successfully!,,,,,,,,P,,,,,,,,,,,,,,,,,,,,,,,,,,,,,,,,,,,,,
21578735,4.795,,,,,,,,,,,,,,,,,,,,,,,,,,,,,,,,,,,,,,,,,,,,,,,,,,,,,,,,,,,,,,,,,,,,,,,,,,,,,,,,,,,,,,,,,,,,,,,,,,,,,,,,,,,,,,,,,,,,,,,,,,,,,,,,,,,,,,,,,,,,,,,,,,,,,,,,,,,,,,,,,,,,,,,,,,,,,,,,,,,,,,,,,,,,0.0,,,,,,,,,,,,,,,,,,,,,,,,,,,,,,,,,,,,,,,,,,,,      0 [L-FMU/MOTOR]read motor force disable flag successfully!|      0 [L-FMU/DM]success reg dev type  3(A3). id:2. total num:2|      0 [L-SENSOR][ASR]need re sync host load_offset. freq=0x190|||      0 [L-SENSOR][ASR]need re sync host load_offset. freq=0x190|||      0 [L-SENSOR][ASR]need re sync host load_offset. freq=0x190|||      0 [L-SENSOR][ASR]need re sync host load_offset. freq=0x190|||      0 [L-SENSOR]imu group0 ok|      0 [L-GYRO_ACC]imu_0 group->sensor_id:e36a51 |      0 [L-GYRO_ACC]turn on temp ctrl(0). cur_temp:-50.0. reason:temp ctrl core init|      0 [L-SENSOR][ASR]sync host lead offset 0x11a|||      0 [L-GYRO_ACC]turn on temp ctrl(0). cur_temp:0.0. reason:gyro_acc_tmp_ctl_init|      0 [L-SENSOR][ASR]asr host sync start|      0 [L-GYRO_ACC]fitler-angular_vel. cheby2_config_7th|      0 [L-GYRO_ACC]fz: 160.000000 hz.50.000000 dB|      0 [L-GYRO_ACC]fitler-linear_acc. butter_config_3rd_z2|      0 [L-GYRO_ACC] fp= 16.000000 hz; fz=100.000000 hz fs=2000.000000|      0 [L-GYRO_ACC]bandpass: fp= 50.000000 hz; fs=350.000000 hz; sample=2000.000000|      0 [L-FDI][IMU]0 dir ok 1.000000 0.000000 0.000000 0.000000 1.000000 0.000000 0.000000 0.|      0 [L-FDI][IMU]0 mis cali ok|      0 [L-FDI][IMU]0 level 1&2 temp cali ok|      0 [L-FDI][IMU]0 base cali ok ff aa|      0 [L-FDI][IMU]0 cali ver ok ff 4 6 6|      0 [L-FMU/DM]success reg dev type  8(gyro_acc0). id:3. total num:3|      0 [L-SENSOR]imu group1 ok|      0 [L-GYRO_ACC]imu_1 group->sensor_id:20e36a51 |      0 [L-GYRO_ACC]turn on temp ctrl(1). cur_temp:-50.0. reason:temp ctrl core init|      0 [L-GYRO_ACC]turn on temp ctrl(1). cur_temp:0.0. reason:gyro_acc_tmp_ctl_init|      0 [L-GYRO_ACC]fitler-angular_vel. cheby2_config_7th|      0 [L-GYRO_ACC]fz: 160.000000 hz.50.000000 dB|      0 [L-GYRO_ACC]fitler-linear_acc. butter_config_3rd_z2|      0 [L-GYRO_ACC] fp= 16.000000 hz; fz=100.000000 hz fs=2000.000000|      0 [L-GYRO_ACC]bandpass: fp= 50.000000 hz; fs=350.000000 hz; sample=2000.000000|      0 [L-FDI][IMU]1 dir ok 1.000000 0.000000 0.000000 0.000000 1.000000 0.000000 0.000000 0.|      0 [L-FDI][IMU]1 mis cali ok|      0 [L-FDI][IMU]1 level 1&2 temp cali ok|      0 [L-FDI][IMU]1 base cali ok ff aa|      0 [L-FDI][IMU]1 cali ver ok ff 4 6 6|      0 [L-FMU/DM]success reg dev type  8(gyro_acc1). id:4. total num:4|      0 [L-SENSOR]baro group0 ok|      0 [L-FMU/DM]success reg dev type  9(baro0). id:5. total num:5|      0 [L-SENSOR]compass group0 ok|      0 [L-FMU/DM]success reg dev type 10(compass0). id:6. total num:6|      0 [L-SENSOR]compass group1 ok|      0 [L-FMU/DM]success reg dev type 10(compass0). id:7. total num:7|      0 [L-FMU/DM]success reg dev type  4(imu0_local). id:8. total num:8|      0 [L-FMU/DM]success reg dev type 19(rc0). id:9. total num:9|      0 [L-FMU/DM]success reg dev type 15(zenmus0). id:10. total num:10|      0 [L-FMU/DM]success reg dev type 14(camera0). id:11. total num:11|      0 [L-FMU/DM]success reg dev type 12(vo0). id:12. total num:12|      0 [L-FMU/DM]success reg dev type 11(ultrasonic0). id:13. total num:13|      0 [L-GPS]<AGPS INFO>comm agps init.agps mode :HOST-BASE|      0 [L-SDK][USER] api cfg load success (BR:921600)!|||      0 [L-FMU/DM]success reg dev type 22(sdk0). id:14. total num:14|      0 [L-BATTERY]-------comm_bat_init-------|      0 [L-FMU/DM]success reg dev type 26(battery0). id:15. total num:15|      0 [L-BATTERY]bat_auth_origa_init|      0 [L-BATTERY]bat_auth_origa_stop|      0 [L-FMU/DM]success reg dev type 32(wristband0). id:16. total num:16|      0 [L-FMU/DM]success reg dev type 33(headset0). id:17. total num:17|      0 [L-PWM]actuator_cfg_changed![ACTUATOR_0]|      0 [L-PWM]actuator_cfg_changed![ACTUATOR_1],,,,,,,,P,,,,,,,,,,,,,,,,,,,,,,,,,,,,,,,,,,,,,
21804632,4.845,,,0.0,-0.0,,,0,NaN,0.0,0.0,-0.0010530894,-0.010371812,-0.11406318,0.11453861,0.29539633,0.40074044,-0.55731887,0.74729925,0.0,0.0,0.0,0.0,0.0,257,-69,488,555.0,0.0,0.0,NaN,NaN,NaN,0.0,NaN,NaN,0.0,0.0,0.0,-0.0,NaN,NaN,NaN,NaN,NaN,NaN,NaN,NaN,false,false,-0.0013925318046403845,7.380851548077771E-4,0.0010013007783982175,,0.0,,,0.0,0.0,0.0,0.0,0.0,0.0,0.0,0.0,0.0,0.0,0,0,0,0,5,0.0,0.0,,,,,99.99,99.99,3.75E7,0,0,0,,,,0,0,,,,,,,,,,,,,,,,,,,,,,,,,,,,,,,,,,,,,,,,,,,,,257,-69,488,555.0,NaN,187,6,390,432.0,NaN,85,-23,162,62,2,130,,,,,,,,,,,,,,,,,,,,,,,,,,,,,,,,,,,,,,,,0.0,,,,,,,,,,,,,,,,,,,,,,,,,,,,,,,,,,,,,,,,,,,,      0 [L-PWM]actuator_cfg_changed![ACTUATOR_2]|      0 [L-PWM]actuator_cfg_changed![ACTUATOR_3]|      0 [L-PWM]actuator_cfg_changed![ACTUATOR_4]|      0 [L-PWM]actuator_cfg_changed![ACTUATOR_5]|      0 [L-PWM]actuator_cfg_changed![ACTUATOR_6]|      0 [L-PWM]actuator_cfg_changed![ACTUATOR_7]|      0 [L-PWM]set actuator mode:IDLE|      0 [L-PWM]f_chl_cfg changed!|      0 [L-FMU/DM]success reg dev type 17(). id:18. total num:18|      0 [L-FMU/DM]success reg dev type  0(esc4). id:19. total num:19|      0 [L-FMU/DM]success reg dev type 16(GEAR). id:20. total num:20|      0 [L-FMU/DM]success reg dev type 24(DROPSAFE). id:21. total num:21|      0 [L-FMU/DM]success reg dev type 34(PITOT). id:22. total num:22|      0 [L-DBG1][Init]Init ok:|      0 [L-DBG1][Init]HF task : 400Hz @ mode2|      0 [L-DBG1][Init]LF task : 50Hz @ mode0|      0 [L-DBG1][Init]Tail: 400Hz Atti: 200Hz|      0 [L-DBG1][Init]Init ok:|      0 [L-DBG1][Init]MF task : 200Hz @ mode4|      0 [L-USER][USER]Read user config!|      0 [L-USER][USER]Read statistical info!|      0 [L-USER][USER]Read statistical info!|{root}INFO:reset by power.|||{root}INFO:iwdg_set_time_out time_out(0x00000a23)!|{root}INFO:wdg_set_swdg_time_out time_out(2595) set g_swdg_timeout_max(480) |||{root}INFO:watchdog enable.|||      0 [L-SENSOR][ASR]ASR sync start(start).phase lead = 0|      0 [L-GPS]<GPS INFO>m8_poll_uniqid gps[0][0]|      0 [L-GPS]<GPS ERROR>m8 uid not received!|      0 [L-SDK][USER] Init_dji_api_protocol start!|||      0 [L-SDK][USER] Baud_rate: 921600 |||      0 [L-SDK][USER]----------start sdk protocol ---------|||      0 [L-CTRL]horiz vel complement filter fc:0.300000|      0 [L-CTRL]vert vel complement filter fc:0.300000|      0 [L-NS][AHRS] baro abp : 0.100000|      0 [L-NS][AHRS] baro a   : 0.998000|      0 [L-NS][AHRS] baro v   : 0.620000|      0 [L-NS][AHRS] baro p   : 0.680000|      0 [L-NS][AHRS] mag_gain: 100|      0 [L-NS][AHRS]  fs_gnss_hp        :  1|      0 [L-NS][AHRS]  fs_gnss_hv        :  1|      0 [L-NS][AHRS]  fs_gnss_vp        :  1|      0 [L-NS][AHRS]  fs_vodm_hp        :  1|      0 [L-NS][AHRS]  fs_vodm_hv        :  1|      0 [L-NS][AHRS]  fs_vodm_vp        :  1|      0 [L-NS][AHRS]  fs_vodm_vv        :  1|      0 [L-NS][AHRS]  fs_vodm_vh        :  1|      0 [L-NS][AHRS]  fs_usnc_vp        :  1|      0 [L-NS][AHRS]  fs_baro_vp        :  1|      0 [L-NS][AHRS]  fs_magn_yaw       :  1|      0 [L-NS][AHRS]  dlt_gnss_hp       : 35|      0 [L-NS][AHRS]  dlt_gnss_hv       : 55|      0 [L-NS][AHRS]  dlt_gnss_vp       : 35|      0 [L-NS][AHRS]  dlt_gnss_vv       : 55|      0 [L-NS][AHRS]  dlt_vodm_hp       :  4|      0 [L-NS][AHRS]  dlt_vodm_hv       :  4|      0 [L-NS][AHRS]  dlt_vodm_vp       :  4|      0 [L-NS][AHRS]  dlt_vodm_vv       :  4|      0 [L-NS][AHRS]  dlt_vodm_vh       :  4|      0 [L-NS][AHRS]  dlt_rtks_hp_p     : 60|      0 [L-NS][AHRS]  dlt_rtks_hp_s     : 60|      0 [L-NS][AHRS]  dlt_rtks_hv       : 60|      0 [L-NS][AHRS]  dlt_rtks_vp_p     : 40|      0 [L-NS][AHRS]  dlt_rtks_vp_s     : 60|      0 [L-NS][AHRS]  dlt_rtks_vv       : 60|      0 [L-NS][AHRS]  dlt_rtks_yaw      : 60|      0 [L-NS][AHRS]  dlt_magn_yaw      :  5|      0 [L-NS][AHRS]  thermostatic_temp : 65|      0 [L-NS][AHRS]  ground_effect_ht  : 50|      0 [L-NS][AHRS] Rgps:0.000.0.000.-0.030|||      0 [L-NS][AHRS] Rimu:0.023.0.013.-0.014|||      0 [L-NS][AHRS]version: V3_20161218_[09]|      0 [L-GPS]<GPS ERROR>[error] find unregisted msg 0x01 0xb5||,,,,,,,,P,,,,,,,,,,,,,,,,,,,,,,,,,,,,,,,,,,,,,
23125613,5.139,,,0.0,-0.0,,,0,NaN,0.0,0.0,0.01513285,-0.011221916,-0.29949972,0.30009168,0.047146976,0.52320606,-0.7092989,0.88265073,0.0,0.0,0.0,0.0,0.0,257,-69,488,555.0,0.0,0.0,NaN,NaN,NaN,0.0,NaN,NaN,0.0,0.0,0.0,-0.0,NaN,NaN,NaN,NaN,NaN,NaN,NaN,NaN,false,false,-0.004585119446574026,0.0016014865223610286,0.0033301644936045705,,0.0,,,0.0,0.0,0.0,0.0,0.0,0.0,0.0,0.0,0.0,0.0,0,0,0,0,7,0.0,0.0,,,,,99.99,99.99,3.75E7,0,0,0,,,,0,0,0,0,0,0,0,Manual,0,0,0,0,0,100,5000,0.0,0.0,0,5,0,0,0,0,0,0,0,0,0,0.0,0.0,0.0,,,,,,,,,,,,,,,,258,-70,488,556.0,NaN,188,9,388,431.0,NaN,248,-66,471,180,6,375,,,,,,,,,,,,,,,,,,,,,,,,,,,,,,,,,,,,,,,,0.0,,,,,,,,,,,,,,,,,,,,,,,,,,,,,,,,,,0.0,0.0,0.0,0.0,0.0,180.0,0.0,0.0,0.0,0,,,,,,,,,P,,,,,,,,,0.0,0.0,0.0,0.0,NaN,NaN,NaN,0.0,0.0,0.0,0,0,0,,,,,,,,,,,,,,,,
23352569,5.189,,,0.0,-0.0,,,0,NaN,0.0,0.0,0.084656745,-0.0071564177,-0.98309904,0.98676324,0.014091934,0.00678634,-0.7482812,0.7484446,0.0,0.0,0.0,0.0,0.0,411,-70,1494,1551.0,25.17,0.0,NaN,NaN,NaN,0.0,NaN,NaN,0.0,0.0,0.0,-0.0,NaN,NaN,NaN,NaN,NaN,NaN,NaN,NaN,false,false,-0.1825559667793344,-0.012001026902963785,0.07184668828754393,,0.0,,,0.0,0.0,0.0,0.0,0.0,0.0,0.0,0.0,0.0,0.0,-2200,2269,0,0,143,0.0,0.0,,,,,99.99,99.99,3.75E7,0,0,0,,,,20130901,7,17,0,0,0,0,Manual,0,0,0,0,0,30,50,0.0,0.0,0,5,0,0,0,0,0,0,0,0,0,0.0,0.0,0.0,Hover,,lost,0.0,0,0,0,0,0,0,0,0,0,1,0,411,-70,1494,1551.0,NaN,752,-54,1387,1578.0,NaN,258,-72,486,187,6,389,,,,,,,,,,,,,,,,,,,,,,,,,,,,,,,,,,,,,,,,0.0,,,,,,,,,,,,,,,,,,,,,,,,,,,,,,,,,,0.0,0.0,0.0,0.0,0.0,180.0,0.0,0.0,0.0,0,     16 [L-GPS]<GPS ERROR>[0][0] frequency error 118,,,,,,,,P,,,,,,,,,0.0,0.0,0.0,0.0,NaN,NaN,NaN,0.0,0.0,0.0,0,0,0,12233,0,0.0,0.0,0,0,0,0,0,1,0,0,0,0.0,0.0,
23577681,5.239,,,0.0,-0.0,,,0,NaN,0.0,0.0,0.08354775,-0.004978944,-0.98333824,0.9868937,-0.054140523,-0.17471124,-0.95868725,0.9759797,0.0,0.0,0.0,0.0,0.0,408,-64,1494,1550.0,25.2,0.0,NaN,NaN,NaN,0.0,NaN,NaN,0.0,0.0,0.0,-0.0,NaN,NaN,NaN,NaN,NaN,NaN,NaN,NaN,false,false,-0.20495829582281444,-0.022248595777729196,0.0612915130114815,,0.0,,,0.0,0.0,0.0,0.0,0.0,0.0,0.0,0.0,0.0,0.0,-2200,2269,0,0,163,0.0,0.0,,,,,99.99,99.99,3.75E7,0,0,0,,,,20130901,7,19,0,0,0,0,Manual,0,0,0,0,0,30,50,0.0,0.0,0,5,0,0,0,0,0,0,0,0,0,0.0,0.0,0.0,Hover,,lost,0.0,0,0,0,0,0,0,0,0,0,1,0,408,-64,1494,1550.0,NaN,756,-48,1387,1580.0,NaN,257,-69,487,188,7,389,,,,,,,,,,,,,,,,,,,,,,,,,,,,,,,,,,,,,,,,0.0,,,,,,,,,,,,,,,,,,,,,,,,,,,,,,,,,,0.0,0.0,0.0,0.0,0.0,180.0,0.0,0.0,0.0,0,{task_sd}INFO:dyn_map_mem_init input:0x204101f0.0x20411ae8.0x800.|||{task_sd}INFO:dyn_map_mem_init ok:0x20411ae8.0x20.0x40.||,Manual,OTHER,NONE,GPS_POSITION_NONMATCH,True,DisConnected,,P,False,False,False,0,0,,0.0,,0.0,0.0,0.0,0.0,NaN,NaN,NaN,0.0,0.0,0.0,0,0,0,12975,0,0.0,0.0,0,0,0,0,0,1,0,0,0,0.0,0.0,
23803291,5.290,,,0.0,-0.0,,,0,NaN,0.0,0.0,0.0848318,-0.009648503,-0.98215634,0.98586035,-0.22113946,-0.48840323,-1.4658478,1.5608172,0.0,0.0,0.0,0.0,0.0,408,-64,1500,1555.0,25.2,0.0,NaN,NaN,NaN,0.0,NaN,NaN,0.0,0.0,0.0,-0.0,NaN,NaN,NaN,NaN,NaN,NaN,NaN,NaN,false,false,-0.23252467114177988,-0.03409141150449502,0.05149470662880651,,0.0,,,0.0,0.0,0.0,0.0,0.0,0.0,0.0,0.0,0.0,0.0,-2200,2272,0,0,183,0.0,0.0,,,,,99.99,99.99,3.75E7,0,0,0,,,,20130901,7,22,0,0,0,0,Manual,0,0,0,0,0,30,50,0.0,0.0,0,5,0,0,0,0,0,0,0,0,0,0.0,0.0,0.0,Hover,,lost,0.0,0,0,0,0,0,0,0,0,0,1,0,408,-64,1500,1555.0,NaN,749,-48,1384,1574.0,NaN,256,-70,488,189,6,389,,,,,,,,,,,,,,,,,,,,,,,,,,,,,,,,,,,,,,,,0.0,,,,,,,,,,,,,,,,,,,,,,,,,,,,,,,,,,0.0,0.0,0.0,0.0,0.0,180.0,0.0,0.0,0.0,0,,Manual,OTHER,NONE,GPS_POSITION_NONMATCH,True,DisConnected,,P,False,False,False,0,0,,0.0,,0.0,0.0,0.0,0.0,NaN,NaN,NaN,0.0,0.0,0.0,0,0,0,13334,0,0.0,0.0,0,0,0,0,0,1,0,0,0,0.0,0.0,
24029906,5.340,,,-40.53282,-0.0,,,0,NaN,0.0,0.0,0.0836697,-0.009310235,-0.98429334,0.98788697,-0.18154173,-0.18400335,-0.67013615,0.71825975,0.0,0.0,0.0,0.0,0.0,408,-61,1494,1549.0,25.2,0.0,NaN,NaN,NaN,0.0,NaN,NaN,0.0,0.0,0.0,-0.0,NaN,NaN,NaN,NaN,NaN,NaN,NaN,NaN,false,false,-0.25668727054325147,-0.044649125882771035,0.043445919193501936,,0.0,,,0.0,0.0,0.0,0.0,0.0,0.0,0.0,0.0,0.0,0.0,-2200,2272,0,0,203,0.0,0.0,,,,,99.99,99.99,3.75E7,0,0,0,,,,20130901,7,24,0,0,0,0,Manual,0,0,0,0,0,30,50,0.0,0.0,0,5,0,0,0,0,0,0,0,0,0,0.0,0.0,0.0,Hover,,lost,0.0,0,0,0,0,0,0,0,0,0,1,0,408,-61,1494,1549.0,NaN,742,-48,1387,1573.0,NaN,256,-71,488,188,6,390,,,,,,,,,,,,,,,,,,,,,,,,,,,,,,,,,,,,,,,,0.0,,,,,,,,,,,,,,,,,,,,,,,,,,,,,,,,,,0.0,0.0,0.0,0.0,0.0,180.0,0.0,0.0,0.0,0,     25 [L-SENSOR][baro(0)] connect|     25 [L-SENSOR][baro(0)] reset filter: 101.8 fc: 30.0 hz 30.0 30.0 1,Manual,OTHER,NONE,GPS_POSITION_NONMATCH,True,DisConnected,,P,False,False,False,0,0,,0.0,,0.0,0.0,0.0,0.0,NaN,NaN,NaN,0.0,0.0,0.0,0,0,0,13727,0,0.0,0.0,0,0,0,0,0,1,0,0,0,0.0,0.0,
24254928,5.390,,,-40.967945,-0.0,,,0,NaN,0.0,0.0,0.0847863,-0.008526913,-0.9825221,0.98621047,-0.14772232,-0.1368496,-0.7078865,0.7359708,0.0,0.0,0.0,0.0,0.0,405,-61,1500,1554.0,25.2,0.0,NaN,NaN,NaN,0.0,NaN,NaN,0.0,0.0,0.0,-0.0,NaN,NaN,NaN,NaN,NaN,NaN,NaN,NaN,false,false,-0.27957361633669486,-0.05147892483300476,0.03371990204844355,,0.0,,,0.0,0.0,0.0,0.0,0.0,0.0,0.0,0.0,0.0,0.0,-2200,2275,0,0,223,0.0,0.0,,,,,99.99,99.99,3.75E7,0,0,0,,,,20130901,0,27,0,0,0,0,Manual,0,0,0,0,0,30,50,0.0,0.0,0,5,0,0,0,0,0,0,0,0,0,0.0,0.0,0.0,Hover,,lost,0.0,0,0,0,0,0,0,0,0,0,1,0,405,-61,1500,1554.0,NaN,749,-51,1387,1577.0,NaN,256,-68,488,185,6,389,,,,,,,,,,,,,,,,,,,,,,,,,,,,,,,,,,,,,,,,0.0,,,,,,,,,,,,,,,,,,,,,,,,,,,,,,,,,,0.0,0.0,0.0,0.0,0.0,180.0,0.0,0.0,0.0,0,,Manual,OTHER,NONE,GPS_POSITION_NONMATCH,True,DisConnected,,P,False,False,False,0,0,,0.0,,0.0,0.0,0.0,0.0,NaN,NaN,NaN,0.0,0.0,0.0,0,0,0,13996,0,0.0,0.0,0,0,0,0,0,1,0,0,0,0.0,0.0,
24480071,5.440,,,-40.802353,-0.0,,,0,NaN,0.0,0.0,0.08521857,-0.009032954,-0.98284143,0.98657036,-0.32442814,-0.25314823,-0.5452048,0.68307096,0.0,0.0,0.0,0.0,0.0,411,-58,1497,1553.0,25.23,0.0,NaN,NaN,NaN,0.0,NaN,NaN,0.0,0.0,0.0,-0.0,NaN,NaN,NaN,NaN,NaN,NaN,NaN,NaN,false,false,-0.3025038423120472,-0.059720021413547375,0.02410379874220059,,0.0,,,0.0,0.0,0.0,0.0,0.0,0.0,0.0,0.0,0.0,0.0,-2200,2275,0,0,243,0.0,0.0,,,,,99.99,99.99,3.75E7,0,0,0,,,,20130901,0,29,0,0,0,0,Manual,0,0,0,0,0,30,50,0.0,0.0,0,5,0,0,0,0,0,0,0,0,0,0.0,0.0,0.0,Hover,,lost,0.0,0,0,0,0,0,0,0,0,0,1,0,411,-58,1497,1553.0,NaN,742,-48,1390,1576.0,NaN,257,-69,487,186,6,391,,,,,,,,,,,,,,,,,,,,,,,,,,,,,,,,,,,,,,,,0.0,,,,,,,,,,,,,,,,,,,,,,,,,,,,,,,,,,0.0,0.0,0.0,0.0,0.0,180.0,0.0,0.0,0.0,0,,Manual,OTHER,NONE,GPS_POSITION_NONMATCH,True,DisConnected,,P,False,False,False,0,0,,0.0,,0.0,0.0,0.0,0.0,NaN,NaN,NaN,0.0,0.0,0.0,0,0,0,14127,0,0.0,0.0,0,0,0,0,0,1,0,0,0,0.0,0.0,
24708328,5.491,,,-41.13197,-0.0,,,0,NaN,0.0,0.0,0.082329266,-0.013548867,-0.9836656,0.9871979,-0.2738627,-0.10254063,-0.735173,0.79119825,0.0,0.0,0.0,0.0,0.0,408,-70,1503,1558.0,25.21,0.0,NaN,NaN,NaN,0.0,NaN,NaN,0.0,0.0,0.0,-0.0,NaN,NaN,NaN,NaN,NaN,NaN,NaN,NaN,false,false,-0.32665180803993166,-0.06873766633686218,0.014038296419950136,,0.0,,,0.0,0.0,0.0,0.0,0.0,0.0,0.0,0.0,0.0,0.0,-2200,2276,0,0,263,0.0,0.0,,,,,99.99,99.99,3.75E7,0,0,0,,,,20130901,0,32,0,0,0,0,Manual,0,0,0,0,0,30,50,0.0,0.0,0,5,0,0,0,0,0,0,0,0,0,0.0,0.0,0.0,Hover,,lost,0.0,0,0,0,0,0,0,0,0,0,1,0,408,-70,1503,1558.0,NaN,752,-45,1387,1578.0,NaN,257,-71,490,186,7,390,,,,,,,,,,,,,,,,,,,,,,,,,,,,,,,,,,,,,,,,0.0,,,,,,,,,,,,,,,,,,,,,,,,,,,,,,,,,,0.0,0.0,0.0,0.0,0.0,180.0,0.0,0.0,0.0,0,,Manual,OTHER,NONE,GPS_POSITION_NONMATCH,True,DisConnected,,P,False,False,False,0,0,,0.0,,0.0,0.0,0.0,0.0,NaN,NaN,NaN,0.0,0.0,0.0,0,0,0,14270,0,0.0,0.0,0,0,0,0,0,1,0,0,0,0.0,0.0,
24934377,5.541,,,-40.528645,-0.0,,,0,NaN,0.0,0.0,0.08663259,-0.0071717435,-0.9808527,0.9846973,-0.17750941,-0.39365098,-0.40113515,0.5893896,0.0,0.0,0.0,0.0,0.0,405,-61,1494,1549.0,25.24,0.0,NaN,NaN,NaN,0.0,NaN,NaN,0.0,0.0,0.0,-0.0,NaN,NaN,NaN,NaN,NaN,NaN,NaN,NaN,false,false,-0.3484927892739298,-0.08047924864900269,0.00460031962329932,,0.0,,,0.0,0.0,0.0,0.0,0.0,0.0,0.0,0.0,0.0,0.0,-2200,2276,0,0,283,0.0,0.0,,,,,99.99,99.99,3.75E7,0,0,0,,,,20130901,0,34,0,0,0,0,Manual,0,0,0,0,0,30,50,0.0,0.0,0,5,0,0,0,0,0,0,0,0,0,0.0,0.0,0.0,Hover,,lost,0.0,0,0,0,0,0,0,0,0,0,1,0,405,-61,1494,1549.0,NaN,738,-54,1387,1572.0,NaN,255,-69,488,186,6,389,,,,,,,,,,,,,,,,,,,,,,,,,,,,,,,,,,,,,,,,0.0,,,,,,,,,,,,,,,,,,,,,,,,,,,,,,,,,,0.0,0.0,0.0,0.0,0.0,180.0,0.0,0.0,0.0,0,,Manual,OTHER,NONE,GPS_POSITION_NONMATCH,True,DisConnected,,P,False,False,False,0,0,,0.0,,0.0,0.0,0.0,0.0,NaN,NaN,NaN,0.0,0.0,0.0,0,0,0,14339,0,0.0,0.0,0,0,0,0,0,1,0,0,0,0.0,0.0,
25159421,5.591,,,-40.3218,-0.0,,,0,NaN,0.0,0.0,0.08220013,-0.007810143,-0.9835203,0.9869803,-0.1040553,-0.1452713,-0.423254,0.45942923,0.0,0.0,0.0,0.0,0.0,408,-61,1497,1552.0,25.28,0.0,NaN,NaN,NaN,0.0,NaN,NaN,0.0,0.0,0.0,-0.0,NaN,NaN,NaN,NaN,NaN,NaN,NaN,NaN,false,false,-0.3685961557241606,-0.08834846831246468,-0.005286706680799336,,0.0,,,0.0,0.0,0.0,0.0,0.0,0.0,0.0,0.0,0.0,0.0,-2200,2278,0,0,303,0.0,0.0,,,,,99.99,99.99,3.75E7,0,0,0,,,,20130901,0,37,0,0,0,0,Manual,0,0,0,0,0,30,50,0.0,0.0,0,5,0,0,0,0,0,0,0,0,0,0.0,0.0,0.0,Hover,,lost,100.0,0,0,0,0,0,0,0,0,0,1,0,408,-61,1497,1552.0,NaN,752,-42,1384,1575.0,NaN,257,-68,487,186,6,389,,,,,,,,,,,,,,,,,,,,,,,,,,,,,,,,,,,,,,,,0.0,,,,,,,,,,,,,,,,,,,,,,,,,,,,,,,,,,0.0,0.0,0.0,0.0,0.0,180.0,0.0,0.0,0.0,0,,Manual,OTHER,NONE,GPS_POSITION_NONMATCH,True,DisConnected,,P,False,False,False,0,0,,0.0,,0.0,0.0,0.0,0.0,NaN,NaN,NaN,0.0,0.0,0.0,0,0,0,14416,0,16.70936,12720.0,14586,-832,0,6,23,1,3647,0,0,0.0,0.0,
25384543,5.641,,,-40.38709,-0.0,,,0,NaN,0.0,0.0,0.08424486,-0.012231112,-0.98168766,0.9853717,-0.23203371,-0.17189436,-0.45711896,0.5406894,0.0,0.0,0.0,0.0,0.0,408,-64,1497,1552.0,25.27,0.0,NaN,NaN,NaN,0.0,NaN,NaN,0.0,0.0,0.0,-0.0,NaN,NaN,NaN,NaN,NaN,NaN,NaN,NaN,false,false,-0.39296121859928035,-0.09767487572343514,-0.011314914322152925,,0.0,,,0.0,0.0,0.0,0.0,0.0,0.0,0.0,0.0,0.0,0.0,-2200,2278,0,0,323,0.0,0.0,,,,,99.99,99.99,3.75E7,0,0,0,,,,20130901,0,39,0,0,0,0,Manual,0,0,0,0,0,30,50,0.0,0.0,0,5,0,0,0,0,0,0,0,0,0,0.0,0.0,0.0,Hover,,lost,100.0,0,0,0,0,0,0,0,0,0,1,0,408,-64,1497,1552.0,NaN,745,-45,1384,1572.0,NaN,257,-70,489,187,6,391,,,,,,,,,,,,,,,,,,,,,,,,,,,,,,,,,,,,,,,,0.0,,,,,,,,,,,,,,,,,,,,,,,,,,,,,,,,,,0.0,0.0,0.0,0.0,0.0,180.0,0.0,0.0,0.0,0,,Manual,OTHER,NONE,GPS_POSITION_NONMATCH,True,DisConnected,,P,False,False,False,0,0,,0.0,,0.0,0.0,0.0,0.0,NaN,NaN,NaN,0.0,0.0,0.0,0,0,0,14454,0,16.70936,12720.0,14586,-832,0,6,23,1,3647,0,0,0.0,0.0,
25609567,5.691,,,-40.431488,-0.0,,,0,NaN,0.0,0.0,0.08485289,-0.008111124,-0.9838282,0.9875139,-0.28626478,-0.24684498,-0.24413195,0.4499782,0.0,0.0,0.0,0.0,0.0,411,-61,1500,1556.0,25.28,0.0,NaN,NaN,NaN,0.0,NaN,NaN,0.0,0.0,0.0,-0.0,NaN,NaN,NaN,NaN,NaN,NaN,NaN,NaN,false,false,-0.4145866761426358,-0.10903920106054033,-0.02023761465153151,,0.0,,,0.0,0.0,0.0,0.0,0.0,0.0,0.0,0.0,0.0,0.0,-2200,2279,0,0,343,0.0,0.0,,,,,99.99,99.99,3.75E7,0,0,0,,,,20130901,0,42,0,0,0,0,Manual,0,0,0,0,0,30,50,0.0,0.0,0,5,0,0,0,0,0,0,0,0,0,0.0,0.0,0.0,Hover,,lost,100.0,0,0,0,0,0,0,0,0,0,1,0,411,-61,1500,1556.0,NaN,745,-42,1381,1569.0,NaN,257,-68,488,187,9,387,,,,,,,,,,,,,,,,,,,,,,,,,,,,,,,,,,,,,,,,0.0,,,,,,,,,,,,,,,,,,,,,,,,,,,,,,,,,,0.0,0.0,0.0,0.0,0.0,180.0,0.0,0.0,0.0,0,,Manual,OTHER,NONE,GPS_POSITION_NONMATCH,True,DisConnected,,P,False,False,False,0,0,,0.0,,0.0,0.0,0.0,0.0,NaN,NaN,NaN,0.0,0.0,0.0,0,0,0,14496,0,16.70936,12720.0,14586,-832,0,6,23,1,3647,0,0,0.0,0.0,
25834677,5.741,,,-40.67229,-0.0,,,0,NaN,0.0,0.0,0.084902294,-0.0071114367,-0.98492044,0.98859864,-0.29600817,-0.017831903,-0.30048656,0.42217413,0.0,0.0,0.0,0.0,0.0,408,-64,1497,1552.0,25.29,0.0,NaN,NaN,NaN,0.0,NaN,NaN,0.0,0.0,0.0,-0.0,NaN,NaN,NaN,NaN,NaN,NaN,NaN,NaN,false,false,-0.4377830216841214,-0.12021427620711167,-0.029019132865016006,,0.0,,,0.0,0.0,0.0,0.0,0.0,0.0,0.0,0.0,0.0,0.0,-2200,2279,0,0,363,0.0,0.0,,,,,99.99,99.99,3.75E7,0,0,0,,,,20130901,0,44,0,0,0,0,Manual,0,0,0,0,0,30,50,0.0,0.0,0,5,0,0,0,0,0,0,0,0,0,0.0,0.0,0.0,Hover,,lost,100.0,0,0,0,0,0,0,0,0,0,1,0,408,-64,1497,1552.0,NaN,745,-48,1384,1572.0,NaN,255,-70,487,186,5,390,,,,,,,,,,,,,,,,,,,,,,,,,,,,,,,,,,,,,,,,0.0,,,,,,,,,,,,,,,,,,,,,,,,,,,,,,,,,,0.0,0.0,0.0,0.0,0.0,180.0,0.0,0.0,0.0,0,,Manual,OTHER,NONE,GPS_POSITION_NONMATCH,True,DisConnected,,P,False,False,False,0,0,,0.0,,0.0,0.0,0.0,0.0,NaN,NaN,NaN,0.0,0.0,0.0,0,0,0,14516,0,16.70936,12720.0,14586,-832,0,6,23,1,3647,0,0,0.0,0.0,
26059741,5.791,,,-41.018616,-0.0,,,0,NaN,0.0,0.0,0.08689847,-0.008061386,-0.98107237,0.98494637,-0.2003072,-0.17470132,-0.39199698,0.47360867,0.0,0.0,0.0,0.0,0.0,401,-64,1494,1548.0,25.28,0.0,NaN,NaN,NaN,0.0,NaN,NaN,0.0,0.0,0.0,-0.0,NaN,NaN,NaN,NaN,NaN,NaN,NaN,NaN,false,false,-0.4602353244136157,-0.12852229400648718,-0.03460339976254745,,0.0,,,0.0,0.0,0.0,0.0,0.0,0.0,0.0,0.0,0.0,0.0,-2200,2280,0,0,383,0.0,0.0,,,,,99.99,99.99,3.75E7,0,0,0,,,,20130901,0,47,0,0,0,0,Manual,0,0,0,0,0,30,50,0.0,0.0,0,5,0,0,0,0,0,0,0,0,0,0.0,0.0,0.0,Hover,,lost,100.0,0,0,0,0,0,0,0,0,0,1,0,401,-64,1494,1548.0,NaN,742,-51,1384,1571.0,NaN,255,-69,487,186,6,388,,,,,,,,,,,,,,,,,,,,,,,,,,,,,,,,,,,,,,,,0.0,,,,,,,,,,,,,,,,,,,,,,,,,,,,,,,,,,0.0,0.0,0.0,0.0,0.0,180.0,0.0,0.0,0.0,0,,Manual,OTHER,NONE,GPS_POSITION_NONMATCH,True,DisConnected,,P,False,False,False,0,0,,0.0,,0.0,0.0,0.0,0.0,NaN,NaN,NaN,0.0,0.0,0.0,0,0,0,14538,0,16.70936,12720.0,14586,-832,0,6,23,1,3647,0,0,0.0,0.0,
26284878,5.841,,,-40.397537,-0.0,,,0,NaN,0.0,0.0,0.08257958,-0.0101951035,-0.98260957,0.9861262,-0.24381793,-0.03986121,-0.25126594,0.35237858,0.0,0.0,0.0,0.0,0.0,408,-61,1500,1555.0,25.33,0.0,NaN,NaN,NaN,0.0,NaN,NaN,0.0,0.0,0.0,-0.0,NaN,NaN,NaN,NaN,NaN,NaN,NaN,NaN,false,false,-0.482521447441832,-0.13952188114210018,-0.04574790719863153,,0.0,,,0.0,0.0,0.0,0.0,0.0,0.0,0.0,0.0,0.0,0.0,-2200,2280,0,0,403,0.0,0.0,,,,,99.99,99.99,3.75E7,0,0,0,,,,20130901,0,49,0,0,0,0,Manual,0,0,0,0,0,30,50,0.0,0.0,0,5,0,0,0,0,0,0,0,0,0,0.0,0.0,0.0,Hover,,lost,100.0,0,0,0,0,0,0,0,0,0,1,0,408,-61,1500,1555.0,NaN,752,-54,1390,1581.0,NaN,257,-68,488,188,5,390,,,,,,,,,,,,,,,,,,,,,,,,,,,,,,,,,,,,,,,,0.0,,,,,,,,,,,,,,,,,,,,,,,,,,,,,,,,,,0.0,0.0,0.0,0.0,0.0,180.0,0.0,0.0,0.0,0,     49 [L-GYRO_ACC]GYRO(0) fdi event:turn on|     49 [L-GYRO_ACC]ACC(0) fdi event:turn on|     49 [L-GYRO_ACC]GYRO(1) fdi event:turn on|     49 [L-GYRO_ACC]ACC(1) fdi event:turn on|     50 [L-COMPASS]index(0) fdi event:turn on|     50 [L-COMPASS]index(1) fdi event:turn on|     50 [L-FDI][BARO(0)] event:turn on|     50 [L-GYRO_ACC][mark] sa(0) regi ok. dtype(8) sid(0) g_uid(0) l_did(3) l_uid(0) l_dindex(|     50 [L-GYRO_ACC][mark] fmu_gyr_acc get register ack. succeed. global_user_id(0)|     50 [L-GYRO_ACC][mark] sa(1) regi ok. dtype(8) sid(0) g_uid(1) l_did(4) l_uid(1) l_dindex(|     50 [L-GYRO_ACC][mark] fmu_gyr_acc get register ack. succeed. global_user_id(1),Manual,OTHER,NONE,GPS_POSITION_NONMATCH,True,DisConnected,,P,False,False,False,0,0,,0.0,,0.0,0.0,0.0,0.0,NaN,NaN,NaN,0.0,0.0,0.0,0,0,0,14549,0,16.70936,12720.0,14586,-832,0,6,23,1,3647,0,0,0.0,0.0,
26509944,5.891,,,-40.94078,-0.0,,,0,NaN,0.0,0.0,0.08027027,-0.0069270665,-0.9842431,0.9875352,-0.16000935,-0.038213667,-0.39315477,0.42618534,0.0,0.0,0.0,0.0,0.0,405,-67,1503,1558.0,25.32,0.0,NaN,NaN,NaN,0.0,NaN,NaN,0.0,0.0,0.0,-0.0,NaN,NaN,NaN,NaN,NaN,NaN,NaN,NaN,false,false,-0.5058947285971047,-0.1484699230038935,-0.05204693178897668,,0.0,,,0.0,0.0,0.0,0.0,0.0,0.0,0.0,0.0,0.0,0.0,-2200,2282,0,0,423,0.0,0.0,,,,,99.99,99.99,3.75E7,0,0,0,,,,20130901,0,51,0,0,0,0,Manual,0,0,0,0,0,30,50,0.0,0.0,0,5,0,0,0,0,0,0,0,0,0,0.0,0.0,0.0,Hover,,lost,100.0,0,0,0,0,0,0,0,0,0,1,0,405,-67,1503,1558.0,NaN,752,-54,1381,1573.0,NaN,255,-70,490,189,4,390,,,,,,,,,,,,,,,,,,,,,,,,,,,,,,,,,,,,,,,,0.0,,,,,,,,,,,,,,,,,,,,,,,,,,,,,,,,,,0.0,0.0,0.0,0.0,0.0,180.0,0.0,0.0,0.0,0,     51 [L-FDI]NS(0): init fdi turn on,Manual,OTHER,NONE,GPS_POSITION_NONMATCH,True,DisConnected,,P,False,False,False,0,0,,0.0,,0.0,0.0,0.0,0.0,NaN,NaN,NaN,0.0,0.0,0.0,0,0,0,14558,0,16.70936,12720.0,14586,-832,0,6,23,1,3647,0,0,0.0,0.0,
26735912,5.941,,,-40.628937,-0.0,,,0,NaN,0.0,0.0,0.088658854,-0.0068476154,-0.9824291,0.98644525,-0.2999565,-0.331012,-0.4417695,0.62825406,0.0,0.0,0.0,0.0,0.0,414,-61,1500,1557.0,25.32,0.0,NaN,NaN,NaN,0.0,NaN,NaN,0.0,0.0,0.0,-0.0,NaN,NaN,NaN,NaN,NaN,NaN,NaN,NaN,false,false,-0.5281684990923441,-0.1610480123747131,-0.056904307936258114,,0.0,,,0.0,0.0,0.0,0.0,0.0,0.0,0.0,0.0,0.0,0.0,-2200,2282,0,0,443,0.0,0.0,,,,,99.99,99.99,3.75E7,0,0,0,,,,20130901,0,54,0,0,0,0,Manual,0,0,0,0,0,30,50,0.0,0.0,0,5,0,0,0,0,0,0,0,0,0,0.0,0.0,0.0,Hover,,lost,100.0,0,0,0,0,0,0,0,0,0,1,0,414,-61,1500,1557.0,NaN,745,-51,1393,1580.0,NaN,257,-70,489,188,8,390,,,,,,,,,,,,,,,,,,,,,,,,,,,,,,,,,,,,,,,,0.0,,,,,,,,,,,,,,,,,,,,,,,,,,,,,,,,,,0.0,0.0,0.0,0.0,0.0,180.0,0.0,0.0,0.0,0,,Manual,OTHER,NONE,GPS_POSITION_NONMATCH,False,DisConnected,,P,False,False,False,0,0,,0.0,,0.0,0.0,0.0,0.0,NaN,NaN,NaN,0.0,0.0,0.0,0,0,0,14566,0,16.70936,12720.0,14586,-832,0,6,23,1,3647,0,0,0.0,0.0,
26961012,5.991,,,-41.04943,-0.0,,,0,NaN,0.0,0.0,0.0816133,-0.010381018,-0.9836915,0.9871259,-0.21596204,-0.03902291,-0.32928097,0.39571247,0.0,0.0,0.0,0.0,0.0,408,-67,1494,1550.0,25.34,0.0,NaN,NaN,NaN,0.0,NaN,NaN,0.0,0.0,0.0,-0.0,NaN,NaN,NaN,NaN,NaN,NaN,NaN,NaN,false,false,-0.5512920571923547,-0.1729785404058497,-0.06698944201890367,,0.0,,,0.0,0.0,0.0,0.0,0.0,0.0,0.0,0.0,0.0,0.0,-2200,2283,0,0,463,0.0,0.0,,,,,99.99,99.99,3.75E7,0,0,0,,,,20130901,0,57,0,0,0,0,Manual,0,0,0,0,0,30,50,0.0,0.0,0,5,0,0,0,0,0,0,0,0,0,0.0,0.0,0.0,Hover,,lost,100.0,0,0,0,0,0,0,0,0,0,1,0,408,-67,1494,1550.0,NaN,749,-45,1387,1576.0,NaN,256,-70,487,186,5,391,,,,,,,,,,,,,,,,,,,,,,,,,,,,,,,,,,,,,,,,0.0,,,,,,,,,,,,,,,,,,,,,,,,,,,,,,,,,,0.0,0.0,0.0,0.0,0.0,180.0,0.0,0.0,0.0,0,,Manual,OTHER,NONE,GPS_POSITION_NONMATCH,False,DisConnected,,P,False,False,False,0,0,,0.0,,0.0,0.0,0.0,0.0,NaN,NaN,NaN,0.0,0.0,0.0,0,0,0,14572,0,16.70936,12720.0,14586,-832,0,6,23,1,3647,0,0,0.0,0.0,
27189309,6.042,,,-40.290462,-0.0,,,0,NaN,0.0,0.0,0.08601253,-0.009474576,-0.9825753,0.98637825,-0.18044305,-0.20476972,-0.40926212,0.49192056,0.0,0.0,0.0,0.0,0.0,411,-58,1503,1559.0,25.39,0.0,NaN,NaN,NaN,0.0,NaN,NaN,0.0,0.0,0.0,-0.0,NaN,NaN,NaN,NaN,NaN,NaN,NaN,NaN,false,false,-0.5790706984021898,-0.18800919729948906,-0.07381697866975756,,0.0,,,0.0,0.0,0.0,0.0,0.0,0.0,0.0,0.0,0.0,0.0,-2200,2283,0,0,485,0.0,0.0,,,,,99.99,99.99,3.75E7,0,0,0,,,,20130901,0,59,0,0,0,0,Manual,0,0,0,0,0,30,50,0.0,0.0,0,5,0,0,0,0,0,0,0,0,0,0.0,0.0,0.0,Hover,,lost,100.0,0,0,0,0,0,0,0,0,0,1,0,411,-58,1503,1559.0,NaN,749,-48,1390,1579.0,NaN,257,-67,488,188,7,390,,,,,,,,,,,,,,,,,,,,,,,,,,,,,,,,,,,,,,,,0.0,,,,,,,,,,,,,,,,,,,,,,,,,,,,,,,,,,0.0,0.0,0.0,0.0,0.0,180.0,0.0,0.0,0.0,0,,Manual,OTHER,NONE,GPS_POSITION_NONMATCH,False,DisConnected,,P,False,False,False,0,0,,0.0,,0.0,0.0,0.0,0.0,NaN,NaN,NaN,0.0,0.0,0.0,0,0,0,14575,0,16.70936,12720.0,14586,-832,0,6,23,1,3647,0,0,0.0,0.0,
27414723,6.092,,,-40.65192,-0.0,,,0,NaN,0.0,0.0,0.084262654,-0.005958832,-0.98275065,0.98637444,-0.1795826,-0.3826407,-0.6102916,0.7423743,0.0,0.0,0.0,0.0,0.0,408,-64,1500,1555.0,25.42,0.0,NaN,NaN,NaN,0.0,NaN,NaN,0.0,0.0,0.0,-0.0,NaN,NaN,NaN,NaN,NaN,NaN,NaN,NaN,false,false,-0.6022524767994131,-0.1950725874531163,-0.08311702787220909,,0.0,,,0.0,0.0,0.0,0.0,0.0,0.0,0.0,0.0,0.0,0.0,-2200,2283,0,0,505,0.0,0.0,,,,,99.99,99.99,3.75E7,0,0,0,,,,20130901,0,62,0,0,0,0,Manual,0,0,0,0,0,30,50,0.0,0.0,0,5,0,0,0,0,0,0,0,0,0,0.0,0.0,0.0,Hover,,lost,100.0,0,0,0,0,0,0,0,0,0,1,0,408,-64,1500,1555.0,NaN,749,-54,1387,1577.0,NaN,256,-67,487,187,6,390,,,,,,,,,,,,,,,,,,,,,,,,,,,,,,,,,,,,,,,,0.0,,,,,,,,,,,,,,,,,,,,,,,,,,,,,,,,,,0.0,0.0,0.0,0.0,0.0,180.0,0.0,0.0,0.0,0,,Manual,OTHER,NONE,GPS_POSITION_NONMATCH,False,DisConnected,,P,False,False,False,0,0,,0.0,,0.0,0.0,0.0,0.0,NaN,NaN,NaN,0.0,0.0,0.0,0,0,0,14578,0,16.70936,12720.0,14586,-832,0,6,23,1,3647,0,0,0.0,0.0,
27643961,6.143,,,-40.385525,-0.0,,,0,NaN,0.0,0.0,0.08143767,-0.006042802,-0.98423666,0.98761857,-0.22848594,-0.12618554,-0.40234205,0.47959122,0.0,0.0,0.0,0.0,0.0,411,-61,1494,1550.0,25.43,0.0,NaN,NaN,NaN,0.0,NaN,NaN,0.0,0.0,0.0,-0.0,NaN,NaN,NaN,NaN,NaN,NaN,NaN,NaN,false,false,-0.6232593860276328,-0.20479740878035568,-0.09121418169365103,,0.0,,,0.0,0.0,0.0,0.0,0.0,0.0,0.0,0.0,0.0,0.0,-2200,2284,0,0,525,0.0,0.0,,,,,99.99,99.99,3.75E7,0,0,0,,,,20130901,0,64,0,0,0,0,Manual,0,0,0,0,0,30,50,0.0,0.0,0,5,0,0,0,0,0,0,0,0,0,0.0,0.0,0.0,Hover,,lost,100.0,0,0,0,0,0,0,0,0,0,1,0,411,-61,1494,1550.0,NaN,745,-45,1387,1575.0,NaN,257,-70,488,187,5,390,,,,,,,,,,,,,,,,,,,,,,,,,,,,,,,,,,,,,,,,0.0,,,,,,,,,,,,,,,,,,,,,,,,,,,,,,,,,,0.0,0.0,0.0,0.0,0.0,180.0,0.0,0.0,0.0,0,,Manual,OTHER,NONE,GPS_POSITION_NONMATCH,False,DisConnected,,P,False,False,False,0,0,,0.0,,0.0,0.0,0.0,0.0,NaN,NaN,NaN,0.0,0.0,0.0,0,0,0,14579,0,16.70936,12720.0,14586,-832,0,6,23,1,3647,0,0,0.0,0.0,
27870641,6.193,,,-41.215027,-0.0,,,0,NaN,0.0,0.0,0.087082215,-0.0120079955,-0.98260444,0.98652875,-0.25836033,-0.34512365,-0.6439063,0.77490366,0.0,0.0,0.0,0.0,0.0,405,-64,1500,1555.0,25.43,0.0,NaN,NaN,NaN,0.0,NaN,NaN,0.0,0.0,0.0,-0.0,NaN,NaN,NaN,NaN,NaN,NaN,NaN,NaN,false,false,-0.6463656326653566,-0.21713015699121851,-0.09959667408299111,,0.0,,,0.0,0.0,0.0,0.0,0.0,0.0,0.0,0.0,0.0,0.0,-2200,2284,0,0,545,0.0,0.0,,,,,99.99,99.99,3.75E7,0,0,0,,,,20130901,0,67,0,0,0,0,Manual,0,0,0,0,0,30,50,0.0,0.0,0,5,0,0,0,0,0,0,0,0,0,0.0,0.0,0.0,Hover,,lost,100.0,0,0,0,0,0,0,0,0,0,1,0,405,-64,1500,1555.0,NaN,749,-48,1390,1579.0,NaN,255,-70,488,188,7,390,,,,,,,,,,,,,,,,,,,,,,,,,,,,,,,,,,,,,,,,0.0,,,,,,,,,,,,,,,,,,,,,,,,,,,,,,,,,,0.0,0.0,0.0,0.0,0.0,180.0,0.0,0.0,0.0,0,,Manual,OTHER,NONE,GPS_POSITION_NONMATCH,False,DisConnected,,P,False,False,False,0,0,,0.0,,0.0,0.0,0.0,0.0,NaN,NaN,NaN,0.0,0.0,0.0,0,0,0,14581,0,16.70936,12720.0,14586,-832,0,6,23,1,3647,0,0,0.0,0.0,
28095803,6.244,,,-41.127266,-0.0,,,0,NaN,0.0,0.0,0.08440035,-0.0071448153,-0.9844715,0.98810863,-0.10978239,-0.14620224,-0.45427194,0.48968384,0.0,0.0,0.0,0.0,0.0,405,-58,1494,1549.0,25.47,0.0,NaN,NaN,NaN,0.0,NaN,NaN,0.0,0.0,0.0,-0.0,NaN,NaN,NaN,NaN,NaN,NaN,NaN,NaN,false,false,-0.6705126455081032,-0.22740666513419439,-0.10943379563442945,,0.0,,,0.0,0.0,0.0,0.0,0.0,0.0,0.0,0.0,0.0,0.0,-2200,2285,0,0,565,0.0,0.0,,,,,99.99,99.99,3.75E7,0,0,0,,,,20130901,0,69,0,0,0,0,Manual,0,0,0,0,0,30,50,0.0,0.0,0,5,0,0,0,0,0,0,0,0,0,0.0,0.0,0.0,Hover,,lost,100.0,0,0,0,0,0,0,0,0,0,1,0,405,-58,1494,1549.0,NaN,745,-45,1387,1575.0,NaN,256,-69,488,187,7,390,,,,,,,,,,,,,,,,,,,,,,,,,,,,,,,,,,,,,,,,0.0,,,,,,,,,,,,,,,,,,,,,,,,,,,,,,,,,,0.0,0.0,0.0,0.0,0.0,180.0,0.0,0.0,0.0,0,,Manual,OTHER,NONE,GPS_POSITION_NONMATCH,False,DisConnected,,P,False,False,False,0,0,,0.0,,0.0,0.0,0.0,0.0,NaN,NaN,NaN,0.0,0.0,0.0,0,0,0,14582,0,16.70936,12720.0,14586,-832,0,6,23,1,3647,0,0,0.0,0.0,
28320807,6.294,,,-40.924587,-0.0,,,0,NaN,0.0,0.0,0.08352862,-0.0064568343,-0.9839352,0.9874954,0.02185411,-0.12908667,-0.5912044,0.6055276,0.0,0.0,0.0,0.0,0.0,408,-55,1494,1549.0,25.52,0.0,NaN,NaN,NaN,0.0,NaN,NaN,0.0,0.0,0.0,-0.0,NaN,NaN,NaN,NaN,NaN,NaN,NaN,NaN,false,false,-0.6917367621757851,-0.23639489581167372,-0.12001601890899749,,0.0,,,0.0,0.0,0.0,0.0,0.0,0.0,0.0,0.0,0.0,0.0,-2200,2285,0,0,585,0.0,0.0,,,,,99.99,99.99,3.75E7,0,0,0,,,,20130901,0,72,0,0,0,0,Manual,0,0,0,0,0,30,50,0.0,0.0,0,5,0,0,0,0,0,0,0,0,0,0.0,0.0,0.0,Hover,,lost,100.0,0,0,0,0,0,0,0,0,0,1,0,408,-55,1494,1549.0,NaN,749,-48,1390,1579.0,NaN,256,-70,487,187,6,389,,,,,,,,,,,,,,,,,,,,,,,,,,,,,,,,,,,,,,,,0.0,,,,,,,,,,,,,,,,,,,,,,,,,,,,,,,,,,0.0,0.0,0.0,0.0,0.0,180.0,0.0,0.0,0.0,0,,Manual,OTHER,NONE,GPS_POSITION_NONMATCH,False,DisConnected,,P,False,False,False,0,0,,0.0,,0.0,0.0,0.0,0.0,NaN,NaN,NaN,0.0,0.0,0.0,0,0,0,14584,0,16.70936,12720.0,14586,-832,0,6,23,1,3647,0,0,0.0,0.0,
28545944,6.344,,,-41.25264,-0.0,,,0,NaN,0.0,0.0,0.08665288,-0.008498172,-0.98478127,0.98862284,-0.16284753,-0.2801549,-0.6768916,0.7504588,0.0,0.0,0.0,0.0,0.0,411,-67,1503,1559.0,25.49,0.0,NaN,NaN,NaN,0.0,NaN,NaN,0.0,0.0,0.0,-0.0,NaN,NaN,NaN,NaN,NaN,NaN,NaN,NaN,false,false,-0.7132485638952113,-0.2443839362039999,-0.127460143804642,,0.0,,,0.0,0.0,0.0,0.0,0.0,0.0,0.0,0.0,0.0,0.0,-2200,2286,0,0,605,0.0,0.0,,,,,99.99,99.99,3.75E7,0,0,0,,,,20130901,0,74,0,0,0,0,Manual,0,0,0,0,0,30,50,0.0,0.0,0,5,0,0,0,0,0,0,0,0,0,0.0,0.0,0.0,Hover,,lost,100.0,0,0,0,0,0,0,0,0,0,1,0,411,-67,1503,1559.0,NaN,745,-45,1390,1577.0,NaN,257,-66,487,187,7,391,,,,,,,,,,,,,,,,,,,,,,,,,,,,,,,,,,,,,,,,0.0,,,,,,,,,,,,,,,,,,,,,,,,,,,,,,,,,,0.0,0.0,0.0,0.0,0.0,180.0,0.0,0.0,0.0,0,,Manual,OTHER,NONE,GPS_POSITION_NONMATCH,False,DisConnected,,P,False,False,False,0,0,,0.0,,0.0,0.0,0.0,0.0,NaN,NaN,NaN,0.0,0.0,0.0,0,0,0,14584,0,16.70936,12720.0,14586,-832,0,6,23,1,3647,0,0,0.0,0.0,
28770956,6.394,,,-40.80183,-0.0,,,0,NaN,0.0,0.0,0.08302223,-0.010451921,-0.9848605,0.98840886,-0.20645031,-0.24259892,-0.45343256,0.55414534,0.0,0.0,0.0,0.0,0.0,401,-70,1494,1548.0,25.53,0.0,NaN,NaN,NaN,0.0,NaN,NaN,0.0,0.0,0.0,-0.0,NaN,NaN,NaN,NaN,NaN,NaN,NaN,NaN,false,false,-0.7347950797782283,-0.2533385934778887,-0.13851778707021178,,0.0,,,0.0,0.0,0.0,0.0,0.0,0.0,0.0,0.0,0.0,0.0,-2200,2286,0,0,625,0.0,0.0,,,,,99.99,99.99,3.75E7,0,0,0,,,,20130901,1,77,0,0,0,0,Manual,0,0,0,0,0,30,50,0.0,0.0,0,5,0,0,0,0,0,0,0,0,0,0.0,0.0,0.0,Hover,,lost,100.0,0,0,0,0,0,0,0,0,0,1,0,401,-70,1494,1548.0,NaN,752,-39,1387,1578.0,NaN,256,-70,486,186,7,388,,,,,,,,,,,,,,,,,,,,,,,,,,,,,,,,,,,,,,,,0.0,,,,,,,,,,,,,,,,,,,,,,,,,,,,,,,,,,0.0,0.0,0.0,0.0,0.0,180.0,0.0,0.0,0.0,0,     75 [L-BATTERY]Battery barcode:082AD4D0310ZQX|||     76 [L-BATTERY]Battery barcode:082AD4D0310ZQX||,Manual,OTHER,NONE,GPS_POSITION_NONMATCH,False,DisConnected,,P,False,False,False,0,0,,0.0,,0.0,0.0,0.0,0.0,NaN,NaN,NaN,0.0,0.0,0.0,0,0,0,14585,0,16.70936,12720.0,14586,-832,0,6,23,1,3647,0,0,0.0,0.0,
28996142,6.444,,,-40.63416,-0.0,,,0,NaN,0.0,0.0,0.08386174,-0.006997823,-0.98469484,0.98828423,-0.2705625,-0.18146601,-0.4929665,0.5908891,0.0,0.0,0.0,0.0,0.0,411,-64,1500,1556.0,25.52,0.0,NaN,NaN,NaN,0.0,NaN,NaN,0.0,0.0,0.0,-0.0,NaN,NaN,NaN,NaN,NaN,NaN,NaN,NaN,false,false,-0.7607034445235195,-0.2648665931163985,-0.14618956973161612,,0.0,,,0.0,0.0,0.0,0.0,0.0,0.0,0.0,0.0,0.0,0.0,-2200,2288,0,0,645,0.0,0.0,,,,,99.99,99.99,3.75E7,0,0,0,,,,20130901,1,79,0,0,0,0,Manual,0,0,0,0,0,30,50,0.0,0.0,0,5,0,0,0,0,0,0,0,0,0,0.0,0.0,0.0,Hover,,lost,100.0,0,0,0,0,0,0,0,0,0,1,0,411,-64,1500,1556.0,NaN,742,-54,1390,1576.0,NaN,255,-72,488,188,8,390,,,,,,,,,,,,,,,,,,,,,,,,,,,,,,,,,,,,,,,,0.0,,,,,,,,,,,,,,,,,,,,,,,,,,,,,,,,,,0.0,0.0,0.0,0.0,0.0,180.0,0.0,0.0,0.0,0,,Manual,OTHER,NONE,GPS_POSITION_NONMATCH,False,DisConnected,,P,False,False,False,0,0,,0.0,,0.0,0.0,0.0,0.0,NaN,NaN,NaN,0.0,0.0,0.0,0,0,0,14586,0,16.70936,12720.0,14586,-832,0,6,23,1,3647,0,0,0.0,0.0,
29221143,6.494,,,-40.708855,-0.0,,,0,NaN,0.0,0.0,0.08703325,-0.0073710727,-0.9834357,0.98730683,-0.19995451,-0.28511846,-0.5163842,0.62283784,0.0,0.0,0.0,0.0,0.0,398,-61,1497,1550.0,25.53,0.0,NaN,NaN,NaN,0.0,NaN,NaN,0.0,0.0,0.0,-0.0,NaN,NaN,NaN,NaN,NaN,NaN,NaN,NaN,false,false,-0.7823847158249515,-0.27430698427353106,-0.15474764024415666,,0.0,,,0.0,0.0,0.0,0.0,0.0,0.0,0.0,0.0,0.0,0.0,-2200,2288,0,0,665,0.0,0.0,,,,,99.99,99.99,3.75E7,0,0,0,,,,20130901,1,82,0,0,0,0,Manual,0,0,0,0,0,30,50,0.0,0.0,0,5,0,0,0,0,0,0,0,0,0,0.0,0.0,0.0,Hover,,lost,100.0,0,0,0,0,0,0,0,0,0,1,0,398,-61,1497,1550.0,NaN,745,-48,1384,1572.0,NaN,255,-69,488,188,6,389,,,,,,,,,,,,,,,,,,,,,,,,,,,,,,,,,,,,,,,,0.0,,,,,,,,,,,,,,,,,,,,,,,,,,,,,,,,,,0.0,0.0,0.0,0.0,0.0,180.0,0.0,0.0,0.0,0,,Manual,OTHER,NONE,GPS_POSITION_NONMATCH,False,DisConnected,,P,False,False,False,0,0,,0.0,,0.0,0.0,0.0,0.0,NaN,NaN,NaN,0.0,0.0,0.0,0,0,0,14586,0,16.70936,12720.0,14586,-832,0,6,23,1,3647,0,0,0.0,0.0,
29446165,6.544,,,-41.0954,-0.0,,,0,NaN,0.0,0.0,0.081795774,-0.00667297,-0.9844618,0.9878766,-0.38862807,-0.23503332,-0.42711547,0.62345815,0.0,0.0,0.0,0.0,0.0,411,-64,1494,1550.0,25.59,0.0,NaN,NaN,NaN,0.0,NaN,NaN,0.0,0.0,0.0,-0.0,NaN,NaN,NaN,NaN,NaN,NaN,NaN,NaN,false,false,-0.8047728230661073,-0.2828555307431839,-0.16780187659615808,,0.0,,,0.0,0.0,0.0,0.0,0.0,0.0,0.0,0.0,0.0,0.0,-2200,2288,0,0,685,0.0,0.0,,,,,99.99,99.99,3.75E7,0,0,0,,,,20130901,1,84,0,0,0,0,Manual,0,0,0,0,0,30,50,0.0,0.0,0,5,0,0,0,0,0,0,0,0,0,0.0,0.0,0.0,Hover,,lost,100.0,0,0,0,0,0,0,0,0,0,1,0,411,-64,1494,1550.0,NaN,749,-48,1384,1574.0,NaN,255,-68,487,186,6,388,,,,,,,,,,,,,,,,,,,,,,,,,,,,,,,,,,,,,,,,0.0,,,,,,,,,,,,,,,,,,,,,,,,,,,,,,,,,,0.0,0.0,0.0,0.0,0.0,180.0,0.0,0.0,0.0,0,,Manual,OTHER,NONE,GPS_POSITION_NONMATCH,False,DisConnected,,P,False,False,False,0,0,,0.0,,0.0,0.0,0.0,0.0,NaN,NaN,NaN,0.0,0.0,0.0,0,0,0,14587,0,16.70936,12720.0,14586,-832,0,6,23,1,3647,0,0,0.0,0.0,
29672079,6.594,,,-41.25943,-0.0,,,0,NaN,0.0,0.0,0.08464822,-0.010911104,-0.98380584,0.9875011,-0.2812115,-0.08525373,-0.32823172,0.44054985,0.0,0.0,0.0,0.0,0.0,401,-61,1494,1548.0,25.63,0.0,NaN,NaN,NaN,0.0,NaN,NaN,0.0,0.0,0.0,-0.0,NaN,NaN,NaN,NaN,NaN,NaN,NaN,NaN,false,false,-0.826453172642706,-0.29094018675836053,-0.1728149144803267,,0.0,,,0.0,0.0,0.0,0.0,0.0,0.0,0.0,0.0,0.0,0.0,-2200,2288,0,0,705,0.0,0.0,,,,,99.99,99.99,3.75E7,0,0,0,,,,20130901,1,87,0,0,0,0,Manual,0,0,0,0,0,30,50,0.0,0.0,0,5,0,0,0,0,0,0,0,0,0,0.0,0.0,0.0,Hover,,lost,100.0,0,0,0,0,0,0,0,0,0,1,0,401,-61,1494,1548.0,NaN,745,-48,1384,1572.0,NaN,256,-68,488,188,7,391,,,,,,,,,,,,,,,,,,,,,,,,,,,,,,,,,,,,,,,,0.0,,,,,,,,,,,,,,,,,,,,,,,,,,,,,,,,,,0.0,0.0,0.0,0.0,0.0,180.0,0.0,0.0,0.0,0,,Manual,OTHER,NONE,GPS_POSITION_NONMATCH,False,DisConnected,,P,False,False,False,0,0,,0.0,,0.0,0.0,0.0,0.0,NaN,NaN,NaN,0.0,0.0,0.0,0,0,0,14588,0,76.051025,12720.0,14586,-824,0,6,23,1,3647,0,0,0.0,0.0,
29897080,6.644,,,-41.437565,-0.0,,,0,NaN,0.0,0.0,0.08618406,-0.007317948,-0.9841615,0.987955,-0.2403736,-0.34882525,-0.59593046,0.7311577,0.0,0.0,0.0,0.0,0.0,408,-67,1497,1553.0,25.64,0.0,NaN,NaN,NaN,0.0,NaN,NaN,0.0,0.0,0.0,-0.0,NaN,NaN,NaN,NaN,NaN,NaN,NaN,NaN,false,false,-0.8490440494263944,-0.30477003321933593,-0.18548428504790937,,0.0,,,0.0,0.0,0.0,0.0,0.0,0.0,0.0,0.0,0.0,0.0,-2200,2289,0,0,725,0.0,0.0,,,,,99.99,99.99,3.75E7,0,0,0,,,,20130901,1,89,0,0,0,0,Manual,0,0,0,0,0,30,50,0.0,0.0,0,5,0,0,0,0,0,0,0,0,0,0.0,0.0,0.0,Hover,,lost,100.0,0,0,0,0,0,0,0,0,0,1,0,408,-67,1497,1553.0,NaN,752,-54,1390,1581.0,NaN,255,-69,486,187,6,389,,,,,,,,,,,,,,,,,,,,,,,,,,,,,,,,,,,,,,,,0.0,,,,,,,,,,,,,,,,,,,,,,,,,,,,,,,,,,0.0,0.0,0.0,0.0,0.0,180.0,0.0,0.0,0.0,0,,Manual,OTHER,NONE,GPS_POSITION_NONMATCH,False,DisConnected,,P,False,False,False,0,0,,0.0,,0.0,0.0,0.0,0.0,NaN,NaN,NaN,0.0,0.0,0.0,0,0,0,14588,0,76.051025,12720.0,14586,-824,0,6,23,1,3647,0,0,0.0,0.0,
30122086,6.694,,,-40.960632,-0.0,,,0,NaN,0.0,0.0,0.08256827,-0.007374597,-0.98445815,0.98794216,-0.13453203,-0.12857151,-0.46816903,0.50379735,0.0,0.0,0.0,0.0,0.0,408,-64,1494,1550.0,25.63,0.0,NaN,NaN,NaN,0.0,NaN,NaN,0.0,0.0,0.0,-0.0,NaN,NaN,NaN,NaN,NaN,NaN,NaN,NaN,false,false,-0.869684454306755,-0.3138090659390611,-0.19316874239972737,,0.0,,,0.0,0.0,0.0,0.0,0.0,0.0,0.0,0.0,0.0,0.0,-2200,2289,0,0,745,0.0,0.0,,,,,99.99,99.99,3.75E7,0,0,0,,,,20130901,1,92,0,0,0,0,Manual,0,0,0,0,0,30,50,0.0,0.0,0,5,0,0,0,0,0,0,0,0,0,0.0,0.0,0.0,Hover,,lost,100.0,0,0,0,0,0,0,0,0,0,1,0,408,-64,1494,1550.0,NaN,742,-48,1384,1571.0,NaN,256,-70,486,186,8,389,,,,,,,,,,,,,,,,,,,,,,,,,,,,,,,,,,,,,,,,0.0,,,,,,,,,,,,,,,,,,,,,,,,,,,,,,,,,,0.0,0.0,0.0,0.0,0.0,180.0,0.0,0.0,0.0,0,,Manual,OTHER,NONE,GPS_POSITION_NONMATCH,False,DisConnected,,P,False,False,False,0,0,,0.0,,0.0,0.0,0.0,0.0,NaN,NaN,NaN,0.0,0.0,0.0,0,0,0,14589,0,76.051025,12720.0,14586,-824,0,6,23,1,3647,0,0,0.0,0.0,
30347089,6.744,,,-41.343014,-0.0,,,0,NaN,0.0,0.0,0.08629173,-0.008884489,-0.984014,0.9878303,-0.20287564,-0.4252376,-0.44691357,0.6493976,0.0,0.0,0.0,0.0,0.0,401,-61,1497,1550.0,25.63,0.0,NaN,NaN,NaN,0.0,NaN,NaN,0.0,0.0,0.0,-0.0,NaN,NaN,NaN,NaN,NaN,NaN,NaN,NaN,false,false,-0.8926175860845811,-0.3224571756625456,-0.2017044419016435,,0.0,,,0.0,0.0,0.0,0.0,0.0,0.0,0.0,0.0,0.0,0.0,-2200,2290,0,0,765,0.0,0.0,,,,,99.99,99.99,3.75E7,0,0,0,,,,20130901,1,94,0,0,0,0,Manual,0,0,0,0,0,30,50,0.0,0.0,0,5,0,0,0,0,0,0,0,0,0,0.0,0.0,0.0,Hover,,lost,100.0,0,0,0,0,0,0,0,0,0,1,0,401,-61,1497,1550.0,NaN,742,-51,1387,1573.0,NaN,256,-69,487,185,6,389,,,,,,,,,,,,,,,,,,,,,,,,,,,,,,,,,,,,,,,,0.0,,,,,,,,,,,,,,,,,,,,,,,,,,,,,,,,,,0.0,0.0,0.0,0.0,0.0,180.0,0.0,0.0,0.0,0,,Manual,OTHER,NONE,GPS_POSITION_NONMATCH,False,DisConnected,,P,False,False,False,0,0,,0.0,,0.0,0.0,0.0,0.0,NaN,NaN,NaN,0.0,0.0,0.0,0,0,0,14589,0,76.051025,12720.0,14586,-824,0,6,23,1,3647,0,0,0.0,0.0,
30572094,6.794,,,-41.17951,-0.0,,,0,NaN,0.0,0.0,0.083597355,-0.01107818,-0.98459435,0.988199,-0.1629311,-0.08969195,-0.4520923,0.4888544,0.0,0.0,0.0,0.0,0.0,405,-72,1494,1549.0,25.66,0.0,NaN,NaN,NaN,0.0,NaN,NaN,0.0,0.0,0.0,-0.0,NaN,NaN,NaN,NaN,NaN,NaN,NaN,NaN,false,false,-0.9150747274419382,-0.33138590035072624,-0.21135855481580268,,0.0,,,0.0,0.0,0.0,0.0,0.0,0.0,0.0,0.0,0.0,0.0,-2200,2290,0,0,785,0.0,0.0,,,,,99.99,99.99,3.75E7,0,0,0,,,,20130901,1,97,0,0,0,0,Manual,0,0,0,0,0,30,50,0.0,0.0,0,5,0,0,0,0,0,0,0,0,0,0.0,0.0,0.0,Hover,,lost,100.0,0,0,0,0,0,0,0,0,0,1,0,405,-72,1494,1549.0,NaN,749,-51,1387,1577.0,NaN,256,-70,487,189,6,390,,,,,,,,,,,,,,,,,,,,,,,,,,,,,,,,,,,,,,,,0.0,,,,,,,,,,,,,,,,,,,,,,,,,,,,,,,,,,0.0,0.0,0.0,0.0,0.0,180.0,0.0,0.0,0.0,0,,Manual,OTHER,NONE,GPS_POSITION_NONMATCH,False,DisConnected,,P,False,False,False,0,0,,0.0,,0.0,0.0,0.0,0.0,NaN,NaN,NaN,0.0,0.0,0.0,0,0,0,14590,0,76.051025,12720.0,14586,-824,0,6,23,1,3647,0,0,0.0,0.0,
30797096,6.844,,,-40.557896,-0.0,,,0,NaN,0.0,0.0,0.08688355,-0.0070684133,-0.98438853,0.9882406,-0.28918687,-0.3846784,-0.45766637,0.66412723,0.0,0.0,0.0,0.0,0.0,405,-64,1500,1555.0,25.68,0.0,NaN,NaN,NaN,0.0,NaN,NaN,0.0,0.0,0.0,-0.0,NaN,NaN,NaN,NaN,NaN,NaN,NaN,NaN,false,false,-0.9371206490663775,-0.34390278076858904,-0.220963442438057,,0.0,,,0.0,0.0,0.0,0.0,0.0,0.0,0.0,0.0,0.0,0.0,-2200,2290,0,0,805,0.0,0.0,,,,,99.99,99.99,3.75E7,0,0,0,,,,20130901,1,99,0,0,0,0,Manual,0,0,0,0,0,30,50,0.0,0.0,0,5,0,0,0,0,0,0,0,0,0,0.0,0.0,0.0,Hover,,lost,100.0,0,0,0,0,0,0,0,0,0,1,0,405,-64,1500,1555.0,NaN,745,-48,1384,1572.0,NaN,255,-72,487,186,6,388,,,,,,,,,,,,,,,,,,,,,,,,,,,,,,,,,,,,,,,,0.0,,,,,,,,,,,,,,,,,,,,,,,,,,,,,,,,,,0.0,0.0,0.0,0.0,0.0,180.0,0.0,0.0,0.0,0,     99 [L-SENSOR][baro(0)] std_filtered_air_press init succeed: press:101.8|    100 [L-GPS]index(0) fdi event:turn on,Manual,OTHER,NONE,GPS_POSITION_NONMATCH,False,DisConnected,,P,False,False,False,0,0,,0.0,,0.0,0.0,0.0,0.0,NaN,NaN,NaN,0.0,0.0,0.0,0,0,0,14590,0,76.051025,12720.0,14586,-824,0,6,23,1,3647,0,0,0.0,0.0,
31029217,6.895,,,-40.737583,-0.0,,,0,NaN,0.0,0.0,0.08244705,-0.006511732,-0.985694,0.9891575,-0.27189937,-0.06953997,-0.34023243,0.44104782,0.0,0.0,0.0,0.0,0.0,405,-67,1500,1555.0,25.7,0.0,NaN,NaN,NaN,0.0,NaN,NaN,0.0,0.0,0.0,-0.0,NaN,NaN,NaN,NaN,NaN,NaN,NaN,NaN,false,false,-0.9589495190303745,-0.3556910306779899,-0.23073052113003178,,0.0,,,0.0,0.0,0.0,0.0,0.0,0.0,0.0,0.0,0.0,0.0,-2200,2290,0,0,825,0.0,0.0,,,,,99.99,99.99,3.75E7,0,0,0,,,,20130901,1,102,0,0,0,0,Manual,0,0,0,0,0,30,50,0.0,0.0,0,5,0,0,0,0,0,0,0,0,0,0.0,0.0,0.0,Hover,,lost,100.0,0,0,0,0,0,0,0,0,0,1,0,405,-67,1500,1555.0,NaN,745,-51,1384,1572.0,NaN,255,-70,488,188,5,390,,,,,,,,,,,,,,,,,,,,,,,,,,,,,,,,,,,,,,,,0.0,,,,,,,,,,,,,,,,,,,,,,,,,,,,,,,,,,0.0,0.0,0.0,0.0,0.0,180.0,0.0,0.0,0.0,0,,Manual,OTHER,NONE,GPS_POSITION_NONMATCH,False,DisConnected,,P,False,False,False,0,0,,0.0,,0.0,0.0,0.0,0.0,NaN,NaN,NaN,0.0,0.0,0.0,0,0,0,14590,0,76.051025,12720.0,14586,-824,0,6,23,1,3647,0,0,0.0,0.0,
31254631,6.945,,,-40.547974,-0.0,,,0,NaN,0.0,0.0,0.08540478,-0.01054782,-0.9855929,0.9893425,-0.23087737,-0.2585502,-0.44073316,0.5607123,0.0,0.0,0.0,0.0,0.0,405,-64,1500,1555.0,25.72,0.0,NaN,NaN,NaN,0.0,NaN,NaN,0.0,0.0,0.0,-0.0,NaN,NaN,NaN,NaN,NaN,NaN,NaN,NaN,false,false,-0.9809536669181875,-0.36412112195796786,-0.2402806618311767,,0.0,,,0.0,0.0,0.0,0.0,0.0,0.0,0.0,0.0,0.0,0.0,-2200,2291,0,0,845,0.0,0.0,,,,,99.99,99.99,3.75E7,0,0,0,,,,20130901,1,104,0,0,0,0,Manual,0,0,0,0,0,30,50,0.0,0.0,0,5,0,0,0,0,0,0,0,0,0,0.0,0.0,0.0,Hover,,lost,100.0,0,0,0,0,0,0,0,0,0,1,0,405,-64,1500,1555.0,NaN,752,-51,1393,1583.0,NaN,256,-70,489,188,6,391,,,,,,,,,,,,,,,,,,,,,,,,,,,,,,,,,,,,,,,,0.0,,,,,,,,,,,,,,,,,,,,,,,,,,,,,,,,,,0.0,0.0,0.0,0.0,0.0,180.0,0.0,0.0,0.0,0,,Manual,OTHER,NONE,GPS_POSITION_NONMATCH,False,DisConnected,,P,False,False,False,0,0,,0.0,,0.0,0.0,0.0,0.0,NaN,NaN,NaN,0.0,0.0,0.0,0,0,0,14589,0,76.051025,12720.0,14586,-824,0,6,23,1,3647,0,0,0.0,0.0,
31479638,6.995,,,-40.91675,-0.0,,,0,NaN,0.0,0.0,0.08265733,-0.0058895973,-0.9841537,0.98763627,-0.27944037,-0.16792922,-0.2284478,0.3980899,0.0,0.0,0.0,0.0,0.0,405,-61,1497,1552.0,25.75,0.0,NaN,NaN,NaN,0.0,NaN,NaN,0.0,0.0,0.0,-0.0,NaN,NaN,NaN,NaN,NaN,NaN,NaN,NaN,false,false,-1.0024688016483958,-0.3759500580093922,-0.25215261517672605,,0.0,,,0.0,0.0,0.0,0.0,0.0,0.0,0.0,0.0,0.0,0.0,-2200,2291,0,0,865,0.0,0.0,,,,,99.99,99.99,3.75E7,0,0,0,,,,20130901,1,107,0,0,0,0,Manual,0,0,0,0,0,30,50,0.0,0.0,0,5,0,0,0,0,0,0,0,0,0,0.0,0.0,0.0,Hover,,lost,100.0,0,0,0,0,0,0,0,0,0,1,0,405,-61,1497,1552.0,NaN,752,-54,1387,1578.0,NaN,255,-67,489,187,6,391,,,,,,,,,,,,,,,,,,,,,,,,,,,,,,,,,,,,,,,,0.0,,,,,,,,,,,,,,,,,,,,,,,,,,,,,,,,,,0.0,0.0,0.0,0.0,0.0,180.0,0.0,0.0,0.0,0,    107 [L-ESC]esc alive info = 0x0|||    108 [L-ESC]ESC0 link up||,Manual,OTHER,NONE,GPS_POSITION_NONMATCH,False,DisConnected,,P,False,False,False,0,0,,0.0,,0.0,0.0,0.0,0.0,NaN,NaN,NaN,0.0,0.0,0.0,0,0,0,14588,0,76.051025,12720.0,14586,-824,0,6,23,1,3647,0,0,0.0,0.0,
31704801,7.046,,,-41.04734,-0.0,,,0,NaN,0.0,0.0,0.086954236,-0.008317153,-0.9844296,0.98829746,-0.2666092,-0.29026735,-0.47107756,0.61420655,0.0,0.0,0.0,0.0,0.0,408,-61,1497,1552.0,25.76,0.0,NaN,NaN,NaN,0.0,NaN,NaN,0.0,0.0,0.0,-0.0,NaN,NaN,NaN,NaN,NaN,NaN,NaN,NaN,false,false,-1.020859479066386,-0.3885456871848463,-0.2585665978527779,,0.0,,,0.0,0.0,0.0,0.0,0.0,0.0,0.0,0.0,0.0,0.0,-2200,2292,0,0,885,0.0,0.0,,,,,99.99,99.99,3.75E7,0,0,0,,,,20130901,1,109,0,0,0,0,Manual,0,0,0,0,0,30,50,0.0,0.0,0,5,0,0,0,0,0,0,0,0,0,0.0,0.0,0.0,Hover,,lost,100.0,0,0,0,0,0,0,0,0,0,1,0,408,-61,1497,1552.0,NaN,745,-48,1387,1575.0,NaN,256,-69,487,187,6,389,,,,,,,,,,,,,,,,,,,,,,,,,,,,,,,,,,,,,,,,0.0,,0,0,0,0,22,23,22,21,48.59375,48.90625,48.90625,49.010418,48.958332,48.958332,48.958332,48.958332,0.0,0.0,0.0,0.0,14.2,14.3,14.2,14.1,0.0,0.0,0.0,0.0,0,0,0,0,0.0,0.0,0.0,0.0,0.0,180.0,0.0,0.0,0.0,0,    108 [L-ESC]ESC1 link up|||    108 [L-ESC]ESC2 link up|||    108 [L-ESC]ESC3 link up|||    109 [L-FMU/MOTOR]fault off. esc(1) is disconnect|    109 [L-FMU/MOTOR]fault off. esc(2) is disconnect|    109 [L-FMU/MOTOR]fault off. esc(3) is disconnect|    109 [L-FMU/MOTOR]fault off. esc(4) is disconnect|    109 [L-ESC]ESC0 version: Protocol = [V1.0] Hardware = "WM330_EV1" |    109 [L-ESC]Loader   = [V01.00.00.00] |    109 [L-ESC]Firmware = [V01.08.00.07] |||    109 [L-ESC]ESC1 version: Protocol = [V1.0] Hardware = "WM330_EV1" |    109 [L-ESC]Loader   = [V01.00.00.00] |    109 [L-ESC]Firmware = [V01.08.00.07] |||    110 [L-ESC]ESC2 version: Protocol = [V1.0] Hardware = "WM330_EV1" |    110 [L-ESC]Loader   = [V01.00.00.00] |    110 [L-ESC]Firmware = [V01.08.00.07] |||    110 [L-ESC]ESC3 version: Protocol = [V1.0] Hardware = "WM330_EV1" |    110 [L-ESC]Loader   = [V01.00.00.00] |    110 [L-ESC]Firmware = [V01.08.00.07] ||,Manual,OTHER,NONE,GPS_POSITION_NONMATCH,False,DisConnected,,P,False,False,False,0,0,,0.0,,0.0,0.0,0.0,0.0,NaN,NaN,NaN,0.0,0.0,0.0,0,0,0,14587,0,76.051025,12720.0,14586,-824,0,6,23,1,3647,0,0,0.0,0.0,
31931877,7.096,,,-40.80549,-0.0,,,0,NaN,0.0,0.0,0.08290905,-0.007346536,-0.9850116,0.988522,-0.070397556,-0.23872358,-0.2784864,0.37349623,0.0,0.0,0.0,0.0,0.0,401,-64,1497,1551.0,25.79,0.0,NaN,NaN,NaN,0.0,NaN,NaN,0.0,0.0,0.0,-0.0,NaN,NaN,NaN,NaN,NaN,NaN,NaN,NaN,false,false,-1.0419937437397466,-0.3971295529108969,-0.2727498049092504,,0.0,,,0.0,0.0,0.0,0.0,0.0,0.0,0.0,0.0,0.0,0.0,-2200,2292,0,0,905,0.0,0.0,,,,,99.99,99.99,3.75E7,0,0,0,,,,20130901,1,112,0,0,0,0,Manual,0,0,0,0,0,30,50,0.0,0.0,0,5,0,0,0,0,0,0,0,0,0,0.0,0.0,0.0,Hover,,lost,100.0,0,0,0,0,0,0,0,0,0,1,0,401,-64,1497,1551.0,NaN,752,-42,1381,1573.0,NaN,255,-70,487,189,6,390,,,,,,,,,,,,,,,,,,,,,,,,,,,,,,,,,,,,,,,,0.0,,0,0,0,0,22,23,22,22,48.59375,48.90625,48.90625,49.010418,48.958332,48.958332,48.958332,48.958332,0.0,0.0,0.0,0.0,14.3,14.2,14.1,14.1,0.0,0.0,0.0,0.0,0,0,0,0,0.0,0.0,0.0,0.0,0.0,180.0,0.0,0.0,0.0,0,,Manual,OTHER,NONE,GPS_POSITION_NONMATCH,False,DisConnected,,P,False,False,False,0,0,,0.0,,0.0,0.0,0.0,0.0,NaN,NaN,NaN,0.0,0.0,0.0,0,0,0,14586,0,76.051025,12720.0,14586,-824,0,6,23,1,3647,0,0,0.0,0.0,
32157042,7.146,,,-40.530212,-0.0,,,0,NaN,0.0,0.0,0.08115246,-0.007810249,-0.9853472,0.9887142,-0.1513581,-0.19674207,-0.4505388,0.51439476,0.0,0.0,0.0,0.0,0.0,408,-61,1494,1549.0,25.8,0.0,NaN,NaN,NaN,0.0,NaN,NaN,0.0,0.0,0.0,-0.0,NaN,NaN,NaN,NaN,NaN,NaN,NaN,NaN,false,false,-1.0639620675735715,-0.40391181589239245,-0.27906734283646484,,0.0,,,0.0,0.0,0.0,0.0,0.0,0.0,0.0,0.0,0.0,0.0,-2200,2293,0,0,925,0.0,0.0,,,,,99.99,99.99,3.75E7,0,0,0,,,,20130901,1,114,0,0,0,0,Manual,0,0,0,0,0,30,50,0.0,0.0,0,5,0,0,0,0,0,0,0,0,0,0.0,0.0,0.0,Hover,,lost,100.0,0,0,0,0,0,0,0,0,0,1,0,408,-61,1494,1549.0,NaN,745,-51,1384,1572.0,NaN,257,-68,487,186,6,388,,,,,,,,,,,,,,,,,,,,,,,,,,,,,,,,,,,,,,,,0.0,,0,0,0,0,22,23,22,22,48.59375,48.90625,48.90625,49.010418,48.958332,48.958332,48.958332,48.958332,0.0,0.0,0.0,0.0,14.3,14.2,14.0,14.0,0.0,0.0,0.0,0.0,0,0,0,0,0.0,0.0,0.0,0.0,0.0,180.0,0.0,0.0,0.0,0,,Manual,OTHER,NONE,GPS_POSITION_NONMATCH,False,DisConnected,,P,False,False,False,0,0,,0.0,,0.0,0.0,0.0,0.0,NaN,NaN,NaN,0.0,0.0,0.0,0,0,0,14585,0,76.051025,12720.0,14586,-824,0,6,23,1,3647,0,0,0.0,0.0,
32382049,7.196,,,-41.016,-0.0,,,0,NaN,0.0,0.0,0.08640388,-0.009661996,-0.9842444,0.9880769,-0.22794561,-0.15161045,-0.49865088,0.5688564,0.0,0.0,0.0,0.0,0.0,405,-64,1497,1552.0,25.83,0.0,NaN,NaN,NaN,0.0,NaN,NaN,0.0,0.0,0.0,-0.0,NaN,NaN,NaN,NaN,NaN,NaN,NaN,NaN,false,false,-1.0874385969184688,-0.4144164043317582,-0.28959624955223473,,0.0,,,0.0,0.0,0.0,0.0,0.0,0.0,0.0,0.0,0.0,0.0,-2200,2293,0,0,945,0.0,0.0,,,,,99.99,99.99,3.75E7,0,0,0,,,,20130901,1,117,0,0,0,0,Manual,0,0,0,0,0,30,50,0.0,0.0,0,5,0,0,0,0,0,0,0,0,0,0.0,0.0,0.0,Hover,,lost,100.0,0,0,0,0,0,0,0,0,0,1,0,405,-64,1497,1552.0,NaN,745,-45,1384,1572.0,NaN,255,-69,488,188,6,390,,,,,,,,,,,,,,,,,,,,,,,,,,,,,,,,,,,,,,,,0.0,,0,0,0,0,22,23,22,22,48.59375,48.90625,48.90625,49.010418,48.958332,48.958332,48.958332,48.958332,0.0,0.0,0.0,0.0,14.3,14.2,14.1,14.1,0.0,0.0,0.0,0.0,0,0,0,0,0.0,0.0,0.0,0.0,0.0,180.0,0.0,0.0,0.0,0,,Manual,OTHER,NONE,GPS_POSITION_NONMATCH,False,DisConnected,,P,False,False,False,0,0,,0.0,,0.0,0.0,0.0,0.0,NaN,NaN,NaN,0.0,0.0,0.0,0,0,0,14584,0,76.051025,12720.0,14586,-824,0,6,23,1,3647,0,0,0.0,0.0,
32607050,7.246,,,-40.76579,-0.0,,,0,NaN,0.0,0.0,0.08600818,-0.007992472,-0.9832896,0.98707634,-0.14352642,-0.3640827,-0.6258914,0.73817074,0.0,0.0,0.0,0.0,0.0,411,-61,1497,1553.0,25.86,0.0,NaN,NaN,NaN,0.0,NaN,NaN,0.0,0.0,0.0,-0.0,NaN,NaN,NaN,NaN,NaN,NaN,NaN,NaN,false,false,-1.1104164897112854,-0.42436316575375677,-0.3005203884589335,,0.0,,,0.0,0.0,0.0,0.0,0.0,0.0,0.0,0.0,0.0,0.0,-2200,2294,0,0,965,0.0,0.0,,,,,99.99,99.99,3.75E7,0,0,0,,,,20130901,1,119,0,0,0,0,Manual,0,0,0,0,0,30,50,0.0,0.0,0,5,0,0,0,0,0,0,0,0,0,0.0,0.0,0.0,Hover,,lost,100.0,0,0,0,0,0,0,0,0,0,1,0,411,-61,1497,1553.0,NaN,745,-51,1387,1575.0,NaN,257,-69,487,186,6,389,,,,,,,,,,,,,,,,,,,,,,,,,,,,,,,,,,,,,,,,0.0,,0,0,0,0,22,23,22,22,48.59375,48.90625,48.90625,49.010418,48.958332,48.958332,48.958332,48.958332,0.0,0.0,0.0,0.0,14.3,14.3,14.1,14.2,0.0,0.0,0.0,0.0,0,0,0,0,0.0,0.0,0.0,0.0,0.0,180.0,0.0,0.0,0.0,0,,Manual,OTHER,NONE,GPS_POSITION_NONMATCH,False,DisConnected,,P,False,False,False,0,0,,0.0,,0.0,0.0,0.0,0.0,NaN,NaN,NaN,0.0,0.0,0.0,0,0,0,14584,0,76.051025,12720.0,14586,-824,0,6,23,1,3647,0,0,0.0,0.0,
