Clock:Tick#,Clock:offsetTime,IMU_ATTI(0):Longitude,IMU_ATTI(0):Latitude,IMU_ATTI(0):press:D,IMU_ATTI(0):alti:D,IMU_ATTI(0):relativeHeight:C,IMU_ATTI(0):absoluteHeight:C,IMU_ATTI(0):numSats,IMU_ATTI(0):roll:C,IMU_ATTI(0):pitch:C,IMU_ATTI(0):yaw:C,IMU_ATTI(0):accelX,IMU_ATTI(0):accelY,IMU_ATTI(0):accelZ,IMU_ATTI(0):accelComposite:C,IMU_ATTI(0):gyroX,IMU_ATTI(0):gyroY,IMU_ATTI(0):gyroZ,IMU_ATTI(0):gyroComposite:C,IMU_ATTI(0):velN,IMU_ATTI(0):velE,IMU_ATTI(0):velD,IMU_ATTI(0):velComposite:C,IMU_ATTI(0):velH:C,IMU_ATTI(0):magX,IMU_ATTI(0):magY,IMU_ATTI(0):magZ,IMU_ATTI(0):magMod:C,IMU_ATTI(0):temperature,IMU_ATTI(0):yawUnWrapped:C,IMU_ATTI(0):tiltInclination:C,IMU_ATTI(0):tiltDirectionEarthFrame:C,IMU_ATTI(0):tiltDirectionBodyFrame:C,IMU_ATTI(0):yaw360:C,IMU_ATTI(0):magYaw:C,IMU_ATTI(0):Yaw-magYaw:C,IMUCalcs(0):PosN:C,IMUCalcs(0):PosE:C,IMUCalcs(0):PosD:C,IMUCalcs(0):height:C,IMUCalcs(0):velN:C,IMUCalcs(0):velE:C,IMUCalcs(0):velD:C,IMUCalcs(0):diffVelN:C,IMUCalcs(0):diffVelE:C,IMUCalcs(0):diffVelD:C,IMUCalcs(0):Lat:C,IMUCalcs(0):Long:C,IMUCalcs(0):VelocityError:C,IMUCalcs(0):PositionError:C,IMUCalcs(0):totalGyroZ:C,IMUCalcs(0):totalGyroX:C,IMUCalcs(0):totalGyroY:C,IMU_ATTI(0):distanceHP:C,IMU_ATTI(0):distanceTravelled:C,IMU_ATTI(0):directionOfTravel[mag]:C,IMU_ATTI(0):directionOfTravel[true]:C,IMU_ATTI(0):quatW:D,IMU_ATTI(0):quatX:D,IMU_ATTI(0):quatY:D,IMU_ATTI(0):quatZ:D,IMU_ATTI(0):agX:D,IMU_ATTI(0):agY:D,IMU_ATTI(0):agZ:D,IMU_ATTI(0):gbX:D,IMU_ATTI(0):gbY:D,IMU_ATTI(0):gbZ:D,IMU_ATTI(0):ty:D,IMU_ATTI(0):tz:D,IMU_ATTI(0):sensor_stat:D,IMU_ATTI(0):filter_stat:D,IMU_ATTI(0):atti_cnt:D,GPS:Long,GPS:Lat,GPS:Date,GPS:Time,GPS:dateTimeStamp,GPS:heightMSL,GPS:hDOP,GPS:pDOP,GPS:sAcc,GPS:numGPS,GPS:numGLNAS,GPS:numSV,GPS:velN,GPS:velE,GPS:velD,GPS:rawDate,GPS:rawTime,Controller:ctrl_tick:D,Controller:ctrl_pitch:D,Controller:ctrl_roll:D,Controller:ctrl_yaw:D,Controller:ctrl_thr:D,Controller:ctrl_mode,Controller:mode_switch:D,Controller:motor_state:D,Controller:sig_level:D,Controller:ctrl_level:D,Controller:sim_model:D,Controller:max_height:D,Controller:max_radius:D,Controller:D2H_x:D,Controller:D2H_y:D,Controller:act_req_id:D,Controller:act_act_id:D,Controller:cmd_mod:D,Controller:mod_req_id:D,Controller:fw_flag:D,Controller:mot_sta:D,Controller:OH_take:D,Controller:OH_take_f:D,Controller:rc_cnt:D,Controller:sup_rc:D,Controller:is_soaring_up:D,Controller:soar_up_timer:D,Controller:vert_vel_err:D,Controller:vert_vel_err_fltr:D,RC_Info:failSafe,RC_Info:dataLost,RC_Info:appLost,RC_Info:sigStrength:C,RC_Info:cur_cmd:D,RC_Info:vedio_lost:D,RC_Info:frame_lost:D,RC_Info:rec_cnt:D,RC_Info:sky_con:D,RC_Info:gnd_con:D,RC_Info:connected:D,RC_Info:m_changed:D,RC_Info:arm_status:D,RC_Info:wifi_en:D,RC_Info:in_wifi:D,MagCali(0):X:D,MagCali(0):Y:D,MagCali(0):Z:D,MagCali(0):Mod:C,MagCali(0):magYaw:C,MagCali(1):X:D,MagCali(1):Y:D,MagCali(1):Z:D,MagCali(1):Mod:C,MagCali(1):magYaw:C,CompassFilter(0):X:D,CompassFilter(0):Y:D,CompassFilter(0):Z:D,CompassFilter(1):X:D,CompassFilter(1):Y:D,CompassFilter(1):Z:D,BatteryStatus:not_ready,BatteryStatus:comm_err,BatteryStatus:first_auth,BatteryStatus:auth_fail,BatteryStatus:need_re,BatteryStatus:volVerylow,BatteryStatus:volNotsafe,BatteryStatus:volLevel1:D,BatteryStatus:vollevel2:D,BatteryStatus:capLevel1:D,BatteryStatus:capLevel2:D,BatteryStatus:smartCap1:D,BatteryStatus:smartCap2:D,BatteryStatus:d_flg:D,BatteryStatus:ccsc:D,BatteryStatus:all:D,SMART_BATT:goHome%,SMART_BATT:land%,SMART_BATT:goHomeTime,SMART_BATT:landTime,OA:avoidObst,OA:emergBrake,OA:radiusLimit,OA:airportLimit,OA:groundForceLanding,OA:horizNearBoundary,OA:vertLowLimit,OA:vertAirportLimit,OA:roofLimit,OA:hitGroundLimit,OA:frontDistance,MVO:velX,MVO:velY,MVO:velZ,MVO:posX,MVO:posY,MVO:posZ,MVO:hoverPointUncertainty1,MVO:hoverPointUncertainty2,MVO:hoverPointUncertainty3,MVO:hoverPointUncertainty4,MVO:hoverPointUncertainty5,MVO:hoverPointUncertainty6,MVO:velocityUncertainty1,MVO:velocityUncertainty2,MVO:velocityUncertainty3,MVO:velocityUncertainty4,MVO:velocityUncertainty5,MVO:velocityUncertainty6,MVO:height,MVO:heightUncertainty,Motor:Speed:RFront,Motor:Speed:LFront,Motor:Speed:LBack,Motor:Speed:RBack,Motor:EscTemp:RFront,Motor:EscTemp:LFront,Motor:EscTemp:LBack,Motor:EscTemp:RBack,Motor:PPMrecv:RFront,Motor:PPMrecv:LFront,Motor:PPMrecv:LBack,Motor:PPMrecv:RBack,Motor:PPMsend:RFront,Motor:PPMsend:LFront,Motor:PPMsend:LBack,Motor:PPMsend:RBack,Motor:V_out:RFront,Motor:V_out:LFront,Motor:V_out:LBack,Motor:V_out:RBack,Motor:Volts:RFront,Motor:Volts:LFront,Motor:Volts:LBack,Motor:Volts:RBack,Motor:Current:RFront,Motor:Current:LFront,Motor:Current:LBack,Motor:Current:RBack,Motor:Status:RFront,Motor:Status:LFront,Motor:Status:LBack,Motor:Status:RBack,AirSpeed:air_vbx:D,AirSpeed:air_vby:D,AirSpeed:comp_alti:D,AirSpeed:windSpeed,AirSpeed:windDirection,AirSpeed:windFromDir,AirSpeed:windN,AirSpeed:windE,AirSpeed:MotorSpd:D,AirSpeed:vel_level:D,eventLog,osd_data:flyCState,osd_data:flycCommand,osd_data:flightAction,osd_data:nonGPSCause,osd_data:compassError,osd_data:connectedToRC,osd_data:lowVoltage,osd_data:ModeSwitch,osd_data:gpsUsed,osd_data:visionUsed,osd_data:notEnoughForce,osd_data:flightTime,osd_data:navHealth,osd_data:vpsHeight,osd_data:relativeHeight,usonic:usonic_h,MotorCtrl:PWM:RFront,MotorCtrl:PWM:LFront,MotorCtrl:PWM:LBack,MotorCtrl:PWM:RBack,ATTI_MINI0:s_qw0,ATTI_MINI0:s_qx0,ATTI_MINI0:s_qy0,ATTI_MINI0:s_qz0,ATTI_MINI0:roll:C,ATTI_MINI0:pitch:C,ATTI_MINI0:yaw:C,ATTI_MINI0:s_pgz0,ATTI_MINI0:s_vgz0,ATTI_MINI0:s_agz0,ATTI_MINI0:s_rsv00,ATTI_MINI0:s_rsv10,ATTI_MINI0:s_cnt0,BatteryInfo:ad_v:D,BatteryInfo:r_time,BatteryInfo:ave_I:D,BatteryInfo:vol_t:D,BatteryInfo:pack_ve:D,BatteryInfo:I:D,BatteryInfo:r_cap:D,BatteryInfo:cap_per:D,BatteryInfo:temp:D,BatteryInfo:right:D,BatteryInfo:l_cell:D,BatteryInfo:dyna_cnt:D,BatteryInfo:f_cap:D,BatteryInfo:out_ctl:D,BatteryInfo:out_ctl_f:D,Attribute|Value,ConvertDatV3,4.3.0
0,-215.521,,,,,,,,,,,,,,,,,,,,,,,,,,,,,,,,,,,,,,,,,,,,,,,,,,,,,,,,,,,,,,,,,,,,,,,,,,,,,,,,,,,,,,,,,,,,,,,,,,,,,,,,,,,,,,,,,,,,,,,,,,,,,,,,,,,,,,,,,,,,,,,,,,,,,,,,,,,,,,,,,,,,,,,,,,,,,,,,,,,,,,,,,,,,,,,,,,,,,,,,,,,,,,,,,,,,,,,,,,,,,,,,,,,,,,,,,,,,,,,,,,,,,,,,,,,,,,,,,,,,,,,,,,,,,,,,,,,,,,,,,,,,,,,,,,
969844136,.000,26.725463323285275,58.38936272408579,-76.63904,-85.24289,,,16,0.6673647199394471,-6.494523133903155,-75.05119806551552,-0.11419767,-0.011118447,-0.99315673,0.9997625,0.0073174406,-0.15474859,-0.07329353,0.1713844,0.006639119,-0.0107650235,0.0022608668,0.012848157,0.012647672937023013,202,261,1514,1549.0,65.0,-75.05119806551552,6.528140954844689,-69.20889847835312,5.842299587162407,284.9488019344845,-83.17490698064466,-8.123708915129143,0.0,0.0,0.0,-0.0,NaN,NaN,NaN,NaN,NaN,NaN,NaN,NaN,false,false,-56.4439108631724,-4.475665121270525,-63.78526014793062,,0.0,,,0.7915935,-0.029891476,-0.04846507,-0.60838914,0.0010102432,0.013167876,0.025648512,0.0019361273,-0.0015556732,-7.1696483E-4,-2200,2852,0,0,18700,26.7254631,58.3893628,20240319,84958,2024-03-19T08:49:58Z,40.699,0.68,1.26,9.99,9,7,16,0.02,0.0,-0.02,20240319,84958,10526,0,0,0,0,ASST_TAKEOFF,2,0,5,5,0,100,5000,-2.218248,0.1064324,5,2,13,5,0,0,0,0,0,0,0,0.0,0.0,0.0,Hover,,,100.0,0,0,0,0,1,1,1,0,0,1,0,193,264,1514,1548.0,-85.31711452913498,151,332,1493,1536.0,-93.50445078373912,192,45,493,17,142,424,0,0,0,0,0,0,0,0,0,0,0,0,0,0,0,65568,0,0,0,0,,,,,,,,,,,0,-0.1,0.25,,-0.001253112,-5.500663E-4,,0.0013736587,0.0,0.0,0.0013736575,0.0,0.001373657,8.5853666E-5,0.0,0.79159164,8.585359E-5,0.0,8.5853564E-5,,1000000.0,0,0,0,0,23,25,24,24,48.59375,48.90625,48.854168,49.010418,48.958332,48.958332,48.958332,48.958332,0.0,0.0,0.0,0.0,16.5,16.5,16.4,16.4,0.0,0.0,0.0,0.0,0,0,0,0,0.0,0.0,0.0,0.0,0.0,180.0,0.0,0.0,0.0,0,  10527 [L-FMU/MOTOR]Start. reason:ACT.Takeoff,GPS_Atti,OTHER,NONE,ALREADY,False,Connected,,P,True,False,False,0,5,0.1,0.0,0.07,,,,,0.9010893,-0.019006606,-0.05422328,-0.42981002,4.638271389072832,4.683354805722815,50.811515511057415,-76.76741,0.0057777856,0.028020147,0,0,41292,16745,0,1105.2941,12680.0,16763,-1108,5121,97,22,1,4190,0,5280,0.0,0.0,Firmware Date| Nov 16 2017
970071121,.050,26.7254633363514,58.38936271859794,-77.6225,-85.242836,7.620491441406244,,16,0.6715090711272034,-6.503364312816812,-75.04990957257762,-0.11377794,-0.012665586,-0.996552,1.003106,0.13358267,-0.28388315,0.02085004,0.31443393,-1.0144954E-5,0.003306601,0.0014780686,0.003621933,0.0033066164691524912,196,264,1514,1549.0,65.02,-75.04990957257762,6.537352254347356,-69.17958319921506,5.870326373362564,284.95009042742237,-84.68170381514963,-9.631794242572013,1.206907865416787E-4,-1.0491056994510473E-4,8.516625901844321E-5,-8.516625901844321E-5,NaN,NaN,NaN,NaN,NaN,NaN,58.389362724622416,26.72546332277237,false,false,-56.44522850358175,-4.469648870774309,-63.78881990025537,,0.0,,,0.7915952,-0.029909223,-0.048548464,-0.6083794,-0.012177476,-0.0038103564,-0.0028206296,0.00193515,-0.0015537816,-5.382008E-4,-2200,2852,0,0,18720,26.7254631,58.3893628,20240319,84958,2024-03-19T08:49:58Z,40.699,0.68,1.26,9.99,9,7,16,0.02,0.0,-0.02,20240319,84958,10528,0,0,0,0,ASST_TAKEOFF,2,1,5,5,0,100,5000,-2.2186747,0.10696191,5,2,13,5,0,0,0,0,0,0,0,0.0,0.0,0.0,Hover,,,100.0,0,0,0,0,1,1,1,0,0,1,0,196,264,1514,1549.0,-84.68170381514963,154,335,1496,1540.0,-93.04081082773483,191,46,494,18,142,426,0,0,0,0,0,0,0,0,0,0,0,0,0,0,0,65568,0,0,0,0,false,false,false,false,false,false,false,false,false,false,0,-0.1,0.25,,-0.001253112,-5.500663E-4,,0.0013736587,0.0,0.0,0.0013736575,0.0,0.001373657,8.5853666E-5,0.0,0.79159164,8.585359E-5,0.0,8.5853564E-5,,1000000.0,0,0,0,2876,23,25,24,24,57.96875,58.385418,58.4375,58.541668,58.489582,58.489582,58.489582,58.489582,0.5,0.6,0.7,0.3,16.5,16.4,16.2,16.4,-0.02,-0.02,0.0,-0.02,0,0,0,0,0.0,0.0,0.0,0.0,0.0,180.0,0.0,0.0,0.0,0,  10527 [L-PWM]set actuator mode:CTRL|  10527 [L-FDI]tilt when motor on = 0.113941. static flag = 1|  10527 [L-FMU/FSM]state changed. cur: on ground|  10528 [L-IMU]set imu switch level = 8|  10528 [L-IOC]Set CL. -75.1 Degree|  10528 [L-TAKEOFF]alti: -85.242989 tors: -75.089676,ASST_TAKEOFF,AUTO_FLY,APP_AUTO_TAKEOFF,ALREADY,False,Connected,,P,True,False,False,0,5,0.1,0.0,0.07,0.53,0.53,0.53,0.53,0.90117234,-0.018997174,-0.054221958,-0.42963654,4.636328585400412,4.684571173531344,50.78946859456363,-76.77601,0.028581537,-0.0109075215,0,0,41300,16746,0,1105.2941,12680.0,16763,-1108,5121,97,22,1,4190,0,5280,0.0,0.0,ACType|P4
970296164,.100,26.72546332815342,58.389362720609064,-77.144646,-85.24291,8.098343309082026,,16,0.6698235096396432,-6.50308107291612,-75.05140241256335,-0.11424955,-0.011872373,-0.9950947,1.0017023,0.05708543,-0.044090018,-0.12816662,0.14706922,-0.008392494,0.01627971,0.0019975088,0.01842425,0.01831564673292875,196,264,1512,1547.0,65.03,-75.05140241256335,6.536900558273591,-69.19545455892941,5.855947853633925,284.94859758743667,-84.62900018044894,-9.577597767885592,-6.939129232198804E-5,3.853749771369763E-4,1.709885099545616E-4,-1.709885099545616E-4,NaN,NaN,NaN,NaN,NaN,NaN,58.389362722912956,26.72546333118465,false,false,-56.447452711538205,-4.466534954176003,-63.79409298684181,,0.0,,,0.791588,-0.02992,-0.048537176,-0.6083892,-0.005709372,0.0060001602,0.0089642145,0.001933345,-0.0015516633,-4.4595462E-4,-2200,2853,0,0,18740,26.7254631,58.3893628,20240319,84958,2024-03-19T08:49:58Z,40.69,0.68,1.26,9.99,9,7,16,0.0,0.01,0.0,20240319,84958,10531,0,0,0,0,ASST_TAKEOFF,2,1,5,5,0,100,5000,-2.2186425,0.10672797,5,2,13,5,0,0,0,0,0,0,0,0.0,0.0,0.0,Hover,,,100.0,0,0,0,0,1,1,1,0,0,1,0,199,264,1514,1549.0,-83.99405238342955,151,332,1496,1539.0,-93.60826743557948,192,46,493,17,141,426,0,0,0,0,0,0,0,0,0,0,0,0,0,0,0,65568,0,0,0,0,false,false,false,false,false,false,false,false,false,false,0,-0.34,0.48,,-0.001302701,-4.9040205E-4,,0.0014034384,0.0,0.0,0.001403438,0.0,0.0014034376,8.77149E-5,0.0,0.7915964,8.771488E-5,0.0,8.771485E-5,,1000000.0,0,44,84,0,23,25,24,24,58.125,58.489582,58.489582,58.697918,58.59375,58.59375,58.59375,58.59375,1.7,1.9,2.0,1.5,16.5,16.4,16.2,16.3,-0.02,-0.02,0.0,-0.02,0,0,0,0,0.0,0.0,0.3,0.0,0.0,180.0,0.0,0.0,0.0,0,,ASST_TAKEOFF,AUTO_FLY,APP_AUTO_TAKEOFF,ALREADY,False,Connected,,P,True,False,False,0,5,0.1,0.0,0.07,0.79,0.79,0.79,0.79,0.9011732,-0.01901039,-0.054217413,-0.42963472,4.637464012943446,4.683460972600101,50.7892397077103,-76.7971,0.07523994,0.010395655,0,0,41312,16747,0,1105.2941,12680.0,16763,-1108,5121,97,22,1,4190,0,5280,0.0,0.0,dateTime|2024-3-19 8:47:2 GMT
970521290,.150,26.725463333818876,58.389362718161514,-76.09148,-85.24301,9.151512559570307,,16,0.6698078235759345,-6.503041447073764,-75.05357534420543,-0.11420955,-0.012325416,-0.99444175,1.0010545,0.18142012,0.2163904,-0.0015088982,0.28238332,-0.017479198,0.027920168,0.002522718,0.03303668,0.0329402216734856,206,261,1514,1550.0,65.04,-75.05357534420543,6.53685956465675,-69.19772794559394,5.855847398611496,284.94642465579454,-82.30508726140144,-7.251511917196012,-7.194784035755714E-4,0.0014966199391697188,2.8187321755179795E-4,-2.8187321755179795E-4,NaN,NaN,NaN,NaN,NaN,NaN,58.38936271706659,26.72546335025129,false,false,-56.45006413877901,-4.461862251447078,-63.79962738111312,,4.4071339451285215E-5,,,0.79157645,-0.029920822,-0.048536252,-0.6084042,-0.009775313,0.005999455,0.0144170225,0.0019315257,-0.0015501779,-4.8300604E-4,-2200,2853,0,0,18760,26.7254631,58.3893628,20240319,84958,2024-03-19T08:49:58Z,40.69,0.68,1.26,9.99,9,7,16,0.0,0.01,0.0,20240319,84958,10533,0,0,0,0,ASST_TAKEOFF,2,1,5,5,0,100,5000,-2.2188857,0.107019335,5,2,13,5,0,0,0,0,0,0,0,0.0,0.0,0.0,Hover,,,100.0,0,0,0,0,1,1,1,0,0,1,0,206,261,1514,1550.0,-82.30508726140144,154,335,1493,1537.0,-92.9771925166484,195,45,494,19,143,425,0,0,0,0,0,0,0,0,0,0,0,0,0,0,0,65568,0,0,0,0,false,false,false,false,false,false,false,false,false,false,0,-0.34,0.48,,-0.001302701,-4.9040205E-4,,0.0014034384,0.0,0.0,0.001403438,0.0,0.0014034376,8.77149E-5,0.0,0.7915964,8.771488E-5,0.0,8.771485E-5,,1000000.0,0,0,0,0,23,25,24,24,58.229168,58.645832,58.645832,58.802082,58.697918,58.697918,58.697918,58.697918,2.9,3.2,3.3,2.8,16.6,16.6,16.2,16.2,-0.02,-0.02,0.0,-0.02,0,0,0,0,0.0,0.0,0.3,0.0,0.0,180.0,0.0,0.0,0.0,0,,ASST_TAKEOFF,AUTO_FLY,APP_AUTO_TAKEOFF,ALREADY,False,Connected,,P,True,False,False,100,5,0.1,0.0,0.07,1.19,1.19,1.19,1.19,0.901187,-0.019016443,-0.054230113,-0.42960387,4.638556277967031,4.684642284211214,50.78526690244164,-76.804,0.07313472,0.014994273,0,0,41320,16747,0,1105.2941,12680.0,16763,-1108,5121,97,22,1,4190,0,5280,0.0,0.0,mcID(SN)|07JDD3Q00100EY
970746341,.200,26.725463339854254,58.389362715556004,-77.03397,-85.243164,8.209015306152338,,16,0.6706809135684831,-6.502148323871964,-75.0566559796994,-0.11365854,-0.011245213,-0.9953727,1.001904,0.24287304,-0.27573484,-0.059333794,0.3722063,-0.023125809,0.03376629,0.0029488008,0.041032434,0.04092633940172379,202,261,1517,1552.0,65.06,-75.0566559796994,6.536059227026736,-69.19242129114808,5.864234688551321,284.94334402030063,-83.29807399657106,-8.241418016871663,-0.0017689191718313207,0.0030906175384561863,4.2166886127059655E-4,-4.2166886127059655E-4,NaN,NaN,NaN,NaN,NaN,NaN,58.38936270762874,26.725463377600956,false,false,-56.45487033299939,-4.456486571294326,-63.804327181543776,,4.997806029195819E-4,,,0.7915603,-0.029911343,-0.04853391,-0.60842603,0.004060187,0.004470872,0.0058905445,0.0019283523,-0.0015485003,-5.998822E-4,-2200,2854,0,0,18780,26.7254631,58.3893628,20240319,84958,2024-03-19T08:49:58Z,40.69,0.68,1.26,9.99,9,7,16,0.0,0.01,0.0,20240319,84958,10536,0,0,0,0,ASST_TAKEOFF,2,1,5,5,0,100,5000,-2.219229,0.10743818,5,2,13,5,0,0,0,0,0,0,0,0.0,0.0,0.0,Hover,,,100.0,0,0,0,0,1,1,1,0,0,1,0,196,267,1512,1547.0,-84.68811109172036,151,332,1493,1536.0,-93.54212086213028,193,45,494,18,142,425,0,0,0,0,0,0,0,0,0,0,0,0,0,0,0,65568,0,0,0,0,false,false,false,false,false,false,false,false,false,false,0,-0.34,0.42,,-0.0013446283,-4.4548005E-4,,0.0013607746,0.0,0.0,0.0013607737,0.0,0.0013607731,8.5048414E-5,0.0,0.7915725,8.5048356E-5,0.0,8.504832E-5,,1000000.0,0,84,122,0,23,25,24,24,58.4375,58.802082,58.802082,59.010418,58.90625,58.90625,58.90625,58.90625,5.5,5.6,5.7,5.3,16.5,16.5,16.4,16.4,-0.02,-0.02,0.0,-0.02,0,0,0,0,0.0,0.0,0.3,0.0,0.0,180.0,0.0,0.0,0.0,0,,ASST_TAKEOFF,AUTO_FLY,APP_AUTO_TAKEOFF,ALREADY,False,Connected,,P,True,False,False,100,5,0.1,0.0,0.07,1.46,1.46,1.46,1.46,0.9012613,-0.01900836,-0.05423482,-0.42944774,4.637140163188427,4.686329802580706,50.76540606083733,-76.807365,0.059972703,0.009317679,0,0,41332,16748,0,1105.2941,12680.0,16763,-1108,5121,97,22,1,4190,0,5280,0.0,0.0,mcVer|v3.2.44.7
970971443,.251,26.725463346088326,58.389362712911414,-77.10635,-85.24336,8.13663524023437,,16,0.6709027573274927,-6.503448865337429,-75.08564309698542,-0.11329151,-0.013292006,-0.9955295,1.0020431,0.61261845,-2.4839284,-1.8601122,3.1631029,-0.025142208,0.035143062,0.0032603545,0.043333534,0.04321070843375347,199,253,1512,1545.0,65.02,-75.08564309698542,6.537375163452488,-69.22065700454093,5.864986092444504,284.91435690301455,-83.65982670398895,-8.574183607003533,-0.002987923727226352,0.004804422888904369,5.760260136300488E-4,-5.760260136300488E-4,NaN,NaN,NaN,NaN,NaN,NaN,58.38936269666596,26.725463407006274,false,false,-56.48623334272578,-4.454766281404536,-63.811517654381696,,9.672631202252701E-4,,,0.79140556,-0.029929005,-0.0485365,-0.608626,0.035301182,0.03967358,0.008359039,0.0019239791,-0.0015469582,-5.741012E-4,-2200,2854,0,0,18800,26.7254631,58.3893628,20240319,84958,2024-03-19T08:49:58Z,40.69,0.68,1.26,9.99,9,7,16,0.0,0.01,0.0,20240319,84958,10538,0,0,0,0,ASST_TAKEOFF,2,1,5,5,0,100,5000,-2.2194643,0.10772594,5,2,13,5,0,0,0,0,0,0,0,0.0,0.0,0.0,Hover,,,100.0,0,0,0,0,1,1,1,0,0,1,0,199,253,1512,1545.0,-83.65982670398895,154,329,1490,1533.0,-92.97267197408382,192,42,492,19,141,424,0,0,0,0,0,0,0,0,0,0,0,0,0,0,0,65568,0,0,0,0,false,false,false,false,false,false,false,false,false,false,0,-0.34,0.42,,-0.0013446283,-4.4548005E-4,,0.0013607746,0.0,0.0,0.0013607737,0.0,0.0013607731,8.5048414E-5,0.0,0.7915725,8.5048356E-5,0.0,8.504832E-5,,1000000.0,0,0,0,0,23,25,24,24,58.541668,58.958332,58.958332,59.21875,59.010418,59.010418,59.010418,59.010418,6.6,6.9,7.0,6.6,16.4,16.1,16.0,16.0,0.0,0.01,0.01,0.0,0,0,0,0,0.0,0.0,0.3,0.0,0.0,180.0,0.0,0.0,0.0,0,,ASST_TAKEOFF,AUTO_FLY,APP_AUTO_TAKEOFF,ALREADY,False,Connected,,P,True,False,False,200,5,0.1,0.0,0.07,1.86,1.86,1.86,1.86,0.9011801,-0.01900651,-0.054283764,-0.42961213,4.640213048465898,4.690660862097025,50.78614823058375,-76.8163,0.06775704,0.0053687766,0,0,41340,16748,0,1105.2941,12680.0,16763,-1108,5121,97,22,1,4190,0,5280,0.0,0.0,
971196495,.301,26.725463332305466,58.389362717444996,-77.14727,-85.24343,8.095718797363276,,16,0.669523424963419,-6.510527204653585,-75.0750408279568,-0.110019036,-0.02120842,-0.9943012,1.0005943,-1.2334762,-0.16153942,1.2584805,1.7695569,-0.016711527,0.022191208,0.002181332,0.027865445,0.02777993613747144,209,261,1473,1510.0,65.05,-75.0750408279568,6.544276695751184,-69.22840406560589,5.846636762350901,284.9249591720432,-80.61265808187893,-5.537617253922136,-0.004189722809351273,0.006360008378019089,7.075004428509502E-4,-7.075004428509502E-4,NaN,NaN,NaN,NaN,NaN,NaN,58.38936268585793,26.72546343369687,false,false,-56.480827193377664,-4.448369114176662,-63.82598843256783,,0.002199111949268778,,,0.7914594,-0.029971633,-0.04858084,-0.6085504,0.023360943,0.052040838,0.0023178104,0.0019185846,-0.0015519642,-5.976767E-4,-2200,2855,0,0,18820,26.7254631,58.3893628,20240319,84959,2024-03-19T08:49:59Z,40.691,0.68,1.26,9.99,9,7,16,-0.02,-0.02,0.01,20240319,84959,10541,0,0,0,0,ASST_TAKEOFF,2,1,5,5,0,100,5000,-2.219053,0.10703446,5,2,13,5,0,0,0,0,0,0,0,0.0,0.0,0.0,Hover,,,100.0,0,0,0,0,1,1,1,0,0,1,0,229,276,1559,1599.0,-78.93641876689988,154,341,1511,1556.0,-93.32059231630468,198,47,487,19,145,434,0,0,0,0,0,0,0,0,0,0,0,0,0,0,0,65568,0,0,0,0,false,false,false,false,false,false,false,false,false,false,0,0.28,-0.46,,-0.001227855,-6.155936E-4,,0.001388264,0.0,0.0,0.0013882634,0.0,0.0013882626,8.67665E-5,0.0,0.7916635,8.6766464E-5,0.0,8.676641E-5,,1000000.0,0,77,199,89,23,25,24,24,58.645832,59.010418,59.0625,59.270832,59.166668,59.166668,59.166668,59.166668,7.9,8.2,8.3,7.9,16.3,16.2,16.0,16.0,0.03,0.03,0.03,0.03,0,0,0,0,0.0,0.0,0.3,0.0,0.0,180.0,0.0,0.0,0.0,0,,ASST_TAKEOFF,AUTO_FLY,APP_AUTO_TAKEOFF,ALREADY,False,Connected,,P,True,False,False,200,5,0.1,0.0,0.07,2.13,2.13,2.13,2.13,0.90149397,-0.0190516,-0.0543315,-0.42894503,4.643763199414417,4.696845809072595,50.70113047668915,-76.82509,0.0671481,0.023155086,0,0,41352,16741,0,1105.8279,12680.0,16736,-1108,5121,97,22,1,4190,0,5280,0.0,0.0,
971421630,.351,26.72546333177222,58.38936271723168,-76.96893,-85.24351,8.274055894531244,,16,0.6643570520794425,-6.514853967520357,-75.0664686966002,-0.115308434,-0.015623863,-0.99525875,1.002038,-0.27328783,0.64167213,-0.3582222,0.78406155,-7.3499157E-4,-0.0022510926,0.0021955827,0.0032292744,0.0023680436135045664,202,242,1529,1561.0,65.06,-75.0664686966002,6.5480632091619615,-69.26850264996526,5.797966046634934,284.93353130339983,-83.1580541967419,-8.091585500141704,-0.004669347980705854,0.006796866847554206,8.19676585613216E-4,-8.19676585613216E-4,-0.0020372588732089215,0.001258428347072301,0.001856089499110094,-0.0013022673046025747,0.003509520924425421,-3.3949322599757586E-4,58.38936268154456,26.72546344119245,false,false,-56.47645410888835,-4.444870334288103,-63.83967576781708,,0.002250154779084663,,,0.791505,-0.030026669,-0.048585556,-0.6084882,0.053034656,0.0930283,0.00944297,0.0019178106,-0.0015521918,-8.447419E-4,-2200,2855,0,0,18840,26.7254631,58.3893628,20240319,84959,2024-03-19T08:49:59Z,40.691,0.68,1.26,9.99,9,7,16,-0.02,-0.02,0.01,20240319,84959,10543,0,0,0,0,ASST_TAKEOFF,2,1,5,5,0,100,5000,-2.2190673,0.10700682,5,2,13,5,0,0,0,0,0,0,0,0.0,0.0,0.0,Hover,,,100.0,0,0,0,0,1,1,1,0,0,1,0,202,242,1529,1561.0,-83.1580541967419,154,329,1508,1551.0,-93.40157312497631,195,39,504,18,140,429,0,0,0,0,0,0,0,0,0,0,0,0,0,0,0,65568,0,0,0,0,false,false,false,false,false,false,false,false,false,false,0,0.28,-0.46,,-0.001227855,-6.155936E-4,,0.001388264,0.0,0.0,0.0013882634,0.0,0.0013882626,8.67665E-5,0.0,0.7916635,8.6766464E-5,0.0,8.676641E-5,,1000000.0,76,322,488,233,23,25,24,24,58.75,59.270832,59.21875,59.375,59.270832,59.270832,59.270832,59.270832,9.2,9.4,9.6,9.0,16.2,16.3,16.0,16.0,0.03,0.03,0.03,0.03,0,0,0,0,0.0,0.0,0.3,0.0,0.0,180.0,0.0,0.0,0.0,0,,ASST_TAKEOFF,AUTO_FLY,APP_AUTO_TAKEOFF,ALREADY,False,Connected,,P,True,False,False,300,5,0.1,0.0,0.07,2.53,2.53,2.53,2.53,0.901628,-0.019033896,-0.05442925,-0.42865175,4.645206280141751,4.709381350600341,50.6635460475652,-76.831894,0.06950066,0.008044984,0,0,41360,16731,0,1105.8279,12680.0,16736,-1108,5121,97,22,1,4190,0,5280,0.0,0.0,
971646714,.401,26.725463332545143,58.389362716814794,-77.42632,-85.24364,7.816666062988276,,16,0.6610954668426392,-6.492248754248664,-75.06164118696952,-0.11460406,-0.0125877755,-0.99494845,1.0016062,0.20101233,-1.6053339,-1.3278637,2.093018,0.007092611,-0.013902363,0.002264061,0.01577044,0.015607076195530025,215,273,1526,1565.0,65.06,-75.06164118696952,6.525251410943557,-69.27182376387708,5.789817423092441,284.9383588130305,-80.9373718207996,-5.875730633830074,-0.004450932336172123,0.0062279548379438054,9.351268938972979E-4,-9.351268938972979E-4,-0.0020372588732089215,0.001258428347072301,0.001856089499110094,-0.009129869806095522,0.015160791714451012,-4.0797151226390277E-4,58.389362683508814,26.725463431431105,false,false,-56.47630013385914,-4.439816849078047,-63.82669483516053,,0.0023221207813156823,,,0.7915413,-0.029927135,-0.048413374,-0.6084596,0.044772226,0.06203442,0.015655851,0.0019178106,-0.0015521918,-8.075044E-4,-2200,2855,0,0,18860,26.7254631,58.3893628,20240319,84959,2024-03-19T08:49:59Z,40.691,0.68,1.26,9.99,9,7,16,-0.02,-0.02,0.01,20240319,84959,10546,0,0,0,0,ASST_TAKEOFF,2,1,5,5,0,100,5000,-2.2191055,0.10702942,5,2,13,5,0,0,0,0,0,0,0,0.0,0.0,0.0,Hover,,,100.0,0,0,0,0,1,1,1,0,0,1,0,212,264,1538,1574.0,-81.58936005181187,158,338,1502,1547.0,-92.3702292289796,199,50,501,19,144,427,0,0,0,0,0,0,0,0,0,0,0,0,0,0,0,65568,0,0,0,0,false,false,false,false,false,false,false,false,false,false,0,0.07,-0.11,,-0.0012510988,-5.6762306E-4,,0.0014169471,0.0,0.0,0.0014169464,0.0,0.0014169454,8.8559194E-5,0.0,0.79159325,8.855915E-5,0.0,8.8559085E-5,,1000000.0,684,936,1002,777,23,25,24,24,58.958332,59.375,59.479168,59.583332,59.479168,59.479168,59.479168,59.479168,9.6,9.6,9.6,9.6,16.4,16.2,16.0,16.2,0.01,0.01,0.01,0.0,0,0,0,0,0.0,0.0,0.3,0.0,0.0,180.0,0.0,0.0,0.0,0,,ASST_TAKEOFF,AUTO_FLY,APP_AUTO_TAKEOFF,ALREADY,False,Connected,,P,True,False,False,300,5,0.1,0.0,0.07,2.8,2.8,2.8,2.8,0.90094614,-0.019110315,-0.05429339,-0.4300968,4.653954593602222,4.68407435498287,50.84762213364518,-76.844826,0.07784488,0.014117336,0,0,41372,16711,0,1105.8279,12680.0,16736,-1108,5121,97,22,1,4190,0,5280,0.0,0.0,
971872552,.451,26.725463334119592,58.38936271627578,-76.84463,-85.243744,8.3983616196289,,16,0.6586869645118306,-6.485441718522462,-75.05518274382247,-0.110929824,-0.01448826,-0.9949076,1.0011775,0.26675037,-1.0119069,0.27266815,1.0814154,0.008682061,-0.016947659,0.0022622505,0.019176003,0.019042093764279275,199,259,1526,1560.0,65.05,-75.05518274382247,6.518240339337771,-69.28025231730996,5.774930426512519,284.94481725617754,-84.07925496434517,-9.024072220522697,-0.004066492580729011,0.005454085377995632,0.001048635160558753,-0.001048635160558753,-0.0020372588732089215,0.001258428347072301,0.001856089499110094,-0.0107193198599662,0.018206087079605755,-4.061610211788503E-4,58.38936268696617,26.725463418153126,false,false,-56.474688911982255,-4.4340004424513975,-63.8293078826399,,0.002433378642023196,,,0.7915791,-0.029904919,-0.048355263,-0.6084159,0.029331677,0.024359575,0.008691827,0.0019178106,-0.0015521918,-7.773865E-4,-2200,2855,0,0,18880,26.7254631,58.3893628,20240319,84959,2024-03-19T08:49:59Z,40.691,0.68,1.26,9.99,9,7,16,-0.02,-0.02,0.01,20240319,84959,10548,0,0,0,0,ASST_TAKEOFF,2,1,5,5,0,100,5000,-2.2191515,0.10711118,5,2,13,5,0,0,0,0,0,0,0,0.0,0.0,0.0,Hover,,,100.0,0,0,0,0,1,1,1,0,0,1,0,199,259,1526,1560.0,-84.07925496434517,158,335,1505,1549.0,-92.42001403799746,192,43,498,19,142,428,0,0,0,0,0,0,0,0,0,0,0,0,0,0,0,65568,0,0,0,0,false,false,false,false,false,false,false,false,false,false,0,0.07,-0.11,,-0.0012510988,-5.6762306E-4,,0.0014169471,0.0,0.0,0.0014169464,0.0,0.0014169454,8.8559194E-5,0.0,0.79159325,8.855915E-5,0.0,8.8559085E-5,,1000000.0,907,1086,1109,972,23,25,24,24,59.0625,59.53125,59.53125,59.739582,59.583332,59.583332,59.583332,59.583332,9.6,9.6,9.6,9.6,16.3,16.5,16.0,16.0,0.0,0.0,0.01,0.0,0,0,0,0,0.0,0.0,0.3,0.0,0.0,180.0,0.0,0.0,0.0,0,,ASST_TAKEOFF,AUTO_FLY,APP_AUTO_TAKEOFF,ALREADY,False,Connected,,P,True,False,False,400,5,0.1,0.0,0.07,3.2,3.2,3.2,3.2,0.90148556,-0.019032579,-0.05426359,-0.42897213,4.638593516443015,4.690578627381163,50.70481984905067,-76.85596,0.08806282,0.015377715,0,0,41380,16697,0,1105.8279,12680.0,16736,-1108,5121,97,22,1,4190,0,5280,0.0,0.0,
972097567,.501,26.72546331703652,58.38936272216423,-77.38331,-85.24387,7.859680589355463,,16,0.6595492318159246,-6.491684757634776,-75.04704042785421,-0.11527588,-0.010333278,-0.9945725,1.0012841,0.23308656,1.3504646,-1.7066122,2.188746,0.010129708,-0.017419875,0.0030786314,0.020384822,0.020151004619308393,212,261,1532,1568.0,65.02,-75.04704042785421,6.524536540573654,-69.27017156141756,5.776868866436667,284.9529595721458,-81.33021860041691,-6.2831781725627,-0.0036066628751596636,0.0045570563492320915,0.001178387992278651,-0.001178387992278651,-0.0020372588732089215,0.001258428347072301,0.001856089499110094,-0.012166966738625926,0.01867830301519364,-0.0012225418591110793,58.38936269110151,26.72546340276198,false,false,-56.470300622589036,-4.426071728101865,-63.83975805334068,,0.0036446946742401485,,,0.79161954,-0.02992866,-0.04840509,-0.6083583,0.06724167,0.08507405,0.00554391,0.0019176604,-0.0015525774,-6.631954E-4,-2200,2856,0,0,18900,26.7254631,58.3893628,20240319,84959,2024-03-19T08:49:59Z,40.687,0.68,1.26,9.99,9,7,16,0.0,0.0,0.01,20240319,84959,10551,0,0,0,0,ASST_TAKEOFF,2,1,5,5,0,100,5000,-2.2185385,0.106178425,5,2,13,5,0,0,0,0,0,0,0,0.0,0.0,0.0,Hover,,,100.0,0,0,0,0,1,1,1,0,0,1,0,212,276,1532,1571.0,-81.83080186704017,154,341,1505,1550.0,-93.10799680588136,197,46,500,19,144,428,0,0,0,0,0,0,0,0,0,0,0,0,0,0,0,65568,0,0,0,0,false,false,false,false,false,false,false,false,false,false,0,0.13,-0.13,,-0.0012331441,-5.7880214E-4,,0.0013852495,0.0,0.0,0.0013852479,0.0,0.001385247,8.65781E-5,0.0,0.7915599,8.6577995E-5,0.0,8.657794E-5,,1000000.0,1057,1161,1182,1126,23,25,24,24,59.270832,59.583332,59.635418,59.84375,59.6875,59.6875,59.6875,59.6875,9.6,9.6,9.6,9.6,16.3,16.1,16.2,16.1,0.0,0.0,0.01,0.0,0,0,0,0,0.0,0.0,0.3,0.0,0.0,180.0,0.0,0.0,0.0,0,,ASST_TAKEOFF,AUTO_FLY,APP_AUTO_TAKEOFF,ALREADY,False,Connected,,P,True,False,False,400,5,0.1,0.0,0.07,3.46,3.46,3.46,3.46,0.90175486,-0.018986447,-0.054298975,-0.4284033,4.632594182059553,4.699433737587368,50.6324691150425,-76.879715,0.1217839,0.019909792,0,0,41392,16677,0,1105.8279,12680.0,16736,-1108,5121,97,22,1,4190,0,5280,0.0,0.0,
972322567,.551,26.725463314941088,58.389362722944256,-77.179794,-85.24406,8.063194688476557,,16,0.6594819360470804,-6.4825659673193865,-75.04461851816865,-0.11506934,-0.013194158,-0.9949868,1.0017054,0.0740108,1.3046857,-2.2019699,2.5605378,0.010686274,-0.014964956,0.0041963775,0.018861493,0.018388755983513822,212,261,1541,1577.0,65.02,-75.04461851816865,6.515458616352735,-69.26019548690505,5.784423031263597,284.95538148183135,-81.50385469926184,-6.459236181093189,-0.003084441439336963,0.003756256572597927,0.001364591065462939,-0.001364591065462939,-0.0020372588732089215,0.001258428347072301,0.001856089499110094,-0.012723532559796732,0.016223384205958542,-0.002340287971979269,58.38936269579796,26.725463389021932,false,false,-56.471846943541266,-4.420663443019228,-63.83566519371322,,0.003795068110079407,,,0.79163617,-0.029879699,-0.04834237,-0.60834396,-5.1765493E-4,0.030324135,0.016294725,0.0019176604,-0.0015525774,-7.439086E-4,-2200,2856,0,0,18920,26.7254631,58.3893628,20240319,84959,2024-03-19T08:49:59Z,40.687,0.68,1.26,9.99,9,7,16,0.0,0.0,0.01,20240319,84959,10553,0,0,0,0,ASST_TAKEOFF,2,1,5,5,0,100,5000,-2.2184627,0.10606667,5,2,13,5,0,0,0,0,0,0,0,0.0,0.0,0.0,Hover,,,100.0,0,0,0,0,1,1,1,0,0,1,0,212,261,1541,1577.0,-81.50385469926184,158,335,1502,1546.0,-92.34531662526369,196,46,502,20,141,428,0,0,0,0,0,0,0,0,0,0,0,0,0,0,0,65568,0,0,0,0,false,false,false,false,false,false,false,false,false,false,0,0.13,-0.13,,-0.0012331441,-5.7880214E-4,,0.0013852495,0.0,0.0,0.0013852479,0.0,0.001385247,8.65781E-5,0.0,0.7915599,8.6577995E-5,0.0,8.657794E-5,,1000000.0,1158,1251,1222,1235,23,25,24,24,59.322918,59.791668,59.791668,59.895832,59.791668,59.791668,59.791668,59.791668,9.6,9.6,9.6,9.6,16.5,16.5,16.0,16.2,0.0,0.0,0.01,0.0,0,0,0,0,0.0,0.0,0.3,0.0,0.0,180.0,0.0,0.0,0.0,0,,ASST_TAKEOFF,AUTO_FLY,APP_AUTO_TAKEOFF,ALREADY,False,Connected,,P,True,False,False,500,5,0.1,0.0,0.07,3.86,3.86,3.86,3.86,0.90160924,-0.019034347,-0.05429485,-0.42870817,4.63894097865018,4.695097612802112,50.67116089591887,-76.88836,0.11363875,0.019886903,0,0,41400,16664,0,1105.8279,12680.0,16736,-1108,5121,97,22,1,4190,0,5280,0.0,0.0,
972547578,.601,26.725463313275853,58.38936272343279,-77.53018,-85.244286,7.712807115234369,,16,0.6563261817726032,-6.492511640353609,-75.04351121574382,-0.11368187,-0.011679638,-0.99579453,1.0023307,0.089225695,-0.9290909,-1.0651789,1.4162546,0.01135896,-0.01371944,0.0052290163,0.01856318,0.017811485354957295,209,250,1523,1557.0,65.05,-75.04351121574382,6.525039664514237,-69.29541888402368,5.748092331720142,284.9564887842562,-81.4076311903606,-6.364119974616784,-0.002528946479297481,0.0030451055388285297,0.0016043978252957558,-0.0016043978252957558,-0.0020372588732089215,0.001258428347072301,0.001856089499110094,-0.013396218473538321,0.014977868784925637,-0.003372926801180729,58.38936270079365,26.725463376820063,false,false,-56.47451342781801,-4.4184229698011475,-63.851091174046694,,0.003907223323552559,,,0.7916389,-0.029953843,-0.048394628,-0.6083326,-0.0033438683,-0.0045296554,0.016236147,0.0019176604,-0.0015525774,-7.853389E-4,-2200,2857,0,0,18940,26.7254631,58.3893628,20240319,84959,2024-03-19T08:49:59Z,40.687,0.68,1.26,9.99,9,7,16,0.0,0.0,0.01,20240319,84959,10556,0,0,0,0,ASST_TAKEOFF,2,1,5,5,0,100,5000,-2.21839,0.105946384,5,2,13,5,0,0,0,0,0,0,0,0.0,0.0,0.0,Hover,,,100.0,0,0,0,0,1,1,1,0,0,1,0,215,264,1523,1560.0,-80.53988006375432,151,332,1508,1551.0,-93.79985988359157,196,42,495,18,142,429,0,0,0,0,0,0,0,0,0,0,0,0,0,0,0,65568,0,0,0,0,false,false,false,false,false,false,false,false,false,false,0,0.13,-0.08,,-0.0012262857,-5.7596026E-4,,0.0013954238,0.0,0.0,0.0013954218,0.0,0.0013954208,8.7213986E-5,0.0,0.79157,8.721386E-5,0.0,8.72138E-5,,1000000.0,1226,1317,1306,1293,23,25,24,24,59.583332,60.0,60.0,60.15625,60.052082,60.052082,60.052082,60.052082,9.6,9.6,9.6,9.6,16.3,16.3,16.2,16.2,0.0,0.0,0.0,0.0,0,0,0,0,0.0,0.0,0.3,0.0,0.0,180.0,0.0,0.0,0.0,0,,ASST_TAKEOFF,AUTO_FLY,APP_AUTO_TAKEOFF,ALREADY,False,Connected,,P,True,False,False,500,5,0.1,0.0,0.07,4.13,4.13,4.13,4.13,0.90178335,-0.01903691,-0.054348882,-0.42833462,4.639917666150616,4.70251066802941,50.62352554991179,-76.91737,0.15214957,0.010013096,0,0,41412,16652,0,1105.8279,12680.0,16736,-1108,5121,97,22,1,4190,0,5280,0.0,0.0,
972772591,.651,26.72546330915777,58.389362729410806,-76.60388,-85.24453,8.639107164062494,,17,0.6558292011688811,-6.498085135959071,-75.03730411547747,-0.11650548,-0.012010585,-0.9951717,1.0020403,0.51107764,-0.6252893,-0.107661754,0.8147258,0.011823643,-0.010970581,0.0054090745,0.017012062,0.016129233851527588,215,261,1512,1549.0,64.99,-75.03730411547747,6.5305353643367985,-69.29847136680384,5.73883274867363,284.96269588452253,-80.17976850323079,-5.142464387753321,-0.0019299176998570783,0.0024217646563586825,0.0018763172168396736,-0.0018763172168396736,0.002214578909238482,-0.003749906504448558,0.0030027024321889703,-0.00960906408969531,0.007220674818459843,-0.002406372049387711,58.38936270618085,26.72546336612484,false,false,-56.47308256332843,-4.413218333749574,-63.860894497027964,,0.004647782879138974,,,0.7916697,-0.02998424,-0.04843212,-0.60828805,0.010628884,0.053745143,0.00123512,0.0019147336,-0.0015463089,-8.5686526E-4,-2200,2857,0,0,18960,26.7254632,58.3893628,20240319,84959,2024-03-19T08:49:59Z,40.689,0.64,1.21,9.99,9,8,17,0.01,0.01,0.01,20240319,84959,10558,0,0,0,0,ASST_TAKEOFF,2,1,5,5,0,100,5000,-2.2183473,0.105853744,5,2,13,5,0,0,0,0,0,0,0,0.0,0.0,0.0,Hover,,,100.0,0,0,0,0,1,1,1,0,0,1,0,215,261,1512,1549.0,-80.17976850323079,151,335,1502,1546.0,-93.66838863200381,198,46,493,20,143,427,0,0,0,0,0,0,0,0,0,0,0,0,0,0,0,65568,0,0,0,0,false,false,false,false,false,false,false,false,false,false,0,0.13,-0.08,,-0.0012262857,-5.7596026E-4,,0.0013954238,0.0,0.0,0.0013954218,0.0,0.0013954208,8.7213986E-5,0.0,0.79157,8.721386E-5,0.0,8.72138E-5,,1000000.0,1240,1352,1314,1292,23,25,24,24,59.635418,60.104168,60.104168,60.260418,60.15625,60.15625,60.15625,60.15625,9.6,9.6,9.6,9.6,16.4,16.5,16.2,16.1,0.0,0.0,0.01,0.0,0,0,0,0,0.0,0.0,0.3,0.0,0.0,180.0,0.0,0.0,0.0,0,,ASST_TAKEOFF,AUTO_FLY,APP_AUTO_TAKEOFF,ALREADY,False,Connected,,P,True,False,False,600,5,0.1,0.0,0.07,4.53,4.53,4.53,4.53,0.90177995,-0.019078776,-0.05439081,-0.4283347,4.646315657342517,4.704823902794547,50.62334035245507,-76.932205,0.15158063,0.0062441714,0,0,41420,16650,0,1105.8279,12680.0,16736,-1108,5121,97,22,1,4190,0,5280,0.0,0.0,
972997604,.701,26.72546332142582,58.389362730208745,-77.0366,-85.244606,8.206390794433588,,17,0.663288498873102,-6.498800335718946,-75.03354832817786,-0.11405411,-0.01142155,-0.99663615,1.003206,0.31715846,-0.64837873,0.58627146,0.92989177,0.010660554,-0.0087687215,0.00461283,0.014553903,0.013803546231194317,212,253,1553,1587.0,65.05,-75.03354832817786,6.531987284296435,-69.23052013922948,5.803028188948373,284.96645167182214,-81.63741269222652,-6.603864364048661,-0.0013465540497632628,0.00195952759925877,0.0021259630108820815,-0.0021259630108820815,0.002214578909238482,-0.003749906504448558,0.0030027024321889703,-0.008445975373128748,0.005018814979199265,-0.0016101275696718867,58.38936271142716,26.725463358193817,false,false,-56.475122264439534,-4.404082358283977,-63.858341342191345,,0.005368308423243591,,,0.7916867,-0.029934894,-0.048477605,-0.6082646,-0.024371065,-0.01211589,-0.015099157,0.0019147336,-0.0015463089,-8.987049E-4,-2200,2858,0,0,18980,26.7254632,58.3893628,20240319,84959,2024-03-19T08:49:59Z,40.689,0.64,1.21,9.99,9,8,17,0.01,0.01,0.01,20240319,84959,10561,0,0,0,0,ASST_TAKEOFF,2,1,5,5,0,100,5000,-2.2176435,0.10625226,5,2,13,5,0,0,0,0,0,0,0,0.0,0.0,0.0,Hover,,,100.0,0,0,0,0,1,1,1,0,0,1,0,209,253,1529,1563.0,-81.71021616872957,158,335,1499,1544.0,-92.36233648196617,196,41,507,19,142,427,0,0,0,0,0,0,0,0,0,0,0,0,0,0,0,65568,0,0,0,0,false,false,false,false,false,false,false,false,false,false,0,0.04,-0.11,,-0.0012361637,-5.8585545E-4,,0.0014179475,0.0,0.0,0.0014179465,0.0,0.0014179455,8.862172E-5,0.0,0.7916403,8.862166E-5,0.0,8.862159E-5,,1000000.0,1277,1350,1322,1326,23,25,24,24,59.791668,60.260418,60.15625,60.364582,60.260418,60.260418,60.260418,60.260418,9.6,9.6,9.6,9.6,16.5,16.3,16.2,16.0,0.0,0.0,0.01,0.0,0,0,0,0,0.0,0.0,0.3,0.0,0.0,180.0,0.0,0.0,0.0,0,,ASST_TAKEOFF,AUTO_FLY,APP_AUTO_TAKEOFF,ALREADY,False,Connected,,P,True,False,False,600,5,0.1,0.0,0.07,11.24,11.24,11.24,11.24,0.90167475,-0.019017344,-0.054343205,-0.42856485,4.63881028024802,4.701692993485045,50.65281935058292,-76.94449,0.1318177,4.65665E-4,0,0,41432,16654,0,1105.8279,12680.0,16736,-1108,5121,97,22,1,4190,0,5280,0.0,0.0,
973223411,.751,26.72546333399739,58.38936273081615,-77.29308,-85.24458,7.949905809082026,,17,0.6643739574549273,-6.5193426207328855,-75.02898247108732,-0.112391554,-0.009415318,-0.9952393,1.0016096,0.45791814,0.68120605,0.6505967,1.0473809,0.007490586,-0.00929143,0.0035576092,0.01245376,0.011934803937049173,212,244,1553,1586.0,65.05,-75.02898247108732,6.552530007574369,-69.2348691805322,5.794113290555124,284.9710175289127,-81.4449776486974,-6.415995177610085,-8.869515720553306E-4,0.0015257017061474087,0.0023226385845438458,-0.0023226385845438458,0.002214578909238482,-0.003749906504448558,0.0030027024321889703,-0.005276007114539242,0.005541523499492501,-5.549067291730817E-4,58.38936271556047,26.72546335075027,false,false,-56.47590404408757,-4.400733360230225,-63.8751357323843,,0.006104145424872364,,,0.791702,-0.030034488,-0.04862648,-0.6082281,-0.024872316,-0.056318883,0.01687021,0.0019147336,-0.0015463089,-8.1468304E-4,-2200,2858,0,0,19000,26.7254632,58.3893628,20240319,84959,2024-03-19T08:49:59Z,40.689,0.64,1.21,9.99,9,8,17,0.01,0.01,0.01,20240319,84959,10563,0,0,0,0,ASST_TAKEOFF,2,1,5,5,0,100,5000,-2.2175777,0.10691336,5,2,13,5,0,0,0,0,0,0,0,0.0,0.0,0.0,Hover,,,100.0,0,0,0,0,1,1,1,0,0,1,0,212,244,1553,1586.0,-81.4449776486974,154,326,1499,1541.0,-93.26565254317916,196,39,504,19,141,427,0,0,0,0,0,0,0,0,0,0,0,0,0,0,0,65568,0,0,0,0,false,false,false,false,false,false,false,false,false,false,0,0.04,-0.11,,-0.0012361637,-5.8585545E-4,,0.0014179475,0.0,0.0,0.0014179465,0.0,0.0014179455,8.862172E-5,0.0,0.7916403,8.862166E-5,0.0,8.862159E-5,,1000000.0,1304,1379,1323,1300,23,25,24,24,62.5,63.489582,63.489582,63.125,63.489582,63.489582,63.489582,63.489582,9.7,11.9,11.9,11.1,16.4,16.3,16.2,16.1,0.0,0.01,0.03,0.01,0,0,0,0,0.0,0.0,0.3,0.0,0.0,180.0,0.0,0.0,0.0,0,,ASST_TAKEOFF,AUTO_FLY,APP_AUTO_TAKEOFF,ALREADY,False,Connected,,P,True,False,False,700,5,0.1,0.0,0.07,14.99,14.99,14.99,14.99,0.9017837,-0.018999495,-0.05436572,-0.42833358,4.636861344667626,4.706093648508369,50.62337309329047,-76.9534,0.12442768,0.01101207,0,0,41440,16659,0,1105.8279,12680.0,16736,-1108,5121,97,22,1,4190,0,5280,0.0,0.0,
973449399,.801,26.725463346061126,58.38936273133237,-77.57896,-85.24456,7.664032395996088,,17,0.6673951360376569,-6.548773632951905,-75.02784729561662,-0.11618727,-0.011088186,-0.9947094,1.0015334,-1.0068349,-4.58754,-2.9607198,5.552036,0.006283727,-0.009921165,0.004145835,0.012454024,0.01174371080156803,215,253,1544,1579.0,65.03,-75.02784729561662,6.582107807155826,-69.2337687559368,5.794078539679844,284.97215270438335,-81.00919905870636,-5.981351763089734,-5.453784224860453E-4,0.0010576596820159878,0.0025177197321282208,-0.0025177197321282208,0.002214578909238482,-0.003749906504448558,0.0030027024321889703,-0.004069148099610901,0.006171258678737973,-0.0011431326284372981,58.38936271863231,26.72546334271965,false,false,-56.47868713556241,-4.395834642362621,-63.90112182976696,,0.006809638862083315,,,0.7916945,-0.030169329,-0.048846133,-0.6082136,-0.023788812,-0.01240214,0.029815435,0.0019147336,-0.0015463089,-7.939028E-4,-2200,2859,0,0,19020,26.7254632,58.3893628,20240319,84959,2024-03-19T08:49:59Z,40.689,0.64,1.21,9.99,9,8,17,0.01,0.01,0.01,20240319,84959,10566,0,0,0,0,ASST_TAKEOFF,2,1,5,5,0,100,5000,-2.2175071,0.10776598,5,2,13,5,0,0,0,0,0,0,0,0.0,0.0,0.0,Hover,,,100.0,0,0,0,0,1,1,1,0,0,1,0,206,261,1503,1539.0,-82.30322820932089,161,332,1508,1552.0,-92.2704542248908,197,43,497,20,142,429,0,0,0,0,0,0,0,0,0,0,0,0,0,0,0,65568,0,0,0,0,false,false,false,false,false,false,false,false,false,false,0,0.08,-0.14,,-0.0012222384,-6.074125E-4,,0.0013993152,0.0,0.0,0.0013993136,0.0,0.0013993119,8.74572E-5,0.0,0.7916691,8.74571E-5,0.0,8.7456996E-5,,1000000.0,1423,1513,1555,1383,22,20,23,19,64.583336,65.052086,65.520836,65.260414,65.572914,65.572914,65.572914,65.572914,14.7,15.6,16.9,16.2,16.1,16.1,15.8,16.0,0.07,0.1,0.12,0.1,0,0,0,0,0.0,0.0,0.3,0.0,0.0,180.0,0.0,0.0,0.0,0,,ASST_TAKEOFF,AUTO_FLY,APP_AUTO_TAKEOFF,ALREADY,False,Connected,,P,True,False,False,700,5,0.1,0.0,0.07,17.49,17.49,17.49,17.49,0.9020828,-0.019155469,-0.05467382,-0.42765716,4.66461152539757,4.734005447100458,50.536226133237584,-76.98053,0.15407962,0.018592432,0,0,41452,16664,0,1105.8279,12680.0,16736,-1108,5121,97,22,1,4190,0,5280,0.0,0.0,
973674414,.851,26.725463358604863,58.3893627313112,-77.71272,-85.24446,7.530266221679682,,17,0.6695382856692357,-6.568848335164209,-75.01617903800322,-0.116201155,-0.010047945,-0.99668455,1.0034858,0.26771322,0.113584444,-4.647593,4.6566825,0.006799683,-0.010002751,0.0034342385,0.012573174,0.012095069631093148,209,259,1541,1576.0,65.04,-75.01617903800322,6.602290804144101,-69.22141718844206,5.794761849561163,284.9838209619968,-82.66765317965222,-7.651474141649004,-2.2180572536624477E-4,5.62297560937175E-4,0.002712088314724248,-0.002712088314724248,0.002214578909238482,-0.003749906504448558,0.0030027024321889703,-0.004585104065576887,0.006252844398919438,-4.3153605752827484E-4,58.38936272154227,26.72546333422027,false,false,-56.47340257793954,-4.3908641806375,-63.91722165260722,,0.007553212456284678,,,0.79174703,-0.030256081,-0.048999272,-0.6081285,0.028964726,0.01365621,0.027928775,0.0019147336,-0.0015463089,-7.634683E-4,-2200,2859,0,0,19040,26.7254632,58.3893628,20240319,84959,2024-03-19T08:49:59Z,40.689,0.64,1.21,9.99,9,8,17,0.01,0.01,0.01,20240319,84959,10568,0,0,0,0,ASST_TAKEOFF,2,1,5,5,0,100,5000,-2.2174716,0.10833739,5,2,13,5,0,0,0,0,0,0,0,0.0,0.0,0.0,Hover,,,100.0,0,0,0,0,1,1,1,0,0,1,0,209,259,1541,1576.0,-82.6676531796522,161,338,1502,1547.0,-92.20212298515804,195,44,500,19,144,431,0,0,0,0,0,0,0,0,0,0,0,0,0,0,0,65568,0,0,0,0,false,false,false,false,false,false,false,false,false,false,0,0.08,-0.14,,-0.0012222384,-6.074125E-4,,0.0013993152,0.0,0.0,0.0013993136,0.0,0.0013993119,8.74572E-5,0.0,0.7916691,8.74571E-5,0.0,8.7456996E-5,,1000000.0,1591,1700,1712,1608,22,24,24,23,65.625,66.5625,66.5625,66.302086,66.614586,66.614586,66.614586,66.614586,17.1,19.4,19.3,18.7,16.2,16.4,15.7,15.6,0.12,0.19,0.22,0.18,0,0,0,0,0.0,0.0,0.3,0.0,0.0,180.0,0.0,0.0,0.0,0,,ASST_TAKEOFF,AUTO_FLY,APP_AUTO_TAKEOFF,ALREADY,False,Connected,,P,True,False,False,800,5,0.1,0.0,0.07,21.24,21.24,21.24,21.24,0.9019564,-0.01908302,-0.0545283,-0.42794535,4.6514725792405605,4.720919032371283,50.57341607379513,-76.99373,0.15355113,-0.0017586164,0,0,41460,16662,0,1105.8279,12680.0,16736,-1108,5121,97,22,1,4190,0,5280,0.0,0.0,
973899465,.901,26.725463358253705,58.38936273628772,-77.60467,-85.24432,7.638321336425776,,17,0.670404332708287,-6.577341971936956,-75.01852858696756,-0.11352943,-0.01149888,-0.9942907,1.0008173,-0.09567563,-2.9492512,-2.488323,3.8599205,0.006019145,-0.0100697195,0.0038598103,0.012350202,0.011731553657951997,209,250,1512,1546.0,65.03,-75.01852858696756,6.610826192844689,-69.2238289481165,5.794699638851053,284.9814714130324,-81.64627000037807,-6.627741413410504,1.033154661742447E-4,3.616258618155399E-5,0.002894876248302758,-0.002894876248302758,0.002214578909238482,-0.003749906504448558,0.0030027024321889703,-0.0038045658754206654,0.006319813011292313,-8.571078661197599E-4,58.38936272446615,26.725463325192894,false,false,-56.47946197673323,-4.385003060330298,-63.93165213974128,,0.008520522631120868,,,0.79173064,-0.030296175,-0.049061928,-0.6081428,0.005938852,-0.01713397,0.032846052,0.0019153167,-0.0015489211,-7.17055E-4,-2200,2860,0,0,19060,26.7254632,58.3893628,20240319,84959,2024-03-19T08:49:59Z,40.695,0.64,1.21,9.99,9,8,17,0.0,-0.01,-0.01,20240319,84959,10571,-447,-654,0,0,ASST_TAKEOFF,2,1,5,5,0,100,5000,-2.2169666,0.10851509,5,2,13,5,0,0,0,0,0,0,0,0.0,0.0,0.0,Hover,,,100.0,0,0,0,0,1,1,1,0,0,1,0,215,250,1523,1558.0,-80.50959302363735,161,329,1502,1546.0,-92.3049841583701,196,40,491,20,140,428,0,0,0,0,0,0,0,0,0,0,0,0,0,0,0,65568,0,0,0,0,false,false,false,false,false,false,false,false,false,false,0,0.0,-0.06,,-0.0012320764,-6.019507E-4,,0.0014436485,0.0,0.0,0.001443648,0.0,0.0014436459,9.022803E-5,0.0,0.7917869,9.0228E-5,0.0,9.022787E-5,,1000000.0,1762,1917,1917,1823,23,24,24,24,66.614586,67.083336,67.708336,67.34375,67.65625,67.65625,67.65625,67.65625,19.6,20.6,21.9,21.2,16.0,16.1,16.0,15.8,0.19,0.3,0.33,0.3,0,0,0,0,0.0,0.0,0.3,0.0,0.0,180.0,0.0,0.0,0.0,0,,ASST_TAKEOFF,AUTO_FLY,APP_AUTO_TAKEOFF,ALREADY,False,Connected,,P,True,False,False,800,5,0.1,0.0,0.07,23.74,23.74,23.74,23.74,0.90223074,-0.019194188,-0.054834887,-0.4273225,4.6747637388455034,4.750603983066593,50.493145831547274,-77.03058,0.20723286,0.028251093,0,0,41472,16648,0,1105.8279,12680.0,16736,-1108,5121,97,22,1,4190,0,5280,0.0,0.0,
974124481,.951,26.72546336346113,58.38936273763119,-77.983925,-85.24423,7.259064134277338,,17,0.6697312679050694,-6.603002486844624,-75.02318892780995,-0.11383587,-0.011878124,-0.99587655,1.002432,0.70867884,2.1566694,-2.9834466,3.74892,0.0036589366,-0.009200473,0.0038257516,0.010614749,0.009901339777014868,215,256,1517,1553.0,65.02,-75.02318892780995,6.636285881359148,-69.25681083220996,5.766378095599986,284.97681107219006,-80.74965587846366,-5.726466950653702,3.388463384004087E-4,-4.469311501251738E-4,0.0030886831715219998,-0.0030886831715219998,0.004861202951389754,0.009144644625586515,-1.7801739484258177E-4,0.001202266359570825,0.018345117941600327,-0.004003768993766981,58.38936272658434,26.725463316904015,false,false,-56.48916794693304,-4.3800574370023995,-63.964939464297395,,0.008858820624595427,,,0.7916951,-0.030439012,-0.049234413,-0.60816795,-0.043493435,-0.06413268,0.015631279,0.0019153167,-0.0015489211,-7.9623016E-4,-2200,2860,0,0,19080,26.7254632,58.3893628,20240319,84959,2024-03-19T08:49:59Z,40.695,0.64,1.21,9.99,9,8,17,0.0,-0.01,-0.01,20240319,84959,10573,-492,-1059,0,0,ASST_TAKEOFF,2,1,5,5,0,100,5000,-2.2168472,0.10875919,5,2,13,5,0,0,0,0,0,0,0,0.0,0.0,0.0,Hover,,,100.0,0,0,0,0,1,1,1,0,0,1,0,215,256,1517,1553.0,-80.74965587846366,161,338,1508,1553.0,-92.48702831334184,198,43,496,20,142,429,0,0,0,0,0,0,0,0,0,0,0,0,0,0,0,65568,0,0,0,0,false,false,false,false,false,false,false,false,false,false,0,0.0,-0.06,,-0.0012320764,-6.019507E-4,,0.0014436485,0.0,0.0,0.001443648,0.0,0.0014436459,9.022803E-5,0.0,0.7917869,9.0228E-5,0.0,9.022787E-5,,1000000.0,1971,2115,2105,2046,23,24,24,24,67.760414,68.645836,68.645836,68.385414,68.697914,68.697914,68.697914,68.697914,22.1,24.3,24.3,23.7,15.9,15.9,15.6,15.6,0.33,0.52,0.45,0.43,0,0,0,0,0.0,0.0,0.3,0.0,0.0,180.0,0.0,0.0,0.0,0,,ASST_TAKEOFF,AUTO_FLY,APP_AUTO_TAKEOFF,ALREADY,False,Connected,,P,True,False,False,900,5,0.1,0.0,0.07,27.49,27.49,27.49,27.49,0.9024198,-0.019155726,-0.054915167,-0.42691442,4.672558368198161,4.762941988036009,50.44111272768858,-77.05577,0.2287446,0.0074256845,0,0,41480,16630,0,1105.8279,12680.0,16736,-1108,5121,97,22,1,4190,0,5280,0.0,0.0,
974353790,1.002,26.725463368708525,58.389362739103305,-78.55363,-85.24407,6.689361985839838,,17,0.6672552875519506,-6.636243766837855,-75.00556506028651,-0.117135406,-0.0116132805,-0.9952101,1.0021471,-1.9701506,-5.344514,3.0327394,6.4531255,0.0024287875,-0.00720056,0.004315442,0.008738999,0.007599149597592849,219,250,1535,1570.0,65.02,-75.00556506028651,6.669111569094896,-69.28920643867833,5.716358621608187,284.99443493971347,-80.26633258913172,-5.260767528845207,4.942629634738654E-4,-9.189703962411144E-4,0.003309858176913316,-0.003309858176913316,0.004861202951389754,0.009144644625586515,-1.7801739484258177E-4,0.0024324154237838624,0.016345204692435507,-0.004493459334822374,58.389362727982025,26.725463308804805,false,false,-56.477480704426796,-4.373663023849424,-64.00658751160807,,0.009205761122576681,,,0.7917753,-0.030624934,-0.04945565,-0.6080364,0.021106958,0.04366834,-0.00986152,0.0019153167,-0.0015489211,-8.5551606E-4,-2200,2860,0,0,19102,26.7254632,58.3893628,20240319,84959,2024-03-19T08:49:59Z,40.695,0.64,1.21,9.99,9,8,17,0.0,-0.01,-0.01,20240319,84959,10576,0,-697,0,0,ASST_TAKEOFF,2,1,5,5,0,100,5000,-2.2166817,0.10907449,5,2,13,5,0,0,0,0,0,0,0,0.0,0.0,0.0,Hover,,,100.0,0,0,0,0,1,1,1,0,0,1,0,219,250,1535,1570.0,-80.26633258913172,154,343,1499,1545.0,-93.64109309805234,199,42,507,19,145,426,0,0,0,0,0,0,0,0,0,0,0,0,0,0,0,65568,0,0,0,0,false,false,false,false,false,false,false,false,false,false,0,0.01,-0.04,,-0.001228719,-6.0414476E-4,,0.0013867612,0.0,0.0,0.0013867593,0.0,0.0013867596,8.6672575E-5,0.0,0.7917775,8.667246E-5,0.0,8.667247E-5,,1000000.0,2462,2600,2575,2504,23,24,24,24,69.791664,70.208336,70.729164,70.46875,70.78125,70.78125,70.78125,70.78125,27.0,28.0,29.3,28.7,15.7,15.7,15.4,15.2,0.79,1.0,1.08,0.97,0,0,0,0,0.0,0.0,0.3,0.0,0.0,180.0,0.0,0.0,0.0,0,,ASST_TAKEOFF,AUTO_FLY,APP_AUTO_TAKEOFF,ALREADY,False,Connected,,P,True,False,False,900,5,0.1,0.0,0.07,31.24,31.24,31.24,31.24,0.9026871,-0.019260127,-0.055221055,-0.42630488,4.695126503583996,4.7928592034812665,50.36257318549515,-77.10262,0.30229756,0.013518646,0,0,41492,16588,0,1105.8279,12680.0,16736,-1108,5121,97,22,1,4190,0,5280,0.0,0.0,
974578831,1.052,26.725463373903946,58.389362740223675,-78.392044,-85.24377,6.850944932617182,,17,0.6683862099566352,-6.659097559457164,-75.02328046779262,-0.11768367,-0.011111764,-0.9955583,1.0025514,-0.014512871,-0.55772364,12.456738,12.469226,1.8104327E-4,-0.0054546674,0.0038333375,0.0066693816,0.005457671060055803,215,261,1538,1574.0,65.01,-75.02328046779262,6.69195990324484,-69.31699417793178,5.706286289860845,284.97671953220737,-81.83770124001364,-6.814420772221027,5.554214195398893E-4,-0.0012330732494794105,0.00351828471964577,-0.00351828471964577,0.004861202951389754,0.009144644625586515,-1.7801739484258177E-4,0.004680159678202511,0.014599312003803497,-0.004011354848967867,58.389362728532035,26.725463303415456,false,false,-56.498204379298784,-4.368222391229125,-64.03666319139683,,0.009533688550949765,,,0.7916709,-0.030746056,-0.049614802,-0.6081531,-0.009468608,0.025192237,-0.03785828,0.0019153167,-0.0015489211,-8.642108E-4,-2200,2861,0,0,19122,26.7254632,58.3893628,20240319,84959,2024-03-19T08:49:59Z,40.695,0.64,1.21,9.99,9,8,17,0.0,-0.01,-0.01,20240319,84959,10578,0,-394,0,0,ASST_TAKEOFF,2,1,5,5,0,100,5000,-2.2165565,0.10933627,5,2,13,5,0,0,0,0,0,0,0,0.0,0.0,0.0,Hover,,,100.0,0,0,0,0,1,1,1,0,0,1,0,215,261,1538,1574.0,-81.83770124001364,158,341,1505,1551.0,-93.19217022229327,197,44,500,18,144,429,0,0,0,0,0,0,0,0,0,0,0,0,0,0,0,65568,0,0,0,0,false,false,false,false,false,false,false,false,false,false,0,0.01,-0.04,,-0.001228719,-6.0414476E-4,,0.0013867612,0.0,0.0,0.0013867593,0.0,0.0013867596,8.6672575E-5,0.0,0.7917775,8.667246E-5,0.0,8.667247E-5,,1000000.0,2677,2808,2841,2716,23,24,24,24,70.833336,71.770836,71.770836,71.510414,71.822914,71.822914,71.822914,71.822914,29.4,31.9,31.7,31.2,15.6,15.7,15.3,15.4,1.12,1.32,1.39,1.35,0,0,0,0,0.0,0.0,0.3,0.0,0.0,180.0,0.0,0.0,0.0,0,,ASST_TAKEOFF,AUTO_FLY,APP_AUTO_TAKEOFF,ALREADY,False,Connected,,P,True,False,False,1000,5,0.1,0.0,0.07,33.74,33.74,33.74,33.74,0.90253836,-0.019354282,-0.055317372,-0.4266026,4.711183762126953,4.7967589042537995,50.39994283882431,-77.136765,0.33884344,0.011150636,0,0,41500,16551,0,1105.8279,12680.0,16736,-1108,5121,97,22,1,4190,0,5280,0.0,0.0,
974804184,1.102,26.72546336726777,58.38936272012867,-79.28128,-85.24406,5.961708482421869,,16,0.6738556400331427,-6.696753204943569,-75.02969052920031,-0.11851013,-0.010086703,-0.99233574,0.99943817,0.123587325,0.48528066,2.6152442,2.6627567,-0.004192288,0.0013328112,0.00535271,0.006928432,0.004399052668201333,222,267,1559,1597.0,64.99,-75.02969052920031,6.729960545918577,-69.30944114800997,5.72024938119035,284.9703094707997,-81.23662097087195,-6.206930441671645,5.125813430098963E-4,-0.0013617479047880465,0.0037294269497385457,-0.0037294269497385457,0.004861202951389754,0.009144644625586515,-1.7801739484258177E-4,0.00905349098505398,0.007811833429251855,-0.00553072730288096,58.38936272814678,26.725463301207668,false,false,-56.516839565548196,-4.3580967034430955,-64.0832615492763,,0.011980522801723296,,,0.7916187,-0.03091088,-0.04990222,-0.6081893,-0.1899731,-0.1887186,0.07207512,0.0019157762,-0.0015495878,-8.1614475E-4,-2200,2861,0,0,19142,26.7254632,58.3893627,20240319,84959,2024-03-19T08:49:59Z,40.688,0.68,1.26,9.99,9,7,16,0.01,0.0,0.0,20240319,84959,10581,0,0,0,0,ASST_TAKEOFF,2,1,5,5,0,100,5000,-2.218292,0.10906638,5,2,13,5,0,0,0,0,0,0,0,0.0,0.0,0.0,Hover,,,100.0,0,0,0,0,1,1,1,0,0,1,0,222,267,1559,1597.0,-81.23662097087195,161,332,1508,1552.0,-92.98681894691315,199,42,507,20,142,429,0,0,0,0,0,0,0,0,0,0,0,0,0,0,0,65568,0,0,0,0,false,false,false,false,false,false,false,false,false,false,0,-0.22,0.25,,-0.0012724954,-5.461238E-4,,0.0013898788,0.0,0.0,0.001389877,0.0,0.0013898772,8.6867425E-5,0.0,0.79173005,8.6867316E-5,0.0,8.686732E-5,,1000000.0,2901,2991,3066,2957,23,24,24,24,71.927086,72.34375,72.8125,72.604164,72.864586,72.864586,72.864586,72.864586,32.0,33.0,34.3,33.6,15.4,15.6,15.4,15.4,1.5,1.53,1.41,1.47,0,0,0,0,0.0,0.0,0.3,0.0,0.0,180.0,0.0,0.0,0.0,0,,ASST_TAKEOFF,AUTO_FLY,APP_AUTO_TAKEOFF,ALREADY,False,Connected,,P,True,False,False,1000,5,0.1,0.0,0.07,12.49,12.49,12.49,12.49,0.9024683,-0.019559382,-0.05585781,-0.42667118,4.7592605161287675,4.84267501725767,50.40655955735292,-77.19602,0.42479718,0.017420072,0,0,41512,16481,0,1105.8279,12680.0,16736,-1108,5121,97,22,1,4190,0,5280,0.0,0.0,
975030150,1.152,26.725463368759215,58.389362705982386,-78.91246,-85.2446,6.330528672851557,,16,0.6604012439480134,-6.6286387770139035,-75.00614536302173,-0.14321522,-0.013324324,-0.9972014,1.007521,0.1011186,5.0617666,-10.849667,11.972759,-0.015069484,0.017101862,0.008831085,0.02444486,0.022793925429928318,219,267,1529,1567.0,65.02,-75.00614536302173,6.660874517804321,-69.3416201763783,5.66452518664343,284.99385463697826,-80.73126005315153,-5.7251146901298,8.632055362421676E-5,-9.470479629882789E-4,0.0041177419529239145,-0.0041177419529239145,0.004861202951389754,0.009144644625586515,-1.7801739484258177E-4,0.01993068673076054,-0.007957216910916323,-0.009009102100731806,58.389362724313315,26.725463308323054,false,false,-56.50347195359694,-4.363474875661552,-64.02142496604796,,0.01355795424852245,,,0.7917778,-0.030632218,-0.049366612,-0.6080399,-0.23594342,0.07326525,0.023306444,0.0019157762,-0.0015495878,-8.386261E-4,-2200,2862,0,0,19162,26.7254632,58.3893627,20240319,84959,2024-03-19T08:49:59Z,40.688,0.68,1.26,9.99,9,7,16,0.01,0.0,0.0,20240319,84959,10583,0,0,0,0,ASST_TAKEOFF,2,1,5,5,0,100,5000,-2.2195127,0.10908349,5,2,13,5,0,0,0,0,0,0,0,0.0,0.0,0.0,Hover,,,100.0,0,0,0,0,1,1,1,0,0,1,0,219,267,1529,1567.0,-80.73126005315153,158,338,1505,1550.0,-93.07456868232748,199,48,499,20,141,426,0,0,0,0,0,0,0,0,0,0,0,0,0,0,0,65568,0,0,0,0,false,false,false,false,false,false,false,false,false,false,0,-0.22,0.25,,-0.0012724954,-5.461238E-4,,0.0013898788,0.0,0.0,0.001389877,0.0,0.0013898772,8.6867425E-5,0.0,0.79173005,8.6867316E-5,0.0,8.686732E-5,,1000000.0,3052,3122,3149,3194,21,24,22,22,62.5,63.489582,63.489582,63.125,63.489582,63.489582,63.489582,63.489582,9.7,11.9,11.9,11.2,16.3,16.2,16.0,16.0,0.12,0.07,0.04,0.22,0,0,0,0,0.0,0.0,0.3,0.0,0.0,180.0,0.0,0.0,0.0,0,,ASST_TAKEOFF,AUTO_FLY,APP_AUTO_TAKEOFF,ALREADY,False,Connected,,P,True,False,False,1100,5,0.1,0.0,0.07,14.99,14.99,14.99,14.99,0.9014194,-0.019748122,-0.055661567,-0.42889953,4.781099737786631,4.801283420077703,50.69008843346774,-77.23757,0.45903736,-0.0367715,0,0,41520,16438,0,1105.8279,12680.0,16736,-1108,5121,97,22,1,4190,0,5280,0.0,0.0,
975255170,1.202,26.725463376227815,58.38936269091764,-78.31755,-85.2451,6.925438340820307,,16,0.6744305399402561,-6.51851190062355,-74.99565341861855,-0.096779004,-0.010547747,-0.9975272,1.0022664,0.07744781,1.1327055,-3.717841,3.8873334,-0.011766199,0.019119313,0.008050637,0.02384962,0.02244975625453884,212,256,1544,1579.0,65.01,-74.99565341861855,6.55271344779933,-69.11368657004883,5.881966848569716,285.00434658138147,-81.62318825997546,-6.627534841356919,-6.770831577432995E-4,1.4991189400603844E-4,0.00454694958826618,-0.00454694958826618,0.004861202951389754,0.009144644625586515,-1.7801739484258177E-4,0.016627401973921263,-0.009974668361145014,-0.00822865471452661,58.38936271744786,26.725463327144592,false,false,-56.50248837991779,-4.342574570449967,-63.915898171893275,,0.015290546604615153,,,0.79187584,-0.0299464,-0.048682783,-0.60800165,-0.004799834,-0.20151426,-0.01907812,0.0019157762,-0.0015495878,-9.45179E-4,-2200,2862,0,0,19182,26.7254632,58.3893627,20240319,84959,2024-03-19T08:49:59Z,40.688,0.68,1.26,9.99,9,7,16,0.01,0.0,0.0,20240319,84959,10586,0,0,0,0,ASST_TAKEOFF,2,1,5,5,0,100,5000,-2.221523,0.10945267,5,2,13,5,0,0,0,0,0,0,0,0.0,0.0,0.0,Hover,,,100.0,0,0,0,0,1,1,1,0,0,1,0,212,256,1544,1579.0,-81.62318825997546,158,338,1499,1544.0,-92.43717627272083,197,43,498,19,142,428,0,0,0,0,0,0,0,0,0,0,0,0,0,0,0,65568,0,0,0,0,false,false,false,false,false,false,false,false,false,false,0,0.0,-0.04,,-0.0012477095,-5.833561E-4,,0.0013414554,0.0,0.0,0.0013414545,0.0,0.0013414538,8.384096E-5,0.0,0.79193974,8.38409E-5,0.0,8.384086E-5,,1000000.0,2692,2699,2713,2803,21,21,21,20,64.583336,65.0,65.520836,65.260414,65.572914,65.572914,65.572914,65.572914,14.7,15.6,16.9,16.2,16.2,16.0,16.0,16.0,0.0,0.03,0.03,0.01,0,0,0,0,0.0,0.0,0.3,0.0,0.0,180.0,0.0,0.0,0.0,0,,ASST_TAKEOFF,AUTO_FLY,APP_AUTO_TAKEOFF,ALREADY,False,Connected,,P,True,False,False,1100,5,0.1,0.0,0.07,18.74,18.74,18.74,18.74,0.90142465,-0.019101635,-0.05451546,-0.4290652,4.658621735215603,4.712899052205385,50.715736966016436,-77.29698,0.4614754,0.024169374,0,0,41532,16406,0,1105.8279,12680.0,16736,-1108,5121,97,22,1,4190,0,5280,0.0,0.0,
