Clock:Tick#,Clock:offsetTime,IMU_ATTI(0):Longitude,IMU_ATTI(0):Latitude,IMU_ATTI(0):press:D,IMU_ATTI(0):alti:D,IMU_ATTI(0):relativeHeight:C,IMU_ATTI(0):absoluteHeight:C,IMU_ATTI(0):numSats,IMU_ATTI(0):roll:C,IMU_ATTI(0):pitch:C,IMU_ATTI(0):yaw:C,IMU_ATTI(0):accelX,IMU_ATTI(0):accelY,IMU_ATTI(0):accelZ,IMU_ATTI(0):accelComposite:C,IMU_ATTI(0):gyroX,IMU_ATTI(0):gyroY,IMU_ATTI(0):gyroZ,IMU_ATTI(0):gyroComposite:C,IMU_ATTI(0):velN,IMU_ATTI(0):velE,IMU_ATTI(0):velD,IMU_ATTI(0):velComposite:C,IMU_ATTI(0):velH:C,IMU_ATTI(0):magX,IMU_ATTI(0):magY,IMU_ATTI(0):magZ,IMU_ATTI(0):magMod:C,IMU_ATTI(0):temperature,IMU_ATTI(0):yawUnWrapped:C,IMU_ATTI(0):tiltInclination:C,IMU_ATTI(0):tiltDirectionEarthFrame:C,IMU_ATTI(0):tiltDirectionBodyFrame:C,IMU_ATTI(0):yaw360:C,IMU_ATTI(0):magYaw:C,IMU_ATTI(0):Yaw-magYaw:C,IMUCalcs(0):PosN:C,IMUCalcs(0):PosE:C,IMUCalcs(0):PosD:C,IMUCalcs(0):height:C,IMUCalcs(0):velN:C,IMUCalcs(0):velE:C,IMUCalcs(0):velD:C,IMUCalcs(0):diffVelN:C,IMUCalcs(0):diffVelE:C,IMUCalcs(0):diffVelD:C,IMUCalcs(0):Lat:C,IMUCalcs(0):Long:C,IMUCalcs(0):VelocityError:C,IMUCalcs(0):PositionError:C,IMUCalcs(0):totalGyroZ:C,IMUCalcs(0):totalGyroX:C,IMUCalcs(0):totalGyroY:C,IMU_ATTI(0):distanceHP:C,IMU_ATTI(0):distanceTravelled:C,IMU_ATTI(0):directionOfTravel[mag]:C,IMU_ATTI(0):directionOfTravel[true]:C,IMU_ATTI(0):quatW:D,IMU_ATTI(0):quatX:D,IMU_ATTI(0):quatY:D,IMU_ATTI(0):quatZ:D,IMU_ATTI(0):agX:D,IMU_ATTI(0):agY:D,IMU_ATTI(0):agZ:D,IMU_ATTI(0):gbX:D,IMU_ATTI(0):gbY:D,IMU_ATTI(0):gbZ:D,IMU_ATTI(0):ty:D,IMU_ATTI(0):tz:D,IMU_ATTI(0):sensor_stat:D,IMU_ATTI(0):filter_stat:D,IMU_ATTI(0):atti_cnt:D,GPS:Long,GPS:Lat,GPS:Date,GPS:Time,GPS:dateTimeStamp,GPS:heightMSL,GPS:hDOP,GPS:pDOP,GPS:sAcc,GPS:numGPS,GPS:numGLNAS,GPS:numSV,GPS:velN,GPS:velE,GPS:velD,GPS:rawDate,GPS:rawTime,Controller:ctrl_tick:D,Controller:ctrl_pitch:D,Controller:ctrl_roll:D,Controller:ctrl_yaw:D,Controller:ctrl_thr:D,Controller:ctrl_mode,Controller:mode_switch:D,Controller:motor_state:D,Controller:sig_level:D,Controller:ctrl_level:D,Controller:sim_model:D,Controller:max_height:D,Controller:max_radius:D,Controller:D2H_x:D,Controller:D2H_y:D,Controller:act_req_id:D,Controller:act_act_id:D,Controller:cmd_mod:D,Controller:mod_req_id:D,Controller:fw_flag:D,Controller:mot_sta:D,Controller:OH_take:D,Controller:OH_take_f:D,Controller:rc_cnt:D,Controller:sup_rc:D,Controller:is_soaring_up:D,Controller:soar_up_timer:D,Controller:vert_vel_err:D,Controller:vert_vel_err_fltr:D,RC_Info:failSafe,RC_Info:dataLost,RC_Info:appLost,RC_Info:sigStrength:C,RC_Info:cur_cmd:D,RC_Info:vedio_lost:D,RC_Info:frame_lost:D,RC_Info:rec_cnt:D,RC_Info:sky_con:D,RC_Info:gnd_con:D,RC_Info:connected:D,RC_Info:m_changed:D,RC_Info:arm_status:D,RC_Info:wifi_en:D,RC_Info:in_wifi:D,MagCali(0):X:D,MagCali(0):Y:D,MagCali(0):Z:D,MagCali(0):Mod:C,MagCali(0):magYaw:C,MagCali(1):X:D,MagCali(1):Y:D,MagCali(1):Z:D,MagCali(1):Mod:C,MagCali(1):magYaw:C,CompassFilter(0):X:D,CompassFilter(0):Y:D,CompassFilter(0):Z:D,CompassFilter(1):X:D,CompassFilter(1):Y:D,CompassFilter(1):Z:D,BatteryStatus:not_ready,BatteryStatus:comm_err,BatteryStatus:first_auth,BatteryStatus:auth_fail,BatteryStatus:need_re,BatteryStatus:volVerylow,BatteryStatus:volNotsafe,BatteryStatus:volLevel1:D,BatteryStatus:vollevel2:D,BatteryStatus:capLevel1:D,BatteryStatus:capLevel2:D,BatteryStatus:smartCap1:D,BatteryStatus:smartCap2:D,BatteryStatus:d_flg:D,BatteryStatus:ccsc:D,BatteryStatus:all:D,SMART_BATT:goHome%,SMART_BATT:land%,SMART_BATT:goHomeTime,SMART_BATT:landTime,OA:avoidObst,OA:emergBrake,OA:radiusLimit,OA:airportLimit,OA:groundForceLanding,OA:horizNearBoundary,OA:vertLowLimit,OA:vertAirportLimit,OA:roofLimit,OA:hitGroundLimit,OA:frontDistance,MVO:velX,MVO:velY,MVO:velZ,MVO:posX,MVO:posY,MVO:posZ,MVO:hoverPointUncertainty1,MVO:hoverPointUncertainty2,MVO:hoverPointUncertainty3,MVO:hoverPointUncertainty4,MVO:hoverPointUncertainty5,MVO:hoverPointUncertainty6,MVO:velocityUncertainty1,MVO:velocityUncertainty2,MVO:velocityUncertainty3,MVO:velocityUncertainty4,MVO:velocityUncertainty5,MVO:velocityUncertainty6,MVO:height,MVO:heightUncertainty,Motor:Speed:RFront,Motor:Speed:LFront,Motor:Speed:LBack,Motor:Speed:RBack,Motor:EscTemp:RFront,Motor:EscTemp:LFront,Motor:EscTemp:LBack,Motor:EscTemp:RBack,Motor:PPMrecv:RFront,Motor:PPMrecv:LFront,Motor:PPMrecv:LBack,Motor:PPMrecv:RBack,Motor:PPMsend:RFront,Motor:PPMsend:LFront,Motor:PPMsend:LBack,Motor:PPMsend:RBack,Motor:V_out:RFront,Motor:V_out:LFront,Motor:V_out:LBack,Motor:V_out:RBack,Motor:Volts:RFront,Motor:Volts:LFront,Motor:Volts:LBack,Motor:Volts:RBack,Motor:Current:RFront,Motor:Current:LFront,Motor:Current:LBack,Motor:Current:RBack,Motor:Status:RFront,Motor:Status:LFront,Motor:Status:LBack,Motor:Status:RBack,AirSpeed:air_vbx:D,AirSpeed:air_vby:D,AirSpeed:comp_alti:D,AirSpeed:windSpeed,AirSpeed:windDirection,AirSpeed:windFromDir,AirSpeed:windN,AirSpeed:windE,AirSpeed:MotorSpd:D,AirSpeed:vel_level:D,osd_data:flyCState,osd_data:flycCommand,osd_data:flightAction,osd_data:nonGPSCause,osd_data:compassError,osd_data:connectedToRC,osd_data:lowVoltage,osd_data:ModeSwitch,osd_data:gpsUsed,osd_data:visionUsed,osd_data:notEnoughForce,osd_data:flightTime,osd_data:navHealth,osd_data:vpsHeight,osd_data:relativeHeight,usonic:usonic_h,MotorCtrl:PWM:RFront,MotorCtrl:PWM:LFront,MotorCtrl:PWM:LBack,MotorCtrl:PWM:RBack,ATTI_MINI0:s_qw0,ATTI_MINI0:s_qx0,ATTI_MINI0:s_qy0,ATTI_MINI0:s_qz0,ATTI_MINI0:roll:C,ATTI_MINI0:pitch:C,ATTI_MINI0:yaw:C,ATTI_MINI0:s_pgz0,ATTI_MINI0:s_vgz0,ATTI_MINI0:s_agz0,ATTI_MINI0:s_rsv00,ATTI_MINI0:s_rsv10,ATTI_MINI0:s_cnt0,BatteryInfo:ad_v:D,BatteryInfo:r_time,BatteryInfo:ave_I:D,BatteryInfo:vol_t:D,BatteryInfo:pack_ve:D,BatteryInfo:I:D,BatteryInfo:r_cap:D,BatteryInfo:cap_per:D,BatteryInfo:temp:D,BatteryInfo:right:D,BatteryInfo:l_cell:D,BatteryInfo:dyna_cnt:D,BatteryInfo:f_cap:D,BatteryInfo:out_ctl:D,BatteryInfo:out_ctl_f:D,Attribute|Value,ConvertDatV3,4.3.0
0,-2.606,,,,,,,,,,,,,,,,,,,,,,,,,,,,,,,,,,,,,,,,,,,,,,,,,,,,,,,,,,,,,,,,,,,,,,,,,,,,,,,,,,,,,,,,,,,,,,,,,,,,,,,,,,,,,,,,,,,,,,,,,,,,,,,,,,,,,,,,,,,,,,,,,,,,,,,,,,,,,,,,,,,,,,,,,,,,,,,,,,,,,,,,,,,,,,,,,,,,,,,,,,,,,,,,,,,,,,,,,,,,,,,,,,,,,,,,,,,,,,,,,,,,,,,,,,,,,,,,,,,,,,,,,,,,,,,,,,,,,,,,,,,,,,,,,
11728853,.000,,,,,,,,,,,,,,,,,,,,,,,,,,,,,,,,,,,,,,,,,,,,,,,,,,,,,,,,,,,,,,,,,,,,,,,,,,,,,,,,,,,,,,,,,,,,,,,,,,,,,,,,,,,,,,,,,,,,,,,,,,,,,,,,,,,,,,,,,,,,,,,,,,,,,,,,,,,,,,,,,,,,,,,,,,,,,,,,,,,,,,,,,,,,,,,,,,,,,,0.0,,,,,,,,,,,,,,,,,,,,,,,,,,,,,,,,,,,,,,,,,,,,,,,,,,,P,,,,,,,,,,,,,,,,,,,,,,,,,,,,,,,,,,,,,,,,,Firmware Date| Nov 16 2017
17134382,1.201,,,,,,,,,,,,,,,,,,,,,,,,,,,,,,,,,,,,,,,,,,,,,,,,,,,,,,,,,,,,,,,,,,,,,,,,,,,,,,,,,,,,,,,,,,,,,,,,,,,,,,,,,,,,,,,,,,,,,,,,,,,,,,,,,,,,,,,,,,,,,,,,,,,,,,,,,,,,,,,,,,,,,,,,,,,,,,,,,,,,,,,,,,,,,,,,,,,,,,0.0,,,,,,,,,,,,,,,,,,,,,,,,,,,,,,,,,,,,,,,,,,,,,,,,,,,P,,,,,,,,,,,,,,,,,,,,,,,,,,,,,,,,,,,,,,,,,ACType|P4
21273694,2.121,,,,,,,,,,,,,,,,,,,,,,,,,,,,,,,,,,,,,,,,,,,,,,,,,,,,,,,,,,,,,,,,,,,,,,,,,,,,,,,,,,,,,,,,,,,,,,,,,,,,,,,,,,,,,,,,,,,,,,,,,,,,,,,,,,,,,,,,,,,,,,,,,,,,,,,,,,,,,,,,,,,,,,,,,,,,,,,,,,,,,,,,,,,,,,,,,,,,,,0.0,,,,,,,,,,,,,,,,,,,,,,,,,,,,,,,,,,,,,,,,,,,,,,,,,,,P,,,,,,,,,,,,,,,,,,,,,,,,,,,,,,,,,,,,,,,,,
21498949,2.171,,,,,,,,,,,,,,,,,,,,,,,,,,,,,,,,,,,,,,,,,,,,,,,,,,,,,,,,,,,,,,,,,,,,,,,,,,,,,,,,,,,,,,,,,,,,,,,,,,,,,,,,,,,,,,,,,,,,,,,,,,,,,,,,,,,,,,,,,,,,,,,,,,,,,,,,,,,,,,,,,,,,,,,,,,,,,,,,,,,,,,,,,,,,,,,,,,,,,,0.0,,,,,,,,,,,,,,,,,,,,,,,,,,,,,,,,,,,,,,,,,,,,,,,,,,,P,,,,,,,,,,,,,,,,,,,,,,,,,,,,,,,,,,,,,,,,,
21725903,2.222,,,0.0,-0.0,,,0,NaN,0.0,0.0,-5.7025533E-4,-0.009812287,-0.11199653,0.112426996,0.35893494,0.14053757,-0.37977785,0.54112506,0.0,0.0,0.0,0.0,0.0,235,-60,516,570.0,0.0,0.0,NaN,NaN,NaN,0.0,NaN,NaN,0.0,0.0,0.0,-0.0,NaN,NaN,NaN,NaN,NaN,NaN,NaN,NaN,false,false,-9.496474450543246E-4,8.975290392072566E-4,3.5141899238055885E-4,,0.0,,,0.0,0.0,0.0,0.0,0.0,0.0,0.0,0.0,0.0,0.0,0,0,0,0,5,,,,,,,,,,,,,,,,,,,,,,,,,,,,,,,,,,,,,,,,,,,,,,,,,,,,,,,,,,,,,,235,-60,516,570.0,NaN,66,-19,449,454.0,NaN,78,-20,172,22,-6,149,,,,,,,,,,,,,,,,,,,,,,,,,,,,,,,,,,,,,,,,,,,,,,,,,,0.0,,,,,,,,,,,,,,,,,,,,,,,,,,,,,,,,,,,,,,,,,,,,,,,,,,,P,,,,,,,,,,,,,,,,,,,,,,,,,,,,,,,,,,,,,,,,,
23046686,2.515,,,0.0,-0.0,,,0,NaN,0.0,0.0,0.09102504,-0.0033325185,-1.0323498,1.0363604,0.11937267,-0.29632884,-0.30164742,0.4393766,0.0,0.0,0.0,0.0,0.0,339,-33,1589,1625.0,0.0,0.0,NaN,NaN,NaN,0.0,NaN,NaN,0.0,0.0,0.0,-0.0,NaN,NaN,NaN,NaN,NaN,NaN,NaN,NaN,false,false,-0.015012503313410974,0.011668967486516912,0.0059722283140146715,,0.0,,,0.0,0.0,0.0,0.0,0.0,0.0,0.0,0.0,0.0,0.0,0,0,0,0,23,,,,,,,,,,,,,,,,,,2,0,0,0,0,Manual,0,0,0,0,0,30,50,0.0,0.0,0,5,0,0,0,0,0,0,0,0,0,0.0,0.0,0.0,Hover,,lost,0.0,0,0,0,0,0,0,0,0,0,1,0,339,-33,1589,1625.0,NaN,309,-127,1563,1598.0,NaN,275,-69,604,75,-23,525,,,,,,,,,,,,,,,,,,,,,,,,,,,,,,,,,,,,,,,,,,,,,,,,,,0.0,,,,,,,,,,,,,,,,,,,,,,,,,,,,,,,,,,0.0,0.0,0.0,0.0,0.0,180.0,0.0,0.0,0.0,0,,,,,,,,P,,,,,,,,,,,,,0.0,0.0,0.0,0.0,NaN,NaN,NaN,0.0,0.0,0.0,0,0,0,0,0,0.0,0.0,0,0,0,0,0,1,0,0,0,0.0,0.0,
23275616,2.566,,,0.0,-0.0,,,17,NaN,0.0,0.0,0.086464256,-0.0049180747,-0.97287965,0.9767267,-0.016547961,-0.21942954,-0.027428072,0.2217554,0.0,0.0,0.0,0.0,0.0,339,-41,1583,1619.0,49.09,0.0,NaN,NaN,NaN,0.0,NaN,NaN,0.0,0.0,0.0,-0.0,NaN,NaN,NaN,NaN,NaN,NaN,NaN,NaN,false,false,-0.08397553204371189,0.027005164768655998,-0.06208715962410771,,0.0,,,0.0,0.0,0.0,0.0,0.0,0.0,0.0,0.0,0.0,0.0,-2200,2326,0,0,143,,,,,,,,,,,,,,,,,,17,0,0,0,0,Manual,0,0,0,0,0,30,50,0.0,0.0,0,5,0,0,0,0,0,0,0,0,0,0.0,0.0,0.0,Hover,,lost,0.0,0,0,0,0,0,0,0,0,0,1,0,339,-41,1583,1619.0,NaN,316,-118,1566,1601.0,NaN,236,-60,517,63,-19,448,,,,,,,,,,,,,,,,,,,,,,,,,,,,,,,,,,,,,,,,,,,,,,,,,,0.0,,,,,,,,,,,,,,,,,,,,,,,,,,,,,,,,,,0.0,0.0,0.0,0.0,0.0,180.0,0.0,0.0,0.0,0,,,,,,,,P,,,,,,,,,,,,,0.0,0.0,0.0,0.0,NaN,NaN,NaN,0.0,0.0,0.0,0,0,0,14175,0,0.0,0.0,0,0,0,0,0,1,0,0,0,0.0,0.0,
23501152,2.616,,,0.0,-0.0,,,17,NaN,0.0,0.0,0.08636609,-0.0019689933,-0.97420424,0.97802705,-0.067861855,-0.3204924,0.037743304,0.32976532,0.0,0.0,0.0,0.0,0.0,333,-33,1583,1617.0,49.07,0.0,NaN,NaN,NaN,0.0,NaN,NaN,0.0,0.0,0.0,-0.0,NaN,NaN,NaN,NaN,NaN,NaN,NaN,NaN,false,false,-0.09707591280974537,0.028722530410300928,-0.07381957455766575,,0.0,,,0.0,0.0,0.0,0.0,0.0,0.0,0.0,0.0,0.0,0.0,-2200,2326,0,0,163,,,,,,,,,,,,,,,,,,19,0,0,0,0,Manual,0,0,0,0,0,30,50,0.0,0.0,0,5,0,0,0,0,0,0,0,0,0,0.0,0.0,0.0,Hover,,lost,0.0,0,0,0,0,0,0,0,0,0,1,0,333,-33,1583,1617.0,NaN,313,-121,1569,1604.0,NaN,236,-57,518,65,-18,449,,,,,,,,,,,,,,,,,,,,,,,,,,,,,,,,,,,,,,,,,,,,,,,,,,0.0,,,,,,,,,,,,,,,,,,,,,,,,,,,,,,,,,,0.0,0.0,0.0,0.0,0.0,180.0,0.0,0.0,0.0,0,Manual,OTHER,NONE,GPS_POSITION_NONMATCH,True,Connected,,P,False,False,False,0,0,,0.0,,,,,,0.0,0.0,0.0,0.0,NaN,NaN,NaN,0.0,0.0,0.0,0,0,0,14694,0,0.0,0.0,0,0,0,0,0,1,0,0,0,0.0,0.0,
23726161,2.666,,,0.0,-0.0,,,17,NaN,0.0,0.0,0.085949324,-0.003439549,-0.9745543,0.9783431,0.1470978,-0.3059296,-0.057999145,0.34437564,0.0,0.0,0.0,0.0,0.0,339,-30,1583,1619.0,49.05,0.0,NaN,NaN,NaN,0.0,NaN,NaN,0.0,0.0,0.0,-0.0,NaN,NaN,NaN,NaN,NaN,NaN,NaN,NaN,false,false,-0.1091626297500623,0.030837610122714798,-0.08559985095939737,,0.0,,,0.0,0.0,0.0,0.0,0.0,0.0,0.0,0.0,0.0,0.0,-2200,2329,0,0,183,,,,,,,,,,,,,,,,,,22,0,0,0,0,Manual,0,0,0,0,0,30,50,0.0,0.0,0,5,0,0,0,0,0,0,0,0,0,0.0,0.0,0.0,Hover,,lost,0.0,0,0,0,0,0,0,0,0,0,1,0,339,-30,1583,1619.0,NaN,316,-121,1563,1599.0,NaN,234,-59,516,64,-19,449,,,,,,,,,,,,,,,,,,,,,,,,,,,,,,,,,,,,,,,,,,,,,,,,,,0.0,,,,,,,,,,,,,,,,,,,,,,,,,,,,,,,,,,0.0,0.0,0.0,0.0,0.0,180.0,0.0,0.0,0.0,0,Manual,OTHER,NONE,GPS_POSITION_NONMATCH,True,Connected,,P,False,False,False,0,0,,0.0,,,,,,0.0,0.0,0.0,0.0,NaN,NaN,NaN,0.0,0.0,0.0,0,0,0,15264,0,0.0,0.0,0,0,0,0,0,1,0,0,0,0.0,0.0,
23954855,2.717,,,-113.24611,-0.0,,,0,NaN,0.0,0.0,0.08538011,-0.005175859,-0.9743658,0.9781131,0.03918912,-0.12737718,-0.110721886,0.17326301,0.0,0.0,0.0,0.0,0.0,339,-36,1586,1622.0,49.01,0.0,NaN,NaN,NaN,0.0,NaN,NaN,0.0,0.0,0.0,-0.0,NaN,NaN,NaN,NaN,NaN,NaN,NaN,NaN,false,false,-0.11993964779843758,0.034074078969274835,-0.09631778367938004,,0.0,,,0.0,0.0,0.0,0.0,0.0,0.0,0.0,0.0,0.0,0.0,-2200,2329,0,0,203,26.7255322,58.389384,20240305,70554,2024-03-05T07:05:54Z,46.475,99.99,99.99,102.54,0,0,0,0.0,0.0,0.0,20240305,70554,24,0,0,0,0,Manual,0,0,0,0,0,30,50,0.0,0.0,0,5,0,0,0,0,0,0,0,0,0,0.0,0.0,0.0,Hover,,lost,0.0,0,0,0,0,0,0,0,0,0,1,0,339,-36,1586,1622.0,NaN,313,-118,1566,1601.0,NaN,236,-59,516,63,-19,449,,,,,,,,,,,,,,,,,,,,,,,,,,,,,,,,,,,,,,,,,,,,,,,,,,0.0,,,,,,,,,,,,,,,,,,,,,,,,,,,,,,,,,,0.0,0.0,0.0,0.0,0.0,180.0,0.0,0.0,0.0,0,Manual,OTHER,NONE,GPS_POSITION_NONMATCH,True,Connected,,P,False,False,False,0,0,,0.0,,,,,,0.0,0.0,0.0,0.0,NaN,NaN,NaN,0.0,0.0,0.0,0,0,0,15541,0,0.0,0.0,0,0,0,0,0,1,0,0,0,0.0,0.0,
24180650,2.767,,,-113.244,-0.0,,,0,NaN,0.0,0.0,0.08682825,-0.002245084,-0.9741042,0.97796893,0.05788584,-0.28674722,-0.112833366,0.31353804,0.0,0.0,0.0,0.0,0.0,343,-38,1583,1620.0,48.98,0.0,NaN,NaN,NaN,0.0,NaN,NaN,0.0,0.0,0.0,-0.0,NaN,NaN,NaN,NaN,NaN,NaN,NaN,NaN,false,false,-0.13129019757268168,0.035774777719115525,-0.10982348015214605,,0.0,,,0.0,0.0,0.0,0.0,0.0,0.0,0.0,0.0,0.0,0.0,-2200,2331,0,0,223,26.7255322,58.389384,20240305,70554,2024-03-05T07:05:54Z,46.475,99.99,99.99,102.54,0,0,0,0.0,0.0,0.0,20240305,70554,27,0,0,0,0,Manual,0,0,0,0,0,30,50,0.0,0.0,0,5,0,0,0,0,0,0,0,0,0,0.0,0.0,0.0,Hover,,lost,0.0,0,0,0,0,0,0,0,0,0,1,0,343,-38,1583,1620.0,NaN,316,-121,1566,1602.0,NaN,236,-60,518,64,-17,448,,,,,,,,,,,,,,,,,,,,,,,,,,,,,,,,,,,,,,,,,,,,,,,,,,0.0,,,,,,,,,,,,,,,,,,,,,,,,,,,,,,,,,,0.0,0.0,0.0,0.0,0.0,180.0,0.0,0.0,0.0,0,Manual,OTHER,NONE,GPS_POSITION_NONMATCH,True,Connected,,P,False,False,False,0,0,,0.0,,,,,,0.0,0.0,0.0,0.0,NaN,NaN,NaN,0.0,0.0,0.0,0,0,0,15843,0,0.0,0.0,0,0,0,0,0,1,0,0,0,0.0,0.0,
24405653,2.817,,,-112.765755,-0.0,,,0,NaN,0.0,0.0,0.08611299,-0.0041848742,-0.9728747,0.9766873,-0.04686165,-0.18160947,-0.22327358,0.29159752,0.0,0.0,0.0,0.0,0.0,336,-33,1580,1615.0,48.96,0.0,NaN,NaN,NaN,0.0,NaN,NaN,0.0,0.0,0.0,-0.0,NaN,NaN,NaN,NaN,NaN,NaN,NaN,NaN,false,false,-0.14380456998297753,0.03771581024707021,-0.12157922592951209,,0.0,,,0.0,0.0,0.0,0.0,0.0,0.0,0.0,0.0,0.0,0.0,-2200,2331,0,0,243,26.7255322,58.389384,20240305,70554,2024-03-05T07:05:54Z,46.475,99.99,99.99,102.54,0,0,0,0.0,0.0,0.0,20240305,70554,29,0,0,0,0,Manual,0,0,0,0,0,30,50,0.0,0.0,0,5,0,0,0,0,0,0,0,0,0,0.0,0.0,0.0,Hover,,lost,0.0,0,0,0,0,0,0,0,0,0,1,0,336,-33,1580,1615.0,NaN,313,-118,1575,1610.0,NaN,234,-58,515,64,-17,449,,,,,,,,,,,,,,,,,,,,,,,,,,,,,,,,,,,,,,,,,,,,,,,,,,0.0,,,,,,,,,,,,,,,,,,,,,,,,,,,,,,,,,,0.0,0.0,0.0,0.0,0.0,180.0,0.0,0.0,0.0,0,Manual,OTHER,NONE,GPS_POSITION_NONMATCH,True,Connected,,P,False,False,False,0,0,,0.0,,,,,,0.0,0.0,0.0,0.0,NaN,NaN,NaN,0.0,0.0,0.0,0,0,0,15989,0,0.0,0.0,0,0,0,0,0,1,0,0,0,0.0,0.0,
24630821,2.867,,,-112.95062,-0.0,,,0,NaN,0.0,0.0,0.0862837,-0.0042608636,-0.973017,0.97684443,-0.0027994437,-0.28596187,-0.24737412,0.37812164,0.0,0.0,0.0,0.0,0.0,336,-38,1586,1621.0,48.91,0.0,NaN,NaN,NaN,0.0,NaN,NaN,0.0,0.0,0.0,-0.0,NaN,NaN,NaN,NaN,NaN,NaN,NaN,NaN,false,false,-0.1572441201038508,0.04032599516328352,-0.13405890030346512,,0.0,,,0.0,0.0,0.0,0.0,0.0,0.0,0.0,0.0,0.0,0.0,-2200,2333,0,0,263,26.7255322,58.389384,20240305,70554,2024-03-05T07:05:54Z,46.475,99.99,99.99,102.54,0,0,0,0.0,0.0,0.0,20240305,70554,32,0,0,0,0,Manual,0,0,0,0,0,30,50,0.0,0.0,0,5,0,0,0,0,0,0,0,0,0,0.0,0.0,0.0,Hover,,lost,0.0,0,0,0,0,0,0,0,0,0,1,0,336,-38,1586,1621.0,NaN,316,-124,1572,1608.0,NaN,235,-59,516,64,-19,452,,,,,,,,,,,,,,,,,,,,,,,,,,,,,,,,,,,,,,,,,,,,,,,,,,0.0,,,,,,,,,,,,,,,,,,,,,,,,,,,,,,,,,,0.0,0.0,0.0,0.0,0.0,180.0,0.0,0.0,0.0,0,Manual,OTHER,NONE,GPS_POSITION_NONMATCH,True,Connected,,P,False,False,False,0,0,,0.0,,,,,,0.0,0.0,0.0,0.0,NaN,NaN,NaN,0.0,0.0,0.0,0,0,0,16148,0,0.0,0.0,0,0,0,0,0,1,0,0,0,0.0,0.0,
24855822,2.917,,,-112.586685,-0.0,,,0,NaN,0.0,0.0,0.08572505,-0.0025599054,-0.9731019,0.97687393,-0.09086158,-0.13063268,-0.13764636,0.21039782,0.0,0.0,0.0,0.0,0.0,336,-41,1583,1618.0,48.87,0.0,NaN,NaN,NaN,0.0,NaN,NaN,0.0,0.0,0.0,-0.0,NaN,NaN,NaN,NaN,NaN,NaN,NaN,NaN,false,false,-0.17068185307887163,0.044405047483367065,-0.14713736781614628,,0.0,,,0.0,0.0,0.0,0.0,0.0,0.0,0.0,0.0,0.0,0.0,-2200,2333,0,0,283,26.7255322,58.389384,20240305,70554,2024-03-05T07:05:54Z,46.475,99.99,99.99,102.54,0,0,0,0.0,0.0,0.0,20240305,70554,34,0,0,0,0,Manual,0,0,0,0,0,30,50,0.0,0.0,0,5,0,0,0,0,0,0,0,0,0,0.0,0.0,0.0,Hover,,lost,100.0,0,0,0,0,0,0,0,0,0,1,0,336,-41,1583,1618.0,NaN,320,-118,1569,1605.0,NaN,235,-60,516,65,-18,450,,,,,,,,,,,,,,,,,,,,,,,,,,,,,,,,,,,,,,,,,,,,,,,,,,0.0,,,,,,,,,,,,,,,,,,,,,,,,,,,,,,,,,,0.0,0.0,0.0,0.0,0.0,180.0,0.0,0.0,0.0,0,Manual,OTHER,NONE,GPS_POSITION_NONMATCH,True,Connected,,P,False,False,False,0,0,,0.0,,,,,,0.0,0.0,0.0,0.0,NaN,NaN,NaN,0.0,0.0,0.0,0,0,0,16225,0,0.0,0.0,0,0,0,0,0,1,0,0,0,0.0,0.0,
25080824,2.967,,,-113.11969,-0.0,,,0,NaN,0.0,0.0,0.08645753,-0.004002945,-0.97395426,0.9777923,0.106385976,-0.14925331,-0.32318887,0.37154487,0.0,0.0,0.0,0.0,0.0,336,-33,1580,1615.0,48.79,0.0,NaN,NaN,NaN,0.0,NaN,NaN,0.0,0.0,0.0,-0.0,NaN,NaN,NaN,NaN,NaN,NaN,NaN,NaN,false,false,-0.18285678172032327,0.046881983726486325,-0.156936888126042,,0.0,,,0.0,0.0,0.0,0.0,0.0,0.0,0.0,0.0,0.0,0.0,-2200,2335,0,0,303,26.7255322,58.389384,20240305,70554,2024-03-05T07:05:54Z,46.475,99.99,99.99,112.47,0,0,0,0.0,0.0,0.0,20240305,70554,37,0,0,0,0,Manual,0,0,0,0,0,30,50,0.0,0.0,0,5,0,0,0,0,0,0,0,0,0,0.0,0.0,0.0,Hover,,lost,100.0,0,0,0,0,0,0,0,0,0,1,0,336,-33,1580,1615.0,NaN,313,-124,1566,1601.0,NaN,234,-61,516,65,-18,449,,,,,,,,,,,,,,,,,,,,,,,,,,,,,,,,,,,,,,,,,,,,,,,,,,0.0,,,,,,,,,,,,,,,,,,,,,,,,,,,,,,,,,,0.0,0.0,0.0,0.0,0.0,180.0,0.0,0.0,0.0,0,Manual,OTHER,NONE,GPS_POSITION_NONMATCH,True,Connected,,P,False,False,False,0,0,,0.0,,,,,,0.0,0.0,0.0,0.0,NaN,NaN,NaN,0.0,0.0,0.0,0,0,0,16307,0,20.846535,0.0,16470,-1038,0,93,21,1,4125,0,0,0.0,0.0,dateTime|2024-3-5 7:5:54 GMT
25305824,3.017,,,-113.48576,-0.0,,,0,NaN,0.0,0.0,0.08615421,-0.0028032265,-0.9745506,0.9783554,0.04624045,-0.39167196,-0.18162826,0.43420494,0.0,0.0,0.0,0.0,0.0,343,-44,1583,1620.0,48.75,0.0,NaN,NaN,NaN,0.0,NaN,NaN,0.0,0.0,0.0,-0.0,NaN,NaN,NaN,NaN,NaN,NaN,NaN,NaN,false,false,-0.19287232763939954,0.049638002944987124,-0.17051785580137313,,0.0,,,0.0,0.0,0.0,0.0,0.0,0.0,0.0,0.0,0.0,0.0,-2200,2335,0,0,323,26.7255322,58.389384,20240305,70554,2024-03-05T07:05:54Z,46.475,99.99,99.99,112.47,0,0,0,0.0,0.0,0.0,20240305,70554,39,0,0,0,0,Manual,0,0,0,0,0,30,50,0.0,0.0,0,5,0,0,0,0,0,0,0,0,0,0.0,0.0,0.0,Hover,,lost,100.0,0,0,0,0,0,0,0,0,0,1,0,343,-44,1583,1620.0,NaN,316,-116,1572,1607.0,NaN,236,-60,517,64,-16,449,,,,,,,,,,,,,,,,,,,,,,,,,,,,,,,,,,,,,,,,,,,,,,,,,,0.0,,,,,,,,,,,,,,,,,,,,,,,,,,,,,,,,,,0.0,0.0,0.0,0.0,0.0,180.0,0.0,0.0,0.0,0,Manual,OTHER,NONE,GPS_POSITION_NONMATCH,True,Connected,,P,False,False,False,0,0,,0.0,,,,,,0.0,0.0,0.0,0.0,NaN,NaN,NaN,0.0,0.0,0.0,0,0,0,16346,0,20.846535,12640.0,16470,-1038,0,93,21,1,4125,0,0,0.0,0.0,
25530958,3.067,,,-112.85108,-0.0,,,0,NaN,0.0,0.0,0.086409934,-0.0031493087,-0.97517604,0.979002,0.069569595,-0.20013273,-0.3061139,0.37228853,0.0,0.0,0.0,0.0,0.0,339,-41,1586,1622.0,48.73,0.0,NaN,NaN,NaN,0.0,NaN,NaN,0.0,0.0,0.0,-0.0,NaN,NaN,NaN,NaN,NaN,NaN,NaN,NaN,false,false,-0.20515934565795257,0.052761595332376475,-0.1860457707576355,,0.0,,,0.0,0.0,0.0,0.0,0.0,0.0,0.0,0.0,0.0,0.0,-2200,2336,0,0,343,26.7255322,58.389384,20240305,70554,2024-03-05T07:05:54Z,46.475,99.99,99.99,112.47,0,0,0,0.0,0.0,0.0,20240305,70554,42,0,0,0,0,Manual,0,0,0,0,0,30,50,0.0,0.0,0,5,0,0,0,0,0,0,0,0,0,0.0,0.0,0.0,Hover,,lost,100.0,0,0,0,0,0,0,0,0,0,1,0,339,-41,1586,1622.0,NaN,316,-116,1566,1601.0,NaN,236,-63,517,65,-17,450,,,,,,,,,,,,,,,,,,,,,,,,,,,,,,,,,,,,,,,,,,,,,,,,,,0.0,,,,,,,,,,,,,,,,,,,,,,,,,,,,,,,,,,0.0,0.0,0.0,0.0,0.0,180.0,0.0,0.0,0.0,0,Manual,OTHER,NONE,GPS_POSITION_NONMATCH,True,Connected,,P,False,False,False,0,0,,0.0,,,,,,0.0,0.0,0.0,0.0,NaN,NaN,NaN,0.0,0.0,0.0,0,0,0,16388,0,20.846535,12640.0,16470,-1038,0,93,21,1,4125,0,0,0.0,0.0,
25755967,3.117,,,-112.93588,-0.0,,,0,NaN,0.0,0.0,0.086331554,-0.0042401836,-0.97463644,0.97846174,0.06597958,-0.33086583,-0.28080374,0.43894902,0.0,0.0,0.0,0.0,0.0,339,-41,1583,1619.0,48.72,0.0,NaN,NaN,NaN,0.0,NaN,NaN,0.0,0.0,0.0,-0.0,NaN,NaN,NaN,NaN,NaN,NaN,NaN,NaN,false,false,-0.21669677640158236,0.056165362801224104,-0.20115051673822926,,0.0,,,0.0,0.0,0.0,0.0,0.0,0.0,0.0,0.0,0.0,0.0,-2200,2336,0,0,363,26.7255322,58.389384,20240305,70554,2024-03-05T07:05:54Z,46.475,99.99,99.99,112.47,0,0,0,0.0,0.0,0.0,20240305,70554,44,0,0,0,0,Manual,0,0,0,0,0,30,50,0.0,0.0,0,5,0,0,0,0,0,0,0,0,0,0.0,0.0,0.0,Hover,,lost,100.0,0,0,0,0,0,0,0,0,0,1,0,339,-41,1583,1619.0,NaN,320,-116,1566,1602.0,NaN,234,-60,518,64,-18,449,,,,,,,,,,,,,,,,,,,,,,,,,,,,,,,,,,,,,,,,,,,,,,,,,,0.0,,,,,,,,,,,,,,,,,,,,,,,,,,,,,,,,,,0.0,0.0,0.0,0.0,0.0,180.0,0.0,0.0,0.0,0,Manual,OTHER,NONE,GPS_POSITION_NONMATCH,True,Connected,,P,False,False,False,0,0,,0.0,,,,,,0.0,0.0,0.0,0.0,NaN,NaN,NaN,0.0,0.0,0.0,0,0,0,16407,0,20.846535,12640.0,16470,-1038,0,93,21,1,4125,0,0,0.0,0.0,
25981011,3.167,,,-112.81369,-0.0,,,0,NaN,0.0,0.0,0.085934706,-0.0036509526,-0.976536,0.9803166,0.0125785405,-0.2522202,-0.26599953,0.36678195,0.0,0.0,0.0,0.0,0.0,333,-41,1583,1618.0,48.72,0.0,NaN,NaN,NaN,0.0,NaN,NaN,0.0,0.0,0.0,-0.0,NaN,NaN,NaN,NaN,NaN,NaN,NaN,NaN,false,false,-0.22747578810126656,0.05989269980665481,-0.21336797493833437,,0.0,,,0.0,0.0,0.0,0.0,0.0,0.0,0.0,0.0,0.0,0.0,-2200,2336,0,0,383,26.7255322,58.389384,20240305,70554,2024-03-05T07:05:54Z,46.475,99.99,99.99,112.47,0,0,0,0.0,0.0,0.0,20240305,70554,47,0,0,0,0,Manual,0,0,0,0,0,30,50,0.0,0.0,0,5,0,0,0,0,0,0,0,0,0,0.0,0.0,0.0,Hover,,lost,100.0,0,0,0,0,0,0,0,0,0,1,0,333,-41,1583,1618.0,NaN,313,-121,1569,1604.0,NaN,235,-62,516,65,-16,449,,,,,,,,,,,,,,,,,,,,,,,,,,,,,,,,,,,,,,,,,,,,,,,,,,0.0,,,,,,,,,,,,,,,,,,,,,,,,,,,,,,,,,,0.0,0.0,0.0,0.0,0.0,180.0,0.0,0.0,0.0,0,Manual,OTHER,NONE,GPS_POSITION_NONMATCH,True,Connected,,P,False,False,False,0,0,,0.0,,,,,,0.0,0.0,0.0,0.0,NaN,NaN,NaN,0.0,0.0,0.0,0,0,0,16427,0,20.846535,12640.0,16470,-1038,0,93,21,1,4125,0,0,0.0,0.0,
26206162,3.217,,,-112.39603,-0.0,,,0,NaN,0.0,0.0,0.08618827,-0.0031692046,-0.97701514,0.98081446,0.008348772,-0.19547367,-0.32864177,0.3824723,0.0,0.0,0.0,0.0,0.0,339,-36,1583,1619.0,48.71,0.0,NaN,NaN,NaN,0.0,NaN,NaN,0.0,0.0,0.0,-0.0,NaN,NaN,NaN,NaN,NaN,NaN,NaN,NaN,false,false,-0.23962369898549207,0.06255078261304639,-0.22875887396950922,,0.0,,,0.0,0.0,0.0,0.0,0.0,0.0,0.0,0.0,0.0,0.0,-2200,2336,0,0,403,26.7255322,58.389384,20240305,70554,2024-03-05T07:05:54Z,46.475,99.99,99.99,112.47,0,0,0,0.0,0.0,0.0,20240305,70554,49,0,0,0,0,Manual,0,0,0,0,0,30,50,0.0,0.0,0,5,0,0,0,0,0,0,0,0,0,0.0,0.0,0.0,Hover,,lost,100.0,0,0,0,0,0,0,0,0,0,1,0,339,-36,1583,1619.0,NaN,316,-121,1566,1602.0,NaN,235,-60,517,65,-17,449,,,,,,,,,,,,,,,,,,,,,,,,,,,,,,,,,,,,,,,,,,,,,,,,,,0.0,,,,,,,,,,,,,,,,,,,,,,,,,,,,,,,,,,0.0,0.0,0.0,0.0,0.0,180.0,0.0,0.0,0.0,0,Manual,OTHER,NONE,GPS_POSITION_NONMATCH,True,Connected,,P,False,False,False,0,0,,0.0,,,,,,0.0,0.0,0.0,0.0,NaN,NaN,NaN,0.0,0.0,0.0,0,0,0,16436,0,20.846535,12640.0,16470,-1038,0,93,21,1,4125,0,0,0.0,0.0,
26431228,3.267,,,-113.04385,-0.0,,,11,NaN,0.0,0.0,0.0858359,-0.0032205437,-0.9771748,0.9809428,-0.019261133,-0.3469272,-0.15060689,0.37869763,0.0,0.0,0.0,0.0,0.0,333,-33,1583,1617.0,48.71,0.0,NaN,NaN,NaN,0.0,NaN,NaN,0.0,0.0,0.0,-0.0,NaN,NaN,NaN,NaN,NaN,NaN,NaN,NaN,false,false,-0.2508097002485017,0.06359380700870956,-0.2453212728946692,,0.0,,,0.0,0.0,0.0,0.0,0.0,0.0,0.0,0.0,0.0,0.0,-2200,2338,0,0,423,26.7254759,58.3895166,,,,,0.82,1.75,1152.08,5,6,11,,,,20240305,70555,52,0,0,0,0,Manual,0,0,0,0,0,30,50,0.0,0.0,0,5,0,0,0,0,0,0,0,0,0,0.0,0.0,0.0,Hover,,lost,100.0,0,0,0,0,0,0,0,0,0,1,0,333,-33,1583,1617.0,NaN,309,-124,1569,1603.0,NaN,235,-59,516,64,-19,449,,,,,,,,,,,,,,,,,,,,,,,,,,,,,,,,,,,,,,,,,,,,,,,,,,0.0,,,,,,,,,,,,,,,,,,,,,,,,,,,,,,,,,,0.0,0.0,0.0,0.0,0.0,180.0,0.0,0.0,0.0,0,Manual,OTHER,NONE,GPS_POSITION_NONMATCH,True,Connected,,P,False,False,False,0,0,,0.0,,,,,,0.0,0.0,0.0,0.0,NaN,NaN,NaN,0.0,0.0,0.0,0,0,0,16444,0,20.846535,12640.0,16470,-1038,0,93,21,1,4125,0,0,0.0,0.0,
26657140,3.317,,,-112.92376,-0.0,,,11,NaN,0.0,0.0,0.08671841,-0.0027763103,-0.97615457,0.9800028,-0.009440416,-0.3182492,-0.20901969,0.3808686,0.0,0.0,0.0,0.0,0.0,339,-38,1583,1619.0,48.68,0.0,NaN,NaN,NaN,0.0,NaN,NaN,0.0,0.0,0.0,-0.0,NaN,NaN,NaN,NaN,NaN,NaN,NaN,NaN,false,false,-0.2618302904318477,0.06848143845878144,-0.2607059664125959,,0.0,,,0.0,0.0,0.0,0.0,0.0,0.0,0.0,0.0,0.0,0.0,-2200,2338,0,0,443,26.7254759,58.3895166,,,,,0.82,1.75,1152.08,5,6,11,,,,20240305,70555,54,0,0,0,0,Manual,0,0,0,0,0,30,50,0.0,0.0,0,5,0,0,0,0,0,0,0,0,0,0.0,0.0,0.0,Hover,,lost,100.0,0,0,0,0,0,0,0,0,0,1,0,339,-38,1583,1619.0,NaN,320,-118,1572,1608.0,NaN,237,-60,517,65,-18,449,,,,,,,,,,,,,,,,,,,,,,,,,,,,,,,,,,,,,,,,,,,,,,,,,,0.0,,,,,,,,,,,,,,,,,,,,,,,,,,,,,,,,,,0.0,0.0,0.0,0.0,0.0,180.0,0.0,0.0,0.0,0,Manual,OTHER,NONE,GPS_POSITION_NONMATCH,False,Connected,,P,False,False,False,0,0,,0.0,,,,,,0.0,0.0,0.0,0.0,NaN,NaN,NaN,0.0,0.0,0.0,0,0,0,16447,0,20.846535,12640.0,16470,-1038,0,93,21,1,4125,0,0,0.0,0.0,
26882223,3.367,,,-112.86267,-0.0,,,11,NaN,0.0,0.0,0.086938225,-0.0025537373,-0.97825277,0.98211163,-0.02196825,-0.3815613,-0.18125385,0.4229948,0.0,0.0,0.0,0.0,0.0,336,-30,1583,1618.0,48.69,0.0,NaN,NaN,NaN,0.0,NaN,NaN,0.0,0.0,0.0,-0.0,NaN,NaN,NaN,NaN,NaN,NaN,NaN,NaN,false,false,-0.27251178907660334,0.0686815391486634,-0.27680950601139465,,0.0,,,0.0,0.0,0.0,0.0,0.0,0.0,0.0,0.0,0.0,0.0,-2200,2339,0,0,463,26.7254759,58.3895166,,,,,0.82,1.75,1152.08,5,6,11,,,,20240305,70555,57,0,0,0,0,Manual,0,0,0,0,0,30,50,0.0,0.0,0,5,0,0,0,0,0,0,0,0,0,0.0,0.0,0.0,Hover,,lost,100.0,0,0,0,0,0,0,0,0,0,1,0,336,-30,1583,1618.0,NaN,316,-124,1572,1608.0,NaN,234,-57,516,65,-18,451,,,,,,,,,,,,,,,,,,,,,,,,,,,,,,,,,,,,,,,,,,,,,,,,,,0.0,,,,,,,,,,,,,,,,,,,,,,,,,,,,,,,,,,0.0,0.0,0.0,0.0,0.0,180.0,0.0,0.0,0.0,0,Manual,OTHER,NONE,GPS_POSITION_NONMATCH,False,Connected,,P,False,False,False,0,0,,0.0,,,,,,0.0,0.0,0.0,0.0,NaN,NaN,NaN,0.0,0.0,0.0,0,0,0,16451,0,20.846535,12640.0,16470,-1038,0,93,21,1,4125,0,0,0.0,0.0,
27107934,3.418,,,-112.58406,-0.0,,,11,NaN,0.0,0.0,0.08541038,-0.0030522398,-0.97680867,0.98054034,0.012022734,-0.21894212,-0.35245854,0.41509905,0.0,0.0,0.0,0.0,0.0,330,-38,1583,1617.0,48.72,0.0,NaN,NaN,NaN,0.0,NaN,NaN,0.0,0.0,0.0,-0.0,NaN,NaN,NaN,NaN,NaN,NaN,NaN,NaN,false,false,-0.28363645271737825,0.07109910382774551,-0.29073764102573385,,0.0,,,0.0,0.0,0.0,0.0,0.0,0.0,0.0,0.0,0.0,0.0,-2200,2339,0,0,483,26.7254759,58.3895166,,,,,0.82,1.75,1152.08,5,6,11,,,,20240305,70555,59,0,0,0,0,Manual,0,0,0,0,0,30,50,0.0,0.0,0,5,0,0,0,0,0,0,0,0,0,0.0,0.0,0.0,Hover,,lost,100.0,0,0,0,0,0,0,0,0,0,1,0,330,-38,1583,1617.0,NaN,320,-118,1566,1602.0,NaN,235,-60,516,64,-17,449,,,,,,,,,,,,,,,,,,,,,,,,,,,,,,,,,,,,,,,,,,,,,,,,,,0.0,,,,,,,,,,,,,,,,,,,,,,,,,,,,,,,,,,0.0,0.0,0.0,0.0,0.0,180.0,0.0,0.0,0.0,0,Manual,OTHER,NONE,GPS_POSITION_NONMATCH,False,Connected,,P,False,False,False,0,0,,0.0,,,,,,0.0,0.0,0.0,0.0,NaN,NaN,NaN,0.0,0.0,0.0,0,0,0,16452,0,20.846535,12640.0,16470,-1038,0,93,21,1,4125,0,0,0.0,0.0,
27335813,3.468,,,-113.2893,-0.0,,,11,NaN,0.0,0.0,0.08660113,-0.0023927088,-0.9780172,0.9818468,0.14485861,-0.41936544,-0.19384056,0.48417512,0.0,0.0,0.0,0.0,0.0,336,-36,1589,1624.0,48.68,0.0,NaN,NaN,NaN,0.0,NaN,NaN,0.0,0.0,0.0,-0.0,NaN,NaN,NaN,NaN,NaN,NaN,NaN,NaN,false,false,-0.29556705093267555,0.07404087061371165,-0.3066356582594967,,0.0,,,0.0,0.0,0.0,0.0,0.0,0.0,0.0,0.0,0.0,0.0,-2200,2340,0,0,505,26.7254759,58.3895166,,,,,0.82,1.75,1152.08,5,6,11,,,,20240305,70555,62,0,0,0,0,Manual,0,0,0,0,0,30,50,0.0,0.0,0,5,0,0,0,0,0,0,0,0,0,0.0,0.0,0.0,Hover,,lost,100.0,0,0,0,0,0,0,0,0,0,1,0,336,-36,1589,1624.0,NaN,316,-118,1563,1598.0,NaN,235,-59,518,64,-19,449,,,,,,,,,,,,,,,,,,,,,,,,,,,,,,,,,,,,,,,,,,,,,,,,,,0.0,,,,,,,,,,,,,,,,,,,,,,,,,,,,,,,,,,0.0,0.0,0.0,0.0,0.0,180.0,0.0,0.0,0.0,0,Manual,OTHER,NONE,GPS_POSITION_NONMATCH,False,Connected,,P,False,False,False,0,0,,0.0,,,,,,0.0,0.0,0.0,0.0,NaN,NaN,NaN,0.0,0.0,0.0,0,0,0,16454,0,20.846535,12640.0,16470,-1038,0,93,21,1,4125,0,0,0.0,0.0,
27563976,3.519,,,-112.44028,-0.0,,,11,NaN,0.0,0.0,0.08670144,-0.002956796,-0.9812838,0.985111,0.12863103,-0.33235365,-0.17778815,0.39826313,0.0,0.0,0.0,0.0,0.0,336,-36,1580,1615.0,48.71,0.0,NaN,NaN,NaN,0.0,NaN,NaN,0.0,0.0,0.0,-0.0,NaN,NaN,NaN,NaN,NaN,NaN,NaN,NaN,false,false,-0.30602057051729803,0.07894930988703677,-0.32256532328725207,,0.0,,,0.0,0.0,0.0,0.0,0.0,0.0,0.0,0.0,0.0,0.0,-2200,2340,0,0,525,26.7254759,58.3895166,,,,,0.82,1.75,1152.08,5,6,11,,,,20240305,70555,64,0,0,0,0,Manual,0,0,0,0,0,30,50,0.0,0.0,0,5,0,0,0,0,0,0,0,0,0,0.0,0.0,0.0,Hover,,lost,100.0,0,0,0,0,0,0,0,0,0,1,0,336,-36,1580,1615.0,NaN,313,-116,1569,1604.0,NaN,234,-57,516,64,-17,448,,,,,,,,,,,,,,,,,,,,,,,,,,,,,,,,,,,,,,,,,,,,,,,,,,0.0,,,,,,,,,,,,,,,,,,,,,,,,,,,,,,,,,,0.0,0.0,0.0,0.0,0.0,180.0,0.0,0.0,0.0,0,Manual,OTHER,NONE,GPS_POSITION_NONMATCH,False,Connected,,P,False,False,False,0,0,,0.0,,,,,,0.0,0.0,0.0,0.0,NaN,NaN,NaN,0.0,0.0,0.0,0,0,0,16455,0,20.846535,12640.0,16470,-1038,0,93,21,1,4125,0,0,0.0,0.0,
27789642,3.569,,,-112.92745,-0.0,,,15,NaN,0.0,0.0,0.08741274,-0.0032381262,-0.97900856,0.98290855,0.15971915,-0.36178914,-0.22204883,0.45354965,0.0,0.0,0.0,0.0,0.0,343,-36,1580,1617.0,48.74,0.0,NaN,NaN,NaN,0.0,NaN,NaN,0.0,0.0,0.0,-0.0,NaN,NaN,NaN,NaN,NaN,NaN,NaN,NaN,false,false,-0.31521085002803106,0.08242219799496922,-0.33823613077285053,,0.0,,,0.0,0.0,0.0,0.0,0.0,0.0,0.0,0.0,0.0,0.0,-2200,2340,0,0,545,26.7254034,58.3894377,,,,,0.69,1.49,390.46,8,7,15,,,,20240305,70555,67,0,0,0,0,Manual,0,0,0,0,0,30,50,0.0,0.0,0,5,0,0,0,0,0,0,0,0,0,0.0,0.0,0.0,Hover,,lost,100.0,0,0,0,0,0,0,0,0,0,1,0,343,-36,1580,1617.0,NaN,313,-124,1566,1601.0,NaN,236,-60,516,64,-18,448,,,,,,,,,,,,,,,,,,,,,,,,,,,,,,,,,,,,,,,,,,,,,,,,,,0.0,,,,,,,,,,,,,,,,,,,,,,,,,,,,,,,,,,0.0,0.0,0.0,0.0,0.0,180.0,0.0,0.0,0.0,0,Manual,OTHER,NONE,GPS_POSITION_NONMATCH,False,Connected,,P,False,False,False,0,0,,0.0,,,,,,0.0,0.0,0.0,0.0,NaN,NaN,NaN,0.0,0.0,0.0,0,0,0,16456,0,20.846535,12640.0,16470,-1038,0,93,21,1,4125,0,0,0.0,0.0,
28014804,3.619,,,-112.61039,-0.0,,,15,NaN,0.0,0.0,0.08729992,-0.0038651372,-0.9800751,0.98396313,0.04518065,-0.35486424,-0.34395275,0.49625942,0.0,0.0,0.0,0.0,0.0,336,-36,1583,1618.0,48.8,0.0,NaN,NaN,NaN,0.0,NaN,NaN,0.0,0.0,0.0,-0.0,NaN,NaN,NaN,NaN,NaN,NaN,NaN,NaN,false,false,-0.3254397892296166,0.08620923520702486,-0.354231060034623,,0.0,,,0.0,0.0,0.0,0.0,0.0,0.0,0.0,0.0,0.0,0.0,-2200,2341,0,0,565,26.7254034,58.3894377,,,,,0.69,1.49,390.46,8,7,15,,,,20240305,70555,69,0,0,0,0,Manual,0,0,0,0,0,30,50,0.0,0.0,0,5,0,0,0,0,0,0,0,0,0,0.0,0.0,0.0,Hover,,lost,100.0,0,0,0,0,0,0,0,0,0,1,0,336,-36,1583,1618.0,NaN,313,-121,1572,1607.0,NaN,235,-58,516,63,-19,450,,,,,,,,,,,,,,,,,,,,,,,,,,,,,,,,,,,,,,,,,,,,,,,,,,0.0,,,,,,,,,,,,,,,,,,,,,,,,,,,,,,,,,,0.0,0.0,0.0,0.0,0.0,180.0,0.0,0.0,0.0,0,Manual,OTHER,NONE,GPS_POSITION_NONMATCH,False,Connected,,P,False,False,False,0,0,,0.0,,,,,,0.0,0.0,0.0,0.0,NaN,NaN,NaN,0.0,0.0,0.0,0,0,0,16457,0,20.846535,12640.0,16470,-1038,0,93,21,1,4125,0,0,0.0,0.0,
28241415,3.669,,,-112.95958,-0.0,,,15,NaN,0.0,0.0,0.08636554,-0.0036910507,-0.9810263,0.9848275,-0.0040366286,-0.37907878,-0.088669986,0.38933197,0.0,0.0,0.0,0.0,0.0,336,-44,1580,1615.0,48.86,0.0,NaN,NaN,NaN,0.0,NaN,NaN,0.0,0.0,0.0,-0.0,NaN,NaN,NaN,NaN,NaN,NaN,NaN,NaN,false,false,-0.33545783991388367,0.09011203542930649,-0.36996024100186453,,0.0,,,0.0,0.0,0.0,0.0,0.0,0.0,0.0,0.0,0.0,0.0,-2200,2341,0,0,585,26.7254034,58.3894377,,,,,0.69,1.49,390.46,8,7,15,,,,20240305,70555,72,0,0,0,0,Manual,0,0,0,0,0,30,50,0.0,0.0,0,5,0,0,0,0,0,0,0,0,0,0.0,0.0,0.0,Hover,,lost,100.0,0,0,0,0,0,0,0,0,0,1,0,336,-44,1580,1615.0,NaN,309,-118,1566,1600.0,NaN,235,-62,515,63,-18,448,,,,,,,,,,,,,,,,,,,,,,,,,,,,,,,,,,,,,,,,,,,,,,,,,,0.0,,,,,,,,,,,,,,,,,,,,,,,,,,,,,,,,,,0.0,0.0,0.0,0.0,0.0,180.0,0.0,0.0,0.0,0,Manual,OTHER,NONE,GPS_POSITION_NONMATCH,False,Connected,,P,False,False,False,0,0,,0.0,,,,,,0.0,0.0,0.0,0.0,NaN,NaN,NaN,0.0,0.0,0.0,0,0,0,16458,0,20.846535,12640.0,16470,-1038,0,93,21,1,4125,0,0,0.0,0.0,
28466887,3.720,,,-112.688866,-0.0,,,15,NaN,0.0,0.0,0.087083615,-0.0033072229,-0.9820509,0.98590994,0.08592868,-0.20660424,-0.030496895,0.22582982,0.0,0.0,0.0,0.0,0.0,343,-38,1586,1623.0,48.88,0.0,NaN,NaN,NaN,0.0,NaN,NaN,0.0,0.0,0.0,-0.0,NaN,NaN,NaN,NaN,NaN,NaN,NaN,NaN,false,false,-0.34517509795408285,0.09478340552521827,-0.3845988035053036,,0.0,,,0.0,0.0,0.0,0.0,0.0,0.0,0.0,0.0,0.0,0.0,-2200,2342,0,0,605,26.7254034,58.3894377,,,,,0.69,1.49,390.46,8,7,15,,,,20240305,70555,74,0,0,0,0,Manual,0,0,0,0,0,30,50,0.0,0.0,0,5,0,0,0,0,0,0,0,0,0,0.0,0.0,0.0,Hover,,lost,100.0,0,0,0,0,0,0,0,0,0,1,0,343,-38,1586,1623.0,NaN,313,-118,1572,1607.0,NaN,235,-59,518,63,-17,450,,,,,,,,,,,,,,,,,,,,,,,,,,,,,,,,,,,,,,,,,,,,,,,,,,0.0,,,,,,,,,,,,,,,,,,,,,,,,,,,,,,,,,,0.0,0.0,0.0,0.0,0.0,180.0,0.0,0.0,0.0,0,Manual,OTHER,NONE,GPS_POSITION_NONMATCH,False,Connected,,P,False,False,False,0,0,,0.0,,,,,,0.0,0.0,0.0,0.0,NaN,NaN,NaN,0.0,0.0,0.0,0,0,0,16458,0,20.846535,12640.0,16470,-1038,0,93,21,1,4125,0,0,0.0,0.0,
28691891,3.770,,,-113.264015,-0.0,,,16,NaN,0.0,0.0,0.087412104,-0.0025197524,-0.98365605,0.98753554,0.19326495,-0.37609133,-0.23439197,0.48346213,0.0,0.0,0.0,0.0,0.0,343,-41,1583,1620.0,48.92,0.0,NaN,NaN,NaN,0.0,NaN,NaN,0.0,0.0,0.0,-0.0,NaN,NaN,NaN,NaN,NaN,NaN,NaN,NaN,false,false,-0.35308356646297545,0.10048846126990166,-0.3999392843213787,,0.0,,,0.0,0.0,0.0,0.0,0.0,0.0,0.0,0.0,0.0,0.0,-2200,2342,0,0,625,26.7254669,58.3894039,,,,,0.68,1.46,324.74,9,7,16,,,,20240305,70555,77,0,0,0,0,Manual,0,0,0,0,0,30,50,0.0,0.0,0,5,0,0,0,0,0,0,0,0,0,0.0,0.0,0.0,Hover,,lost,100.0,0,0,0,0,0,0,0,0,0,1,0,343,-41,1583,1620.0,NaN,320,-116,1566,1602.0,NaN,236,-62,516,65,-18,450,,,,,,,,,,,,,,,,,,,,,,,,,,,,,,,,,,,,,,,,,,,,,,,,,,0.0,,,,,,,,,,,,,,,,,,,,,,,,,,,,,,,,,,0.0,0.0,0.0,0.0,0.0,180.0,0.0,0.0,0.0,0,Manual,OTHER,NONE,GPS_POSITION_NONMATCH,False,Connected,,P,False,False,False,0,0,,0.0,,,,,,0.0,0.0,0.0,0.0,NaN,NaN,NaN,0.0,0.0,0.0,0,0,0,16458,0,20.846535,12640.0,16470,-1038,0,93,21,1,4125,0,0,0.0,0.0,
30393113,4.148,,,-112.5061,-0.0,,,16,NaN,0.0,0.0,0.08729074,-0.0025673215,-0.9828917,0.98676354,0.006804816,-0.28827307,-0.21894288,0.36205477,0.0,0.0,0.0,0.0,0.0,336,-30,1586,1621.0,48.93,0.0,NaN,NaN,NaN,0.0,NaN,NaN,0.0,0.0,0.0,-0.0,NaN,NaN,NaN,NaN,NaN,NaN,NaN,NaN,false,false,-0.3577909119375291,0.10205371239374952,-0.40594382780074945,,0.0,,,0.0,0.0,0.0,0.0,0.0,0.0,0.0,0.0,0.0,0.0,-2200,2342,0,0,633,26.7254669,58.3894039,,,,,0.68,1.46,324.74,9,7,16,,,,20240305,70555,78,0,0,0,0,Manual,0,0,0,0,0,30,50,0.0,0.0,0,5,0,0,0,0,0,0,0,0,0,0.0,0.0,0.0,Hover,,lost,100.0,0,0,0,0,0,0,0,0,0,1,0,336,-30,1586,1621.0,NaN,320,-116,1566,1602.0,NaN,236,-60,517,66,-17,449,,,,,,,,,,,,,,,,,,,,,,,,,,,,,,,,,,,,,,,,,,,,,,,,,,0.0,,,,,,,,,,,,,,,,,,,,,,,,,,,,,,,,,,0.0,0.0,0.0,0.0,0.0,180.0,0.0,0.0,0.0,0,Manual,OTHER,NONE,GPS_POSITION_NONMATCH,False,Connected,,P,False,False,False,0,0,,0.0,,,,,,0.0,0.0,0.0,0.0,NaN,NaN,NaN,0.0,0.0,0.0,0,0,0,16458,0,20.846535,12640.0,16470,-1038,0,93,21,1,4125,0,0,0.0,0.0,
30620281,4.198,,,-112.84318,-0.0,,,17,NaN,0.0,0.0,0.08631729,-0.0017705192,-0.987154,0.9909222,0.2408309,-0.36956847,-0.17265072,0.4736968,0.0,0.0,0.0,0.0,0.0,336,-41,1586,1621.0,49.35,0.0,NaN,NaN,NaN,0.0,NaN,NaN,0.0,0.0,0.0,-0.0,NaN,NaN,NaN,NaN,NaN,NaN,NaN,NaN,false,false,-0.45783468870688937,0.1258034185304239,-0.5623171674522798,,0.0,,,0.0,0.0,0.0,0.0,0.0,0.0,0.0,0.0,0.0,0.0,-2200,2345,0,0,797,26.7254669,58.3894039,,,,,0.68,1.46,324.74,9,7,16,,,,20240305,70555,98,0,0,0,0,Manual,0,0,0,0,0,30,50,0.0,0.0,0,5,0,0,0,0,0,0,0,0,0,0.0,0.0,0.0,Hover,,lost,100.0,0,0,0,0,0,0,0,0,0,1,0,336,-41,1586,1621.0,NaN,316,-121,1563,1599.0,NaN,235,-59,516,65,-19,448,,,,,,,,,,,,,,,,,,,,,,,,,,,,,,,,,,,,,,,,,,,,,,,,,,0.0,,,,,,,,,,,,,,,,,,,,,,,,,,,,,,,,,,0.0,0.0,0.0,0.0,0.0,180.0,0.0,0.0,0.0,0,Manual,OTHER,NONE,GPS_POSITION_NONMATCH,False,Connected,,P,False,False,False,0,0,,0.0,,,,,,0.0,0.0,0.0,0.0,NaN,NaN,NaN,0.0,0.0,0.0,0,0,0,16465,0,97.491425,12680.0,16443,-1158,0,93,22,1,4117,0,0,0.0,0.0,
30845761,4.248,,,-112.5298,-0.0,,,17,NaN,0.0,0.0,0.08805261,-0.0035137772,-0.9855547,0.9894866,0.035772942,-0.32798824,-0.112474754,0.34857792,0.0,0.0,0.0,0.0,0.0,339,-38,1586,1622.0,49.41,0.0,NaN,NaN,NaN,0.0,NaN,NaN,0.0,0.0,0.0,-0.0,NaN,NaN,NaN,NaN,NaN,NaN,NaN,NaN,false,false,-0.467439176400966,0.1297133600674659,-0.581416080284578,,0.0,,,0.0,0.0,0.0,0.0,0.0,0.0,0.0,0.0,0.0,0.0,-2200,2346,0,0,817,26.7254669,58.3894039,,,,,0.68,1.46,324.74,9,7,16,,,,20240305,70555,101,0,0,0,0,Manual,0,0,0,0,0,30,50,0.0,0.0,0,5,0,0,0,0,0,0,0,0,0,0.0,0.0,0.0,Hover,,lost,100.0,0,0,0,0,0,0,0,0,0,1,0,339,-38,1586,1622.0,NaN,309,-121,1563,1597.0,NaN,236,-60,517,63,-18,448,,,,,,,,,,,,,,,,,,,,,,,,,,,,,,,,,,,,,,,,,,,,,,,,,,0.0,,,,,,,,,,,,,,,,,,,,,,,,,,,,,,,,,,0.0,0.0,0.0,0.0,0.0,180.0,0.0,0.0,0.0,0,Manual,OTHER,NONE,GPS_POSITION_NONMATCH,False,Connected,,P,False,False,False,0,0,,0.0,,,,,,0.0,0.0,0.0,0.0,NaN,NaN,NaN,0.0,0.0,0.0,0,0,0,16467,0,97.491425,12680.0,16443,-1158,0,93,22,1,4117,0,0,0.0,0.0,
31072427,4.299,,,-112.485565,-0.0,,,17,NaN,0.0,0.0,0.08819205,-0.0022031176,-0.9868509,0.99078625,0.04578731,-0.34889483,-0.34860495,0.49532765,0.0,0.0,0.0,0.0,0.0,343,-36,1580,1617.0,49.49,0.0,NaN,NaN,NaN,0.0,NaN,NaN,0.0,0.0,0.0,-0.0,NaN,NaN,NaN,NaN,NaN,NaN,NaN,NaN,false,false,-0.47671310889338697,0.13448245234030373,-0.5993483613660882,,0.0,,,0.0,0.0,0.0,0.0,0.0,0.0,0.0,0.0,0.0,0.0,-2200,2346,0,0,837,26.7254669,58.3894039,,,,,0.68,1.46,324.74,9,7,16,,,,20240305,70555,103,0,0,0,0,Manual,0,0,0,0,0,30,50,0.0,0.0,0,5,0,0,0,0,0,0,0,0,0,0.0,0.0,0.0,Hover,,lost,100.0,0,0,0,0,0,0,0,0,0,1,0,343,-36,1580,1617.0,NaN,316,-121,1569,1605.0,NaN,236,-60,517,65,-18,449,,,,,,,,,,,,,,,,,,,,,,,,,,,,,,,,,,,,,,,,,,,,,,,,,,0.0,,,,,,,,,,,,,,,,,,,,,,,,,,,,,,,,,,0.0,0.0,0.0,0.0,0.0,180.0,0.0,0.0,0.0,0,Manual,OTHER,NONE,GPS_POSITION_NONMATCH,False,Connected,,P,False,False,False,0,0,,0.0,,,,,,0.0,0.0,0.0,0.0,NaN,NaN,NaN,0.0,0.0,0.0,0,0,0,16468,0,97.491425,12680.0,16443,-1158,0,93,22,1,4117,0,0,0.0,0.0,
31298213,4.349,,,-113.32986,-0.0,,,17,NaN,0.0,0.0,0.08735644,-0.0021270248,-0.98676306,0.99062455,0.11346685,-0.12922893,-0.18384899,0.2517445,0.0,0.0,0.0,0.0,0.0,346,-44,1589,1626.0,49.48,0.0,NaN,NaN,NaN,0.0,NaN,NaN,0.0,0.0,0.0,-0.0,NaN,NaN,NaN,NaN,NaN,NaN,NaN,NaN,false,false,-0.4884905538745788,0.13961679918391887,-0.616519533848658,,0.0,,,0.0,0.0,0.0,0.0,0.0,0.0,0.0,0.0,0.0,0.0,-2200,2346,0,0,857,26.7255287,58.389387,20240305,70556,2024-03-05T07:05:56Z,49.012,0.67,1.31,140.65,9,8,17,0.0,0.01,0.02,20240305,70556,106,0,0,0,0,Manual,0,0,0,0,0,30,50,0.0,0.0,0,5,0,0,0,0,0,0,0,0,0,0.0,0.0,0.0,Hover,,lost,100.0,0,0,0,0,0,0,0,0,0,1,0,346,-44,1589,1626.0,NaN,309,-121,1572,1606.0,NaN,234,-61,517,62,-18,450,,,,,,,,,,,,,,,,,,,,,,,,,,,,,,,,,,,,,,,,,,,,,,,,,,0.0,,,,,,,,,,,,,,,,,,,,,,,,,,,,,,,,,,0.0,0.0,0.0,0.0,0.0,180.0,0.0,0.0,0.0,0,Manual,OTHER,NONE,GPS_POSITION_NONMATCH,False,Connected,,P,False,False,False,0,0,,0.0,,,,,,0.0,0.0,0.0,0.0,NaN,NaN,NaN,0.0,0.0,0.0,0,0,0,16469,0,97.491425,12680.0,16443,-1158,0,93,22,1,4117,0,0,0.0,0.0,
31575364,4.410,,,-113.074394,-0.0,,,17,NaN,0.0,0.0,0.087433256,-0.0025368943,-0.98632234,0.9901933,0.013200488,-0.44803128,-0.1723144,0.48020676,0.0,0.0,0.0,0.0,0.0,346,-44,1589,1626.0,49.49,0.0,NaN,NaN,NaN,0.0,NaN,NaN,0.0,0.0,0.0,-0.0,NaN,NaN,NaN,NaN,NaN,NaN,NaN,NaN,false,false,-0.49305376413712315,0.14235188679947405,-0.6263545281544598,,0.0,,,0.0,0.0,0.0,0.0,0.0,0.0,0.0,0.0,0.0,0.0,-2200,2346,0,0,861,26.7255287,58.389387,20240305,70556,2024-03-05T07:05:56Z,49.012,0.67,1.31,140.65,9,8,17,0.0,0.01,0.02,20240305,70556,106,0,0,0,0,Manual,0,0,0,0,0,30,50,0.0,0.0,0,5,0,0,0,0,0,0,0,0,0,0.0,0.0,0.0,Hover,,lost,100.0,0,0,0,0,0,0,0,0,0,1,0,346,-44,1589,1626.0,NaN,309,-121,1572,1606.0,NaN,234,-61,517,62,-18,450,,,,,,,,,,,,,,,,,,,,,,,,,,,,,,,,,,,,,,,,,,,,,,,,,,0.0,,,,,,,,,,,,,,,,,,,,,,,,,,,,,,,,,,0.0,0.0,0.0,0.0,0.0,180.0,0.0,0.0,0.0,0,Manual,OTHER,NONE,GPS_POSITION_NONMATCH,False,Connected,,P,False,False,False,0,0,,0.0,,,,,,0.0,0.0,0.0,0.0,NaN,NaN,NaN,0.0,0.0,0.0,0,0,0,16470,0,97.491425,12680.0,16443,-1158,0,93,22,1,4117,0,0,0.0,0.0,
31801510,4.461,,,-114.21374,-0.0,,,17,NaN,0.0,0.0,0.08698619,-0.0028491565,-0.9876184,0.99144584,0.040505435,-0.36376637,-0.22610871,0.430223,0.0,0.0,0.0,0.0,0.0,333,-41,1589,1624.0,49.59,0.0,NaN,NaN,NaN,0.0,NaN,NaN,0.0,0.0,0.0,-0.0,NaN,NaN,NaN,NaN,NaN,NaN,NaN,NaN,false,false,-0.5089220637540439,0.14730290125530485,-0.654209099579818,,0.0,,,0.0,0.0,0.0,0.0,0.0,0.0,0.0,0.0,0.0,0.0,-2200,2346,0,0,881,26.7255287,58.389387,20240305,70556,2024-03-05T07:05:56Z,49.012,0.67,1.31,140.65,9,8,17,0.0,0.01,0.02,20240305,70556,109,0,0,0,0,Manual,0,0,0,0,0,30,5000,0.0,0.0,0,5,0,0,0,0,0,0,0,0,0,0.0,0.0,0.0,Hover,,lost,100.0,0,0,0,0,0,0,0,0,0,1,0,333,-41,1589,1624.0,NaN,320,-127,1566,1603.0,NaN,233,-61,518,67,-19,450,,,,,,,,,,,,,,,,,,,,,,,,,,,,,,,,,,,,,,,,,,,,,,,,,,0.0,,,,,,,,,,,,,,,,,,,,,,,,,,,,,,,,,,0.0,0.0,0.0,0.0,0.0,180.0,0.0,0.0,0.0,0,Manual,OTHER,NONE,GPS_POSITION_NONMATCH,False,Connected,,P,False,False,False,0,0,,0.0,,,,,,0.0,0.0,0.0,0.0,NaN,NaN,NaN,0.0,0.0,0.0,0,0,0,16471,0,97.491425,12680.0,16443,-1158,0,93,22,1,4117,0,0,0.0,0.0,
32026577,4.511,,,-112.901115,-0.0,,,17,NaN,0.0,0.0,0.08563443,-0.003354888,-0.9883473,0.9920559,0.26329577,-0.31940195,-0.26673087,0.49243033,0.0,0.0,0.0,0.0,0.0,336,-33,1577,1612.0,49.7,0.0,NaN,NaN,NaN,0.0,NaN,NaN,0.0,0.0,0.0,-0.0,NaN,NaN,NaN,NaN,NaN,NaN,NaN,NaN,false,false,-0.5166959390060217,0.1508298241834751,-0.6705951819351537,,0.0,,,0.0,0.0,0.0,0.0,0.0,0.0,0.0,0.0,0.0,0.0,-2200,2342,0,0,901,26.7255287,58.389387,20240305,70556,2024-03-05T07:05:56Z,49.012,0.67,1.31,140.65,9,8,17,0.0,0.01,0.02,20240305,70556,111,0,0,0,0,Manual,0,0,0,0,0,30,5000,0.0,0.0,0,5,0,0,0,0,0,0,0,0,0,0.0,0.0,0.0,Hover,,lost,100.0,0,0,0,0,0,0,0,0,0,1,0,336,-33,1577,1612.0,NaN,323,-121,1563,1600.0,NaN,236,-58,515,65,-20,448,,,,,,,,,,,,,,,,,,,,,,,,,,,,,,,,,,,,,,,,,,,,,,,,,,0.0,,0,0,0,0,22,22,22,22,48.59375,48.90625,48.90625,49.010418,48.958332,48.958332,48.958332,48.958332,0.0,0.0,0.0,0.0,16.2,16.2,15.8,16.0,0.0,0.0,0.0,0.0,0,0,0,0,0.0,0.0,0.0,0.0,0.0,180.0,0.0,0.0,0.0,0,Manual,OTHER,NONE,GPS_POSITION_NONMATCH,False,Connected,,P,False,False,False,0,0,,0.0,,,,,,0.0,0.0,0.0,0.0,NaN,NaN,NaN,0.0,0.0,0.0,0,0,0,16471,0,97.491425,12680.0,16443,-1158,0,93,22,1,4117,0,0,0.0,0.0,
32251737,4.561,,,-112.62092,-0.0,,,18,NaN,0.0,0.0,0.08769264,-0.0038422947,-0.9873963,0.99129015,0.26075068,-0.40667146,-0.17265652,0.51301354,0.0,0.0,0.0,0.0,0.0,343,-33,1586,1623.0,49.74,0.0,NaN,NaN,NaN,0.0,NaN,NaN,0.0,0.0,0.0,-0.0,NaN,NaN,NaN,NaN,NaN,NaN,NaN,NaN,false,false,-0.5243363543160502,0.15659172407983665,-0.6885595146612484,,0.0,,,0.0,0.0,0.0,0.0,0.0,0.0,0.0,0.0,0.0,0.0,-2200,2342,0,0,921,26.7255254,58.3893734,20240305,70556,2024-03-05T07:05:56Z,42.963,0.64,1.29,113.25,9,9,18,-0.01,-0.01,0.01,20240305,70556,112,0,0,0,0,Manual,0,0,0,0,0,30,5000,0.0,0.0,0,5,0,0,0,0,0,0,0,0,0,0.0,0.0,0.0,Hover,,lost,100.0,0,0,0,0,0,0,0,0,0,1,0,343,-33,1586,1623.0,NaN,313,-116,1572,1607.0,NaN,236,-59,518,64,-17,449,,,,,,,,,,,,,,,,,,,,,,,,,,,,,,,,,,,,,,,,,,,,,,,,,,0.0,,0,0,0,0,22,22,22,22,48.59375,48.90625,48.90625,49.010418,48.958332,48.958332,48.958332,48.958332,0.0,0.0,0.0,0.0,16.3,16.1,16.0,16.0,0.0,0.0,0.0,0.0,0,0,0,0,0.0,0.0,0.0,0.0,0.0,180.0,0.0,0.0,0.0,0,Manual,OTHER,NONE,GPS_POSITION_NONMATCH,False,Connected,,P,False,False,False,0,0,,0.0,,,,,,0.0,0.0,0.0,0.0,NaN,NaN,NaN,0.0,0.0,0.0,0,0,0,16470,0,97.491425,12680.0,16443,-1158,0,93,22,1,4117,0,0,0.0,0.0,
32482803,4.612,,,-112.66569,-0.0,,,18,NaN,0.0,0.0,0.087610096,-0.0031112866,-0.98862344,0.9925026,0.05645178,-0.2917155,-0.1981439,0.35713547,0.0,0.0,0.0,0.0,0.0,336,-30,1580,1615.0,49.79,0.0,NaN,NaN,NaN,0.0,NaN,NaN,0.0,0.0,0.0,-0.0,NaN,NaN,NaN,NaN,NaN,NaN,NaN,NaN,false,false,-0.5344095382811158,0.16387536919921694,-0.7061792245151448,,0.0,,,0.0,0.0,0.0,0.0,0.0,0.0,0.0,0.0,0.0,0.0,-2200,2344,0,0,941,26.7255254,58.3893734,20240305,70556,2024-03-05T07:05:56Z,42.963,0.64,1.29,113.25,9,9,18,-0.01,-0.01,0.01,20240305,70556,115,0,0,0,0,Manual,0,0,0,0,0,30,5000,0.0,0.0,0,5,0,0,0,0,0,0,0,0,0,0.0,0.0,0.0,Hover,,lost,100.0,0,0,0,0,0,0,0,0,0,1,0,336,-30,1580,1615.0,NaN,309,-121,1572,1606.0,NaN,235,-59,516,63,-17,450,,,,,,,,,,,,,,,,,,,,,,,,,,,,,,,,,,,,,,,,,,,,,,,,,,0.0,,0,0,0,0,22,22,22,22,48.59375,48.90625,48.90625,49.010418,48.958332,48.958332,48.958332,48.958332,0.0,0.0,0.0,0.0,16.1,16.2,16.0,16.0,0.0,0.0,0.0,0.0,0,0,0,0,0.0,0.0,0.0,0.0,0.0,180.0,0.0,0.0,0.0,0,Manual,OTHER,NONE,GPS_POSITION_NONMATCH,False,Connected,,P,False,False,False,0,0,,0.0,,,,,,0.0,0.0,0.0,0.0,NaN,NaN,NaN,0.0,0.0,0.0,0,0,0,16470,0,97.491425,12680.0,16443,-1158,0,93,22,1,4117,0,0,0.0,0.0,
32708254,4.662,,,-112.68307,-0.0,,,18,NaN,0.0,0.0,0.08787281,-0.0024767383,-0.98855513,0.9924561,0.16897139,-0.33769092,-0.11017361,0.39335063,0.0,0.0,0.0,0.0,0.0,339,-44,1589,1625.0,49.85,0.0,NaN,NaN,NaN,0.0,NaN,NaN,0.0,0.0,0.0,-0.0,NaN,NaN,NaN,NaN,NaN,NaN,NaN,NaN,false,false,-0.5406163192907902,0.16833144433735467,-0.7233377703725008,,0.0,,,0.0,0.0,0.0,0.0,0.0,0.0,0.0,0.0,0.0,0.0,-2200,2344,0,0,961,26.7255254,58.3893734,20240305,70556,2024-03-05T07:05:56Z,42.963,0.64,1.29,113.25,9,9,18,-0.01,-0.01,0.01,20240305,70556,118,0,0,0,0,Manual,0,0,0,0,0,30,5000,0.0,0.0,0,5,0,0,0,0,0,0,0,0,0,0.0,0.0,0.0,Hover,,lost,100.0,0,0,0,0,0,0,0,0,0,1,0,339,-44,1589,1625.0,NaN,313,-121,1569,1604.0,NaN,236,-62,518,65,-19,449,,,,,,,,,,,,,,,,,,,,,,,,,,,,,,,,,,,,,,,,,,,,,,,,,,0.0,,0,0,0,0,22,22,22,22,48.59375,48.90625,48.90625,49.010418,48.958332,48.958332,48.958332,48.958332,0.0,0.0,0.0,0.0,16.2,16.2,16.1,16.0,0.0,0.0,0.0,0.0,0,0,0,0,0.0,0.0,0.0,0.0,0.0,180.0,0.0,0.0,0.0,0,Manual,OTHER,NONE,GPS_POSITION_NONMATCH,False,Connected,,P,False,False,False,0,0,,0.0,,,,,,0.0,0.0,0.0,0.0,NaN,NaN,NaN,0.0,0.0,0.0,0,0,0,16469,0,97.491425,12680.0,16443,-1158,0,93,22,1,4117,0,0,0.0,0.0,
32933417,4.712,,,-113.24452,-0.0,,,18,NaN,0.0,0.0,0.086494125,-0.0028363583,-0.98893684,0.99271613,0.058239087,-0.27969056,-0.3649126,0.46344343,0.0,0.0,0.0,0.0,0.0,339,-27,1583,1619.0,49.9,0.0,NaN,NaN,NaN,0.0,NaN,NaN,0.0,0.0,0.0,-0.0,NaN,NaN,NaN,NaN,NaN,NaN,NaN,NaN,false,false,-0.5497438286021774,0.173735869335208,-0.7418320559913045,,0.0,,,0.0,0.0,0.0,0.0,0.0,0.0,0.0,0.0,0.0,0.0,-2200,2346,0,0,981,26.7255254,58.3893734,20240305,70556,2024-03-05T07:05:56Z,42.963,0.64,1.29,113.25,9,9,18,-0.01,-0.01,0.01,20240305,70556,120,0,0,0,0,Manual,0,0,0,0,0,30,5000,0.0,0.0,0,5,0,0,0,0,0,0,0,0,0,0.0,0.0,0.0,Hover,,lost,100.0,0,0,0,0,0,0,0,0,0,1,0,339,-27,1583,1619.0,NaN,323,-121,1569,1606.0,NaN,234,-58,517,66,-18,450,,,,,,,,,,,,,,,,,,,,,,,,,,,,,,,,,,,,,,,,,,,,,,,,,,0.0,,0,0,0,0,22,22,22,22,48.59375,48.90625,48.854168,49.010418,48.958332,48.958332,48.958332,48.958332,0.0,0.0,0.0,0.0,16.2,16.2,16.0,16.1,0.0,0.0,0.0,0.0,0,0,0,0,0.0,0.0,0.0,0.0,0.0,180.0,0.0,0.0,0.0,0,Manual,OTHER,NONE,GPS_POSITION_NONMATCH,False,Connected,,P,False,False,False,0,0,,0.0,,,,,,0.0,0.0,0.0,0.0,NaN,NaN,NaN,0.0,0.0,0.0,0,0,0,16469,0,97.491425,12680.0,16443,-1158,0,93,22,1,4117,0,0,0.0,0.0,
33158437,4.762,,,-112.81527,-0.0,,,17,NaN,0.0,0.0,0.08765096,-0.0040312693,-0.9906173,0.99449563,0.21281247,-0.31883958,-0.036263235,0.38504916,0.0,0.0,0.0,0.0,0.0,336,-33,1577,1612.0,49.96,0.0,NaN,NaN,NaN,0.0,NaN,NaN,0.0,0.0,0.0,-0.0,NaN,NaN,NaN,NaN,NaN,NaN,NaN,NaN,false,false,-0.5586953860476962,0.18063550106774515,-0.757724022751737,,0.0,,,0.0,0.0,0.0,0.0,0.0,0.0,0.0,0.0,0.0,0.0,-2200,2346,0,0,1001,26.7255281,58.3893727,20240305,70556,2024-03-05T07:05:56Z,42.068,0.67,1.31,93.88,9,8,17,0.02,0.0,-0.01,20240305,70556,123,0,0,0,0,Manual,0,0,0,0,0,30,5000,0.0,0.0,0,5,0,0,0,0,0,0,0,0,0,0.0,0.0,0.0,Hover,,lost,100.0,0,0,0,0,0,0,0,0,0,1,0,336,-33,1577,1612.0,NaN,313,-121,1572,1607.0,NaN,235,-59,515,64,-19,448,,,,,,,,,,,,,,,,,,,,,,,,,,,,,,,,,,,,,,,,,,,,,,,,,,0.0,,0,0,0,0,22,22,22,22,48.59375,48.90625,48.854168,49.010418,48.958332,48.958332,48.958332,48.958332,0.0,0.0,0.0,0.0,16.3,16.2,16.0,15.9,0.0,0.0,0.0,0.0,0,0,0,0,0.0,0.0,0.0,0.0,0.0,180.0,0.0,0.0,0.0,0,Manual,OTHER,NONE,GPS_POSITION_NONMATCH,False,Connected,,P,False,False,False,0,0,,0.0,,,,,,0.0,0.0,0.0,0.0,NaN,NaN,NaN,0.0,0.0,0.0,0,0,0,16468,0,97.491425,12680.0,16443,-1158,0,93,22,1,4117,0,5122,0.0,0.0,
33383441,4.812,,,-112.70835,-0.0,,,17,NaN,0.0,0.0,0.087487124,-0.0030676802,-0.9882879,0.99215746,0.16855909,-0.25304213,-0.28974047,0.4199905,0.0,0.0,0.0,0.0,0.0,339,-36,1583,1619.0,50.01,0.0,NaN,NaN,NaN,0.0,NaN,NaN,0.0,0.0,0.0,-0.0,NaN,NaN,NaN,NaN,NaN,NaN,NaN,NaN,false,false,-0.5669794179192396,0.1874233319344528,-0.775407215291664,,0.0,,,0.0,0.0,0.0,0.0,0.0,0.0,0.0,0.0,0.0,0.0,-2200,2348,0,0,1021,26.7255281,58.3893727,20240305,70556,2024-03-05T07:05:56Z,42.068,0.67,1.31,93.88,9,8,17,0.02,0.0,-0.01,20240305,70556,125,0,0,0,0,Manual,0,0,0,0,0,30,5000,0.0,0.0,0,5,0,0,0,0,0,0,0,0,0,0.0,0.0,0.0,Hover,,lost,100.0,0,0,0,0,0,0,0,0,0,1,0,339,-36,1583,1619.0,NaN,309,-118,1566,1600.0,NaN,235,-60,517,62,-17,449,,,,,,,,,,,,,,,,,,,,,,,,,,,,,,,,,,,,,,,,,,,,,,,,,,0.0,,0,0,0,0,22,22,22,22,48.59375,48.90625,48.90625,49.010418,48.958332,48.958332,48.958332,48.958332,0.0,0.0,0.0,0.0,16.2,16.2,15.9,16.0,0.0,0.0,0.0,0.0,0,0,0,0,0.0,0.0,0.0,0.0,0.0,180.0,0.0,0.0,0.0,0,Manual,OTHER,NONE,GPS_POSITION_NONMATCH,False,Connected,,P,False,False,False,0,0,,0.0,,,,,,0.0,0.0,0.0,0.0,NaN,NaN,NaN,0.0,0.0,0.0,0,0,0,16468,0,97.491425,12680.0,16443,-1158,0,93,22,1,4117,0,5122,0.0,0.0,
33608553,4.862,,,-112.44449,-0.0,,,17,NaN,0.0,0.0,0.08668251,-0.003563901,-0.98961294,0.99340844,0.06781123,-0.34210154,-0.110568315,0.365865,0.0,0.0,0.0,0.0,0.0,336,-41,1583,1618.0,50.05,0.0,NaN,NaN,NaN,0.0,NaN,NaN,0.0,0.0,0.0,-0.0,NaN,NaN,NaN,NaN,NaN,NaN,NaN,NaN,false,false,-0.5747804098569302,0.19191865832038832,-0.7900511466946432,,0.0,,,0.0,0.0,0.0,0.0,0.0,0.0,0.0,0.0,0.0,0.0,-2200,2348,0,0,1041,26.7255281,58.3893727,20240305,70556,2024-03-05T07:05:56Z,42.068,0.67,1.31,93.88,9,8,17,0.02,0.0,-0.01,20240305,70556,128,0,0,0,0,Manual,0,0,0,0,0,30,5000,0.0,0.0,0,5,0,0,0,0,0,0,0,0,0,0.0,0.0,0.0,Hover,,lost,100.0,0,0,0,0,0,0,0,0,0,1,0,336,-41,1583,1618.0,NaN,320,-113,1569,1605.0,NaN,235,-61,516,65,-17,449,,,,,,,,,,,,,,,,,,,,,,,,,,,,,,,,,,,,,,,,,,,,,,,,,,0.0,,0,0,0,0,22,22,22,22,48.59375,48.90625,48.854168,49.010418,48.958332,48.958332,48.958332,48.958332,0.0,0.0,0.0,0.0,16.2,16.2,16.0,16.0,0.0,0.0,0.0,0.0,0,0,0,0,0.0,0.0,0.0,0.0,0.0,180.0,0.0,0.0,0.0,0,Manual,OTHER,NONE,GPS_POSITION_NONMATCH,False,Connected,,P,False,False,False,0,0,,0.0,,,,,,0.0,0.0,0.0,0.0,NaN,NaN,NaN,0.0,0.0,0.0,0,0,0,16467,0,97.491425,12680.0,16443,-1158,0,93,22,1,4117,0,5122,0.0,0.0,
33833560,4.912,,,-113.17131,-0.0,,,17,NaN,0.0,0.0,0.087036856,-0.0029678396,-0.9897145,0.9935386,0.102454506,-0.3526233,-0.18066113,0.40924147,0.0,0.0,0.0,0.0,0.0,333,-38,1583,1618.0,50.09,0.0,NaN,NaN,NaN,0.0,NaN,NaN,0.0,0.0,0.0,-0.0,NaN,NaN,NaN,NaN,NaN,NaN,NaN,NaN,false,false,-0.5822621390952989,0.20078430802303213,-0.8068777192744241,,0.0,,,0.0,0.0,0.0,0.0,0.0,0.0,0.0,0.0,0.0,0.0,-2200,2349,0,0,1061,26.7255281,58.3893727,20240305,70556,2024-03-05T07:05:56Z,42.068,0.67,1.31,93.88,9,8,17,0.02,0.0,-0.01,20240305,70556,130,0,0,0,0,Manual,0,0,0,0,0,30,5000,0.0,0.0,0,5,0,0,0,0,0,0,0,0,0,0.0,0.0,0.0,Hover,,lost,100.0,0,0,0,0,0,0,0,0,0,1,0,333,-38,1583,1618.0,NaN,320,-121,1563,1600.0,NaN,234,-59,516,66,-18,448,,,,,,,,,,,,,,,,,,,,,,,,,,,,,,,,,,,,,,,,,,,,,,,,,,0.0,,0,0,0,0,22,22,22,22,48.59375,48.90625,48.854168,49.010418,48.958332,48.958332,48.958332,48.958332,0.0,0.0,0.0,0.0,16.2,16.2,15.9,16.0,0.0,0.0,0.0,0.0,0,0,0,0,0.0,0.0,0.0,0.0,0.0,180.0,0.0,0.0,0.0,0,Manual,OTHER,NONE,GPS_POSITION_NONMATCH,False,Connected,,P,False,False,False,0,0,,0.0,,,,,,0.0,0.0,0.0,0.0,NaN,NaN,NaN,0.0,0.0,0.0,0,0,0,16467,0,97.491425,12680.0,16443,-1158,0,93,22,1,4117,0,5122,0.0,0.0,
34058749,4.962,,,-112.431854,-0.0,,,17,NaN,0.0,0.0,0.08777613,-0.0036191628,-0.98753005,0.9914299,0.049832392,-0.28546554,-0.21296884,0.3596242,0.0,0.0,0.0,0.0,0.0,333,-30,1586,1620.0,50.18,0.0,NaN,NaN,NaN,0.0,NaN,NaN,0.0,0.0,0.0,-0.0,NaN,NaN,NaN,NaN,NaN,NaN,NaN,NaN,false,false,-0.5920300603887938,0.20520272961236516,-0.821520354166327,,0.0,,,0.0,0.0,0.0,0.0,0.0,0.0,0.0,0.0,0.0,0.0,-2200,2349,0,0,1081,26.7255266,58.3893725,20240305,70556,2024-03-05T07:05:56Z,42.276,0.67,1.31,78.99,9,8,17,0.0,0.0,-0.02,20240305,70556,133,0,0,0,0,Manual,0,0,0,0,0,30,5000,0.0,0.0,0,5,0,0,0,0,0,0,0,0,0,0.0,0.0,0.0,Hover,,lost,100.0,0,0,0,0,0,0,0,0,0,1,0,333,-30,1586,1620.0,NaN,313,-118,1569,1604.0,NaN,234,-58,517,65,-19,450,,,,,,,,,,,,,,,,,,,,,,,,,,,,,,,,,,,,,,,,,,,,,,,,,,0.0,,0,0,0,0,22,22,22,22,48.59375,48.90625,48.854168,49.010418,48.958332,48.958332,48.958332,48.958332,0.0,0.0,0.0,0.0,16.2,16.1,16.0,16.0,0.0,0.0,0.0,0.0,0,0,0,0,0.0,0.0,0.0,0.0,0.0,180.0,0.0,0.0,0.0,0,Manual,OTHER,NONE,GPS_POSITION_NONMATCH,False,Connected,,P,False,False,False,0,0,,0.0,,,,,,0.0,0.0,0.0,0.0,NaN,NaN,NaN,0.0,0.0,0.0,0,0,0,16466,0,97.491425,12680.0,16443,-1158,0,93,22,1,4117,0,5122,0.0,0.0,
34283750,5.012,,,-113.33354,-0.0,,,17,NaN,0.0,0.0,0.08659268,-0.0033054957,-0.9894834,0.9932707,0.17922068,-0.47453624,-0.19579041,0.54372656,0.0,0.0,0.0,0.0,0.0,339,-33,1583,1619.0,50.17,0.0,NaN,NaN,NaN,0.0,NaN,NaN,0.0,0.0,0.0,-0.0,NaN,NaN,NaN,NaN,NaN,NaN,NaN,NaN,false,false,-0.6033861782399299,0.2113645550438695,-0.8389481010898718,,0.0,,,0.0,0.0,0.0,0.0,0.0,0.0,0.0,0.0,0.0,0.0,-2200,2350,0,0,1101,26.7255266,58.3893725,20240305,70556,2024-03-05T07:05:56Z,42.276,0.67,1.31,78.99,9,8,17,0.0,0.0,-0.02,20240305,70556,135,0,0,0,0,Manual,0,0,0,0,0,30,5000,0.0,0.0,0,5,0,0,0,0,0,0,0,0,0,0.0,0.0,0.0,Hover,,lost,100.0,0,0,0,0,0,0,0,0,0,1,0,339,-33,1583,1619.0,NaN,309,-121,1560,1594.0,NaN,234,-59,518,62,-18,446,,,,,,,,,,,,,,,,,,,,,,,,,,,,,,,,,,,,,,,,,,,,,,,,,,0.0,,0,0,0,0,22,22,22,22,48.59375,48.90625,48.90625,49.010418,48.958332,48.958332,48.958332,48.958332,0.0,0.0,0.0,0.0,16.2,16.2,16.0,16.0,0.0,0.0,0.0,0.0,0,0,0,0,0.0,0.0,0.0,0.0,0.0,180.0,0.0,0.0,0.0,0,Manual,OTHER,NONE,GPS_POSITION_NONMATCH,False,Connected,,P,False,False,False,0,0,,0.0,,,,,,0.0,0.0,0.0,0.0,NaN,NaN,NaN,0.0,0.0,0.0,0,0,0,16465,0,97.491425,12680.0,16443,-1158,0,93,22,1,4117,0,5122,0.0,0.0,
34508754,5.062,,,-112.78367,-0.0,,,17,NaN,0.0,0.0,0.08626119,-0.0029574735,-0.99033886,0.99409294,0.103372954,-0.2769833,-0.05808781,0.30129704,0.0,0.0,0.0,0.0,0.0,336,-33,1583,1618.0,50.17,0.0,NaN,NaN,NaN,0.0,NaN,NaN,0.0,0.0,0.0,-0.0,NaN,NaN,NaN,NaN,NaN,NaN,NaN,NaN,false,false,-0.6112159068555147,0.21724607678667582,-0.854906853095204,,0.0,,,0.0,0.0,0.0,0.0,0.0,0.0,0.0,0.0,0.0,0.0,-2200,2350,0,0,1121,26.7255266,58.3893725,20240305,70556,2024-03-05T07:05:56Z,42.276,0.67,1.31,78.99,9,8,17,0.0,0.0,-0.02,20240305,70556,138,0,0,0,0,Manual,0,0,0,0,0,30,5000,0.0,0.0,0,5,0,0,0,0,0,0,0,0,0,0.0,0.0,0.0,Hover,,lost,100.0,0,0,0,0,0,0,0,0,0,1,0,336,-33,1583,1618.0,NaN,309,-118,1569,1603.0,NaN,234,-59,517,63,-19,449,,,,,,,,,,,,,,,,,,,,,,,,,,,,,,,,,,,,,,,,,,,,,,,,,,0.0,,0,0,0,0,22,22,22,22,48.59375,48.90625,48.90625,49.010418,48.958332,48.958332,48.958332,48.958332,0.0,0.0,0.0,0.0,16.2,16.2,16.0,16.1,0.0,0.0,0.0,0.0,0,0,0,0,0.0,0.0,0.0,0.0,0.0,180.0,0.0,0.0,0.0,0,Manual,OTHER,NONE,GPS_POSITION_NONMATCH,False,Connected,,P,False,False,False,0,0,,0.0,,,,,,0.0,0.0,0.0,0.0,NaN,NaN,NaN,0.0,0.0,0.0,0,0,0,16463,0,230.79773,12680.0,16443,-1226,4763,93,22,1,4117,0,5122,0.0,0.0,
34734666,5.112,,,-113.06861,-0.0,,,17,NaN,0.0,0.0,0.08664664,-0.002672695,-0.9885059,0.99229974,0.2351254,-0.36538535,-0.16572444,0.46503228,0.0,0.0,0.0,0.0,0.0,336,-36,1589,1624.0,50.19,0.0,NaN,NaN,NaN,0.0,NaN,NaN,0.0,0.0,0.0,-0.0,NaN,NaN,NaN,NaN,NaN,NaN,NaN,NaN,false,false,-0.6195112954095494,0.22181536897734463,-0.871660459827047,,0.0,,,0.0,0.0,0.0,0.0,0.0,0.0,0.0,0.0,0.0,0.0,-2200,2351,0,0,1141,26.7255266,58.3893725,20240305,70556,2024-03-05T07:05:56Z,42.276,0.67,1.31,78.99,9,8,17,0.0,0.0,-0.02,20240305,70556,140,0,0,0,0,Manual,0,0,0,0,0,30,5000,0.0,0.0,0,5,0,0,0,0,0,0,0,0,0,0.0,0.0,0.0,Hover,,lost,100.0,0,0,0,0,0,0,0,0,0,1,0,336,-36,1589,1624.0,NaN,313,-124,1569,1604.0,NaN,235,-61,518,63,-19,450,,,,,,,,,,,,,,,,,,,,,,,,,,,,,,,,,,,,,,,,,,,,,,,,,,0.0,,0,0,0,0,22,22,22,22,48.59375,48.90625,48.90625,49.010418,48.958332,48.958332,48.958332,48.958332,0.0,0.0,0.0,0.0,16.1,16.2,15.9,16.0,0.0,0.0,0.0,0.0,0,0,0,0,0.0,0.0,0.0,0.0,0.0,180.0,0.0,0.0,0.0,0,Manual,OTHER,NONE,GPS_POSITION_NONMATCH,False,Connected,,P,False,False,False,0,0,,0.0,,,,,,0.0,0.0,0.0,0.0,NaN,NaN,NaN,0.0,0.0,0.0,0,0,0,16462,0,230.79773,12680.0,16443,-1226,4763,93,22,1,4117,0,5122,0.0,0.0,
34959677,5.162,,,-112.72415,-0.0,,,17,NaN,0.0,0.0,0.08629401,-0.0026248046,-0.9894589,0.99321824,0.07028708,-0.25088435,-0.1507385,0.30100718,0.0,0.0,0.0,0.0,0.0,336,-30,1580,1615.0,50.22,0.0,NaN,NaN,NaN,0.0,NaN,NaN,0.0,0.0,0.0,-0.0,NaN,NaN,NaN,NaN,NaN,NaN,NaN,NaN,false,false,-0.6302061481870291,0.22894914309817146,-0.8881155996245544,,0.0,,,0.0,0.0,0.0,0.0,0.0,0.0,0.0,0.0,0.0,0.0,-2200,2351,0,0,1161,26.7255266,58.3893725,20240305,70556,2024-03-05T07:05:56Z,42.276,0.67,1.31,78.99,9,8,17,0.0,0.0,-0.02,20240305,70556,143,0,0,0,0,Manual,0,0,0,0,0,30,5000,0.0,0.0,0,5,0,0,0,0,0,0,0,0,0,0.0,0.0,0.0,Hover,,lost,100.0,0,0,0,0,0,0,0,0,0,1,0,336,-30,1580,1615.0,NaN,316,-124,1560,1596.0,NaN,235,-57,515,63,-18,446,,,,,,,,,,,,,,,,,,,,,,,,,,,,,,,,,,,,,,,,,,,,,,,,,,0.0,,0,0,0,0,22,22,22,22,48.59375,48.90625,48.90625,49.010418,48.958332,48.958332,48.958332,48.958332,0.0,0.0,0.0,0.0,16.2,16.1,16.0,15.8,0.0,0.0,0.0,0.0,0,0,0,0,0.0,0.0,0.0,0.0,0.0,180.0,0.0,0.0,0.0,0,Manual,OTHER,NONE,GPS_POSITION_NONMATCH,False,Connected,,P,False,False,False,0,0,,0.0,,,,,,0.0,0.0,0.0,0.0,NaN,NaN,NaN,0.0,0.0,0.0,0,0,0,16461,0,230.79773,12680.0,16443,-1226,4763,93,22,1,4117,0,5122,0.0,0.0,
35184679,5.212,,,-113.18554,-0.0,,,18,NaN,0.0,0.0,0.086887754,-0.0033056578,-0.9876182,0.99143845,0.0511519,-0.358898,-0.18780269,0.40828192,0.0,0.0,0.0,0.0,0.0,330,-33,1583,1617.0,50.25,0.0,NaN,NaN,NaN,0.0,NaN,NaN,0.0,0.0,0.0,-0.0,NaN,NaN,NaN,NaN,NaN,NaN,NaN,NaN,false,false,-0.6382812790656809,0.23364193357003182,-0.9033994607345397,,0.0,,,0.0,0.0,0.0,0.0,0.0,0.0,0.0,0.0,0.0,0.0,-2200,2352,0,0,1181,26.7255305,58.3893692,20240305,70557,2024-03-05T07:05:57Z,42.384,0.64,1.29,68.65,9,9,18,0.0,0.0,-0.01,20240305,70557,145,0,0,0,0,Manual,0,0,0,0,0,30,5000,0.0,0.0,0,5,0,0,0,0,0,0,0,0,0,0.0,0.0,0.0,Hover,,lost,100.0,0,0,0,0,0,0,0,0,0,1,0,330,-33,1583,1617.0,NaN,316,-124,1560,1596.0,NaN,234,-58,516,65,-20,447,,,,,,,,,,,,,,,,,,,,,,,,,,,,,,,,,,,,,,,,,,,,,,,,,,0.0,,0,0,0,0,22,22,22,22,48.59375,48.90625,48.90625,49.010418,48.958332,48.958332,48.958332,48.958332,0.0,0.0,0.0,0.0,16.2,16.2,15.9,16.0,0.0,0.0,0.0,0.0,0,0,0,0,0.0,0.0,0.0,0.0,0.0,180.0,0.0,0.0,0.0,0,Manual,OTHER,NONE,GPS_POSITION_NONMATCH,False,Connected,,P,False,False,False,0,0,,0.0,,,,,,0.0,0.0,0.0,0.0,NaN,NaN,NaN,0.0,0.0,0.0,0,0,0,16459,0,230.79773,12680.0,16443,-1226,4763,93,22,1,4117,0,5122,0.0,0.0,
35410544,5.263,,,-112.66569,-0.0,,,18,NaN,0.0,0.0,0.08596105,-0.0040845545,-0.98829794,0.9920377,0.1282202,-0.34612048,-0.11954361,0.38798258,0.0,0.0,0.0,0.0,0.0,339,-30,1577,1613.0,50.26,0.0,NaN,NaN,NaN,0.0,NaN,NaN,0.0,0.0,0.0,-0.0,NaN,NaN,NaN,NaN,NaN,NaN,NaN,NaN,false,false,-0.6480347672873679,0.2384120901155734,-0.9189254951955013,,0.0,,,0.0,0.0,0.0,0.0,0.0,0.0,0.0,0.0,0.0,0.0,-2200,2352,0,0,1201,26.7255305,58.3893692,20240305,70557,2024-03-05T07:05:57Z,42.384,0.64,1.29,68.65,9,9,18,0.0,0.0,-0.01,20240305,70557,148,0,0,0,0,Manual,0,0,0,0,0,30,5000,0.0,0.0,0,5,0,0,0,0,0,0,0,0,0,0.0,0.0,0.0,Hover,,lost,100.0,0,0,0,0,0,0,0,0,0,1,0,339,-30,1577,1613.0,NaN,309,-124,1563,1598.0,NaN,235,-57,515,63,-19,448,,,,,,,,,,,,,,,,,,,,,,,,,,,,,,,,,,,,,,,,,,,,,,,,,,0.0,,0,0,0,0,22,22,22,22,48.59375,48.90625,48.90625,49.010418,48.958332,48.958332,48.958332,48.958332,0.0,0.0,0.0,0.0,16.2,16.1,16.0,16.1,0.0,0.0,0.0,0.0,0,0,0,0,0.0,0.0,0.0,0.0,0.0,180.0,0.0,0.0,0.0,0,Manual,OTHER,NONE,GPS_POSITION_NONMATCH,False,Connected,,P,False,False,False,0,0,,0.0,,,,,,0.0,0.0,0.0,0.0,NaN,NaN,NaN,0.0,0.0,0.0,0,0,0,16457,0,230.79773,12680.0,16443,-1226,4763,93,22,1,4117,0,5122,0.0,0.0,
