Clock:Tick#,Clock:offsetTime,IMU_ATTI(0):Longitude,IMU_ATTI(0):Latitude,IMU_ATTI(0):press:D,IMU_ATTI(0):alti:D,IMU_ATTI(0):relativeHeight:C,IMU_ATTI(0):absoluteHeight:C,IMU_ATTI(0):numSats,IMU_ATTI(0):roll:C,IMU_ATTI(0):pitch:C,IMU_ATTI(0):yaw:C,IMU_ATTI(0):accelX,IMU_ATTI(0):accelY,IMU_ATTI(0):accelZ,IMU_ATTI(0):accelComposite:C,IMU_ATTI(0):gyroX,IMU_ATTI(0):gyroY,IMU_ATTI(0):gyroZ,IMU_ATTI(0):gyroComposite:C,IMU_ATTI(0):velN,IMU_ATTI(0):velE,IMU_ATTI(0):velD,IMU_ATTI(0):velComposite:C,IMU_ATTI(0):velH:C,IMU_ATTI(0):magX,IMU_ATTI(0):magY,IMU_ATTI(0):magZ,IMU_ATTI(0):magMod:C,IMU_ATTI(0):temperature,IMU_ATTI(0):yawUnWrapped:C,IMU_ATTI(0):tiltInclination:C,IMU_ATTI(0):tiltDirectionEarthFrame:C,IMU_ATTI(0):tiltDirectionBodyFrame:C,IMU_ATTI(0):yaw360:C,IMU_ATTI(0):magYaw:C,IMU_ATTI(0):Yaw-magYaw:C,IMUCalcs(0):PosN:C,IMUCalcs(0):PosE:C,IMUCalcs(0):PosD:C,IMUCalcs(0):height:C,IMUCalcs(0):velN:C,IMUCalcs(0):velE:C,IMUCalcs(0):velD:C,IMUCalcs(0):diffVelN:C,IMUCalcs(0):diffVelE:C,IMUCalcs(0):diffVelD:C,IMUCalcs(0):Lat:C,IMUCalcs(0):Long:C,IMUCalcs(0):VelocityError:C,IMUCalcs(0):PositionError:C,IMUCalcs(0):totalGyroZ:C,IMUCalcs(0):totalGyroX:C,IMUCalcs(0):totalGyroY:C,IMU_ATTI(0):distanceHP:C,IMU_ATTI(0):distanceTravelled:C,IMU_ATTI(0):directionOfTravel[mag]:C,IMU_ATTI(0):directionOfTravel[true]:C,IMU_ATTI(0):quatW:D,IMU_ATTI(0):quatX:D,IMU_ATTI(0):quatY:D,IMU_ATTI(0):quatZ:D,IMU_ATTI(0):agX:D,IMU_ATTI(0):agY:D,IMU_ATTI(0):agZ:D,IMU_ATTI(0):gbX:D,IMU_ATTI(0):gbY:D,IMU_ATTI(0):gbZ:D,IMU_ATTI(0):ty:D,IMU_ATTI(0):tz:D,IMU_ATTI(0):sensor_stat:D,IMU_ATTI(0):filter_stat:D,IMU_ATTI(0):atti_cnt:D,GPS:Long,GPS:Lat,GPS:Date,GPS:Time,GPS:dateTimeStamp,GPS:heightMSL,GPS:hDOP,GPS:pDOP,GPS:sAcc,GPS:numGPS,GPS:numGLNAS,GPS:numSV,GPS:velN,GPS:velE,GPS:velD,GPS:rawDate,GPS:rawTime,Controller:ctrl_tick:D,Controller:ctrl_pitch:D,Controller:ctrl_roll:D,Controller:ctrl_yaw:D,Controller:ctrl_thr:D,Controller:ctrl_mode,Controller:mode_switch:D,Controller:motor_state:D,Controller:sig_level:D,Controller:ctrl_level:D,Controller:sim_model:D,Controller:max_height:D,Controller:max_radius:D,Controller:D2H_x:D,Controller:D2H_y:D,Controller:act_req_id:D,Controller:act_act_id:D,Controller:cmd_mod:D,Controller:mod_req_id:D,Controller:fw_flag:D,Controller:mot_sta:D,Controller:OH_take:D,Controller:OH_take_f:D,Controller:rc_cnt:D,Controller:sup_rc:D,Controller:is_soaring_up:D,Controller:soar_up_timer:D,Controller:vert_vel_err:D,Controller:vert_vel_err_fltr:D,RC_Info:failSafe,RC_Info:dataLost,RC_Info:appLost,RC_Info:sigStrength:C,RC_Info:cur_cmd:D,RC_Info:vedio_lost:D,RC_Info:frame_lost:D,RC_Info:rec_cnt:D,RC_Info:sky_con:D,RC_Info:gnd_con:D,RC_Info:connected:D,RC_Info:m_changed:D,RC_Info:arm_status:D,RC_Info:wifi_en:D,RC_Info:in_wifi:D,MagCali(0):X:D,MagCali(0):Y:D,MagCali(0):Z:D,MagCali(0):Mod:C,MagCali(0):magYaw:C,MagCali(1):X:D,MagCali(1):Y:D,MagCali(1):Z:D,MagCali(1):Mod:C,MagCali(1):magYaw:C,CompassFilter(0):X:D,CompassFilter(0):Y:D,CompassFilter(0):Z:D,CompassFilter(1):X:D,CompassFilter(1):Y:D,CompassFilter(1):Z:D,BatteryStatus:not_ready,BatteryStatus:comm_err,BatteryStatus:first_auth,BatteryStatus:auth_fail,BatteryStatus:need_re,BatteryStatus:volVerylow,BatteryStatus:volNotsafe,BatteryStatus:volLevel1:D,BatteryStatus:vollevel2:D,BatteryStatus:capLevel1:D,BatteryStatus:capLevel2:D,BatteryStatus:smartCap1:D,BatteryStatus:smartCap2:D,BatteryStatus:d_flg:D,BatteryStatus:ccsc:D,BatteryStatus:all:D,SMART_BATT:goHome%,SMART_BATT:land%,SMART_BATT:goHomeTime,SMART_BATT:landTime,OA:avoidObst,OA:emergBrake,OA:radiusLimit,OA:airportLimit,OA:groundForceLanding,OA:horizNearBoundary,OA:vertLowLimit,OA:vertAirportLimit,OA:roofLimit,OA:hitGroundLimit,OA:frontDistance,MVO:velX,MVO:velY,MVO:velZ,MVO:posX,MVO:posY,MVO:posZ,MVO:hoverPointUncertainty1,MVO:hoverPointUncertainty2,MVO:hoverPointUncertainty3,MVO:hoverPointUncertainty4,MVO:hoverPointUncertainty5,MVO:hoverPointUncertainty6,MVO:velocityUncertainty1,MVO:velocityUncertainty2,MVO:velocityUncertainty3,MVO:velocityUncertainty4,MVO:velocityUncertainty5,MVO:velocityUncertainty6,MVO:height,MVO:heightUncertainty,Motor:Speed:RFront,Motor:Speed:LFront,Motor:Speed:LBack,Motor:Speed:RBack,Motor:EscTemp:RFront,Motor:EscTemp:LFront,Motor:EscTemp:LBack,Motor:EscTemp:RBack,Motor:PPMrecv:RFront,Motor:PPMrecv:LFront,Motor:PPMrecv:LBack,Motor:PPMrecv:RBack,Motor:PPMsend:RFront,Motor:PPMsend:LFront,Motor:PPMsend:LBack,Motor:PPMsend:RBack,Motor:V_out:RFront,Motor:V_out:LFront,Motor:V_out:LBack,Motor:V_out:RBack,Motor:Volts:RFront,Motor:Volts:LFront,Motor:Volts:LBack,Motor:Volts:RBack,Motor:Current:RFront,Motor:Current:LFront,Motor:Current:LBack,Motor:Current:RBack,Motor:Status:RFront,Motor:Status:LFront,Motor:Status:LBack,Motor:Status:RBack,AirSpeed:air_vbx:D,AirSpeed:air_vby:D,AirSpeed:comp_alti:D,AirSpeed:windSpeed,AirSpeed:windDirection,AirSpeed:windFromDir,AirSpeed:windN,AirSpeed:windE,AirSpeed:MotorSpd:D,AirSpeed:vel_level:D,osd_data:flyCState,osd_data:flycCommand,osd_data:flightAction,osd_data:nonGPSCause,osd_data:compassError,osd_data:connectedToRC,osd_data:lowVoltage,osd_data:ModeSwitch,osd_data:gpsUsed,osd_data:visionUsed,osd_data:notEnoughForce,osd_data:flightTime,osd_data:navHealth,osd_data:vpsHeight,osd_data:relativeHeight,usonic:usonic_h,MotorCtrl:PWM:RFront,MotorCtrl:PWM:LFront,MotorCtrl:PWM:LBack,MotorCtrl:PWM:RBack,ATTI_MINI0:s_qw0,ATTI_MINI0:s_qx0,ATTI_MINI0:s_qy0,ATTI_MINI0:s_qz0,ATTI_MINI0:roll:C,ATTI_MINI0:pitch:C,ATTI_MINI0:yaw:C,ATTI_MINI0:s_pgz0,ATTI_MINI0:s_vgz0,ATTI_MINI0:s_agz0,ATTI_MINI0:s_rsv00,ATTI_MINI0:s_rsv10,ATTI_MINI0:s_cnt0,BatteryInfo:ad_v:D,BatteryInfo:r_time,BatteryInfo:ave_I:D,BatteryInfo:vol_t:D,BatteryInfo:pack_ve:D,BatteryInfo:I:D,BatteryInfo:r_cap:D,BatteryInfo:cap_per:D,BatteryInfo:temp:D,BatteryInfo:right:D,BatteryInfo:l_cell:D,BatteryInfo:dyna_cnt:D,BatteryInfo:f_cap:D,BatteryInfo:out_ctl:D,BatteryInfo:out_ctl_f:D,Attribute|Value,ConvertDatV3,4.3.0
0,-2.605,,,,,,,,,,,,,,,,,,,,,,,,,,,,,,,,,,,,,,,,,,,,,,,,,,,,,,,,,,,,,,,,,,,,,,,,,,,,,,,,,,,,,,,,,,,,,,,,,,,,,,,,,,,,,,,,,,,,,,,,,,,,,,,,,,,,,,,,,,,,,,,,,,,,,,,,,,,,,,,,,,,,,,,,,,,,,,,,,,,,,,,,,,,,,,,,,,,,,,,,,,,,,,,,,,,,,,,,,,,,,,,,,,,,,,,,,,,,,,,,,,,,,,,,,,,,,,,,,,,,,,,,,,,,,,,,,,,,,,,,,,,,,,,,,
11723446,.000,,,,,,,,,,,,,,,,,,,,,,,,,,,,,,,,,,,,,,,,,,,,,,,,,,,,,,,,,,,,,,,,,,,,,,,,,,,,,,,,,,,,,,,,,,,,,,,,,,,,,,,,,,,,,,,,,,,,,,,,,,,,,,,,,,,,,,,,,,,,,,,,,,,,,,,,,,,,,,,,,,,,,,,,,,,,,,,,,,,,,,,,,,,,,,,,,,,,,,0.0,,,,,,,,,,,,,,,,,,,,,,,,,,,,,,,,,,,,,,,,,,,,,,,,,,,P,,,,,,,,,,,,,,,,,,,,,,,,,,,,,,,,,,,,,,,,,Firmware Date| Nov 16 2017
17130408,1.202,,,,,,,,,,,,,,,,,,,,,,,,,,,,,,,,,,,,,,,,,,,,,,,,,,,,,,,,,,,,,,,,,,,,,,,,,,,,,,,,,,,,,,,,,,,,,,,,,,,,,,,,,,,,,,,,,,,,,,,,,,,,,,,,,,,,,,,,,,,,,,,,,,,,,,,,,,,,,,,,,,,,,,,,,,,,,,,,,,,,,,,,,,,,,,,,,,,,,,0.0,,,,,,,,,,,,,,,,,,,,,,,,,,,,,,,,,,,,,,,,,,,,,,,,,,,P,,,,,,,,,,,,,,,,,,,,,,,,,,,,,,,,,,,,,,,,,ACType|P4
21271298,2.122,,,,,,,,,,,,,,,,,,,,,,,,,,,,,,,,,,,,,,,,,,,,,,,,,,,,,,,,,,,,,,,,,,,,,,,,,,,,,,,,,,,,,,,,,,,,,,,,,,,,,,,,,,,,,,,,,,,,,,,,,,,,,,,,,,,,,,,,,,,,,,,,,,,,,,,,,,,,,,,,,,,,,,,,,,,,,,,,,,,,,,,,,,,,,,,,,,,,,,0.0,,,,,,,,,,,,,,,,,,,,,,,,,,,,,,,,,,,,,,,,,,,,,,,,,,,P,,,,,,,,,,,,,,,,,,,,,,,,,,,,,,,,,,,,,,,,,
21496369,2.172,,,,,,,,,,,,,,,,,,,,,,,,,,,,,,,,,,,,,,,,,,,,,,,,,,,,,,,,,,,,,,,,,,,,,,,,,,,,,,,,,,,,,,,,,,,,,,,,,,,,,,,,,,,,,,,,,,,,,,,,,,,,,,,,,,,,,,,,,,,,,,,,,,,,,,,,,,,,,,,,,,,,,,,,,,,,,,,,,,,,,,,,,,,,,,,,,,,,,,0.0,,,,,,,,,,,,,,,,,,,,,,,,,,,,,,,,,,,,,,,,,,,,,,,,,,,P,,,,,,,,,,,,,,,,,,,,,,,,,,,,,,,,,,,,,,,,,
21721387,2.222,,,0.0,-0.0,,,0,NaN,0.0,0.0,6.8747415E-4,-0.010048096,-0.112824455,0.1132731,0.62973315,0.3769114,-0.39728898,0.8345445,0.0,0.0,0.0,0.0,0.0,219,-23,513,558.0,0.0,0.0,NaN,NaN,NaN,0.0,NaN,NaN,0.0,0.0,0.0,-0.0,NaN,NaN,NaN,NaN,NaN,NaN,NaN,NaN,false,false,-9.947607154856541E-4,0.0015767711380192395,9.437378743086811E-4,,0.0,,,0.0,0.0,0.0,0.0,0.0,0.0,0.0,0.0,0.0,0.0,0,0,0,0,5,,,,,,,,,,,,,,,,,,,,,,,,,,,,,,,,,,,,,,,,,,,,,,,,,,,,,,,,,,,,,,219,-23,513,558.0,NaN,44,12,447,449.0,NaN,73,-7,171,14,4,149,,,,,,,,,,,,,,,,,,,,,,,,,,,,,,,,,,,,,,,,,,,,,,,,,,0.0,,,,,,,,,,,,,,,,,,,,,,,,,,,,,,,,,,,,,,,,,,,,,,,,,,,P,,,,,,,,,,,,,,,,,,,,,,,,,,,,,,,,,,,,,,,,,
23102929,2.529,,,0.0,-0.0,,,0,NaN,0.0,0.0,0.09733399,-0.0057197483,-1.0355386,1.0401186,0.11229248,-0.111763656,-0.26641202,0.3099614,0.0,0.0,0.0,0.0,0.0,290,71,1571,1599.0,0.0,0.0,NaN,NaN,NaN,0.0,NaN,NaN,0.0,0.0,0.0,-0.0,NaN,NaN,NaN,NaN,NaN,NaN,NaN,NaN,false,false,-0.013816715992501116,0.015351705401990046,0.009755269503997077,,0.0,,,0.0,0.0,0.0,0.0,0.0,0.0,0.0,0.0,0.0,0.0,0,0,0,0,23,,,,,,,,,,,,,,,,,,2,0,0,0,0,Manual,0,0,0,0,0,30,50,0.0,0.0,0,5,0,0,0,0,0,0,0,0,0,0.0,0.0,0.0,Hover,,lost,0.0,0,0,0,0,0,0,0,0,0,1,0,290,71,1571,1599.0,NaN,242,-31,1563,1581.0,NaN,256,-26,599,50,13,523,,,,,,,,,,,,,,,,,,,,,,,,,,,,,,,,,,,,,,,,,,,,,,,,,,0.0,,,,,,,,,,,,,,,,,,,,,,,,,,,,,,,,,,0.0,0.0,0.0,0.0,0.0,180.0,0.0,0.0,0.0,0,,,,,,,,P,,,,,,,,,,,,,0.0,0.0,0.0,0.0,NaN,NaN,NaN,0.0,0.0,0.0,0,0,0,977,0,0.0,0.0,0,0,0,0,0,1,0,0,0,0.0,0.0,
23327939,2.579,,,0.0,-0.0,,,19,NaN,0.0,0.0,0.090032235,-0.0050202906,-0.97491574,0.979077,0.0272741,-0.45257398,0.047804706,0.4559083,0.0,0.0,0.0,0.0,0.0,287,71,1571,1598.0,52.81,0.0,NaN,NaN,NaN,0.0,NaN,NaN,0.0,0.0,0.0,-0.0,NaN,NaN,NaN,NaN,NaN,NaN,NaN,NaN,false,false,-0.19958757032602037,0.05414692625418027,0.008878940843574767,,0.0,,,0.0,0.0,0.0,0.0,0.0,0.0,0.0,0.0,0.0,0.0,-2200,2753,0,0,147,,,,,,,,,,,,,,,,,,17,0,0,0,0,Manual,0,0,0,0,0,30,50,0.0,0.0,0,5,0,0,0,0,0,0,0,0,0,0.0,0.0,0.0,Hover,,lost,0.0,0,0,0,0,0,0,0,0,0,1,0,287,71,1571,1598.0,NaN,246,-34,1566,1585.0,NaN,218,-21,511,45,11,449,,,,,,,,,,,,,,,,,,,,,,,,,,,,,,,,,,,,,,,,,,,,,,,,,,0.0,,,,,,,,,,,,,,,,,,,,,,,,,,,,,,,,,,0.0,0.0,0.0,0.0,0.0,180.0,0.0,0.0,0.0,0,,,,,,,,P,,,,,,,,,,,,,0.0,0.0,0.0,0.0,NaN,NaN,NaN,0.0,0.0,0.0,0,0,0,14148,0,0.0,0.0,0,0,0,0,0,1,0,0,0,0.0,0.0,
23555420,2.629,,,0.0,-0.0,,,19,NaN,0.0,0.0,0.090018824,-0.0054980465,-0.97420144,0.97836703,0.18079086,-0.21145588,0.0135875475,0.27853823,0.0,0.0,0.0,0.0,0.0,287,77,1565,1592.0,52.77,0.0,NaN,NaN,NaN,0.0,NaN,NaN,0.0,0.0,0.0,-0.0,NaN,NaN,NaN,NaN,NaN,NaN,NaN,NaN,false,false,-0.20893322390811697,0.05810707208198779,0.002205121880537675,,0.0,,,0.0,0.0,0.0,0.0,0.0,0.0,0.0,0.0,0.0,0.0,-2200,2756,0,0,169,,,,,,,,,,,,,,,,,,20,0,0,0,0,Manual,0,0,0,0,0,30,50,0.0,0.0,0,5,0,0,0,0,0,0,0,0,0,0.0,0.0,0.0,Hover,,lost,0.0,0,0,0,0,0,0,0,0,0,1,0,287,77,1565,1592.0,NaN,239,-39,1563,1581.0,NaN,219,-19,511,42,9,448,,,,,,,,,,,,,,,,,,,,,,,,,,,,,,,,,,,,,,,,,,,,,,,,,,0.0,,,,,,,,,,,,,,,,,,,,,,,,,,,,,,,,,,0.0,0.0,0.0,0.0,0.0,180.0,0.0,0.0,0.0,0,Manual,OTHER,NONE,GPS_POSITION_NONMATCH,True,Connected,,P,False,False,False,0,0,,0.0,,,,,,0.0,0.0,0.0,0.0,NaN,NaN,NaN,0.0,0.0,0.0,0,0,0,14884,0,0.0,0.0,0,0,0,0,0,1,0,0,0,0.0,0.0,
23782417,2.680,,,0.0,-0.0,,,19,NaN,0.0,0.0,0.09133795,-0.007966228,-0.97336024,0.97766876,0.09632209,-0.16006373,-0.108258024,0.21591234,0.0,0.0,0.0,0.0,0.0,284,77,1565,1592.0,52.7,0.0,NaN,NaN,NaN,0.0,NaN,NaN,0.0,0.0,0.0,-0.0,NaN,NaN,NaN,NaN,NaN,NaN,NaN,NaN,false,false,-0.21879085592251224,0.06320472778480729,-0.0036961178166663444,,0.0,,,0.0,0.0,0.0,0.0,0.0,0.0,0.0,0.0,0.0,0.0,-2200,2756,0,0,189,,,,,,,,,,,,,,,,,,22,0,0,0,0,Manual,0,0,0,0,0,30,50,0.0,0.0,0,5,0,0,0,0,0,0,0,0,0,0.0,0.0,0.0,Hover,,lost,0.0,0,0,0,0,0,0,0,0,0,1,0,284,77,1565,1592.0,NaN,235,-34,1557,1575.0,NaN,218,-20,511,42,11,446,,,,,,,,,,,,,,,,,,,,,,,,,,,,,,,,,,,,,,,,,,,,,,,,,,0.0,,,,,,,,,,,,,,,,,,,,,,,,,,,,,,,,,,0.0,0.0,0.0,0.0,0.0,180.0,0.0,0.0,0.0,0,Manual,OTHER,NONE,GPS_POSITION_NONMATCH,True,Connected,,P,False,False,False,0,0,,0.0,,,,,,0.0,0.0,0.0,0.0,NaN,NaN,NaN,0.0,0.0,0.0,0,0,0,15240,0,0.0,0.0,0,0,0,0,0,1,0,0,0,0.0,0.0,
24116669,2.754,,,0.0,-0.0,,,19,NaN,0.0,0.0,0.09152605,-0.0067930985,-0.97311157,0.9774299,0.2483104,-0.13353872,-0.12123594,0.30690193,0.0,0.0,0.0,0.0,0.0,284,77,1565,1592.0,52.68,0.0,NaN,NaN,NaN,0.0,NaN,NaN,0.0,0.0,0.0,-0.0,NaN,NaN,NaN,NaN,NaN,NaN,NaN,NaN,false,false,-0.22953467457380095,0.06993634878184446,-0.009548098878360278,,0.0,,,0.0,0.0,0.0,0.0,0.0,0.0,0.0,0.0,0.0,0.0,-2200,2756,0,0,195,,,,,,,,,,,,,,,,,,23,0,0,0,0,Manual,0,0,0,0,0,30,50,0.0,0.0,0,5,0,0,0,0,0,0,0,0,0,0.0,0.0,0.0,Hover,,lost,0.0,0,0,0,0,0,0,0,0,0,1,0,284,77,1565,1592.0,NaN,235,-34,1566,1583.0,NaN,218,-20,511,41,12,446,,,,,,,,,,,,,,,,,,,,,,,,,,,,,,,,,,,,,,,,,,,,,,,,,,0.0,,,,,,,,,,,,,,,,,,,,,,,,,,,,,,,,,,0.0,0.0,0.0,0.0,0.0,180.0,0.0,0.0,0.0,0,Manual,OTHER,NONE,GPS_POSITION_NONMATCH,True,Connected,,P,False,False,False,0,0,,0.0,,,,,,0.0,0.0,0.0,0.0,NaN,NaN,NaN,0.0,0.0,0.0,0,0,0,15387,0,0.0,0.0,0,0,0,0,0,1,0,0,0,0.0,0.0,
24342221,2.804,,,-111.97735,-0.0,,,19,NaN,0.0,0.0,0.0912359,-0.0054772953,-0.9743169,0.9785946,0.13350035,-0.11854593,-0.24894954,0.3063517,0.0,0.0,0.0,0.0,0.0,284,77,1568,1595.0,52.64,0.0,NaN,NaN,NaN,0.0,NaN,NaN,0.0,0.0,0.0,-0.0,NaN,NaN,NaN,NaN,NaN,NaN,NaN,NaN,false,false,-0.24116067768772753,0.08099886989733734,-0.021147392691804212,,0.0,,,0.0,0.0,0.0,0.0,0.0,0.0,0.0,0.0,0.0,0.0,-2200,2752,0,0,215,,,,,,,,,,,,,,,,,,26,0,0,0,0,Manual,0,0,0,0,0,30,5000,0.0,0.0,0,5,0,0,0,0,0,0,0,0,0,0.0,0.0,0.0,Hover,,lost,0.0,0,0,0,0,0,0,0,0,0,1,0,284,77,1568,1595.0,NaN,239,-37,1572,1590.0,NaN,219,-20,512,41,10,449,,,,,,,,,,,,,,,,,,,,,,,,,,,,,,,,,,,,,,,,,,,,,,,,,,0.0,,,,,,,,,,,,,,,,,,,,,,,,,,,,,,,,,,0.0,0.0,0.0,0.0,0.0,180.0,0.0,0.0,0.0,0,Manual,OTHER,NONE,GPS_POSITION_NONMATCH,True,Connected,,P,False,False,False,0,0,,0.0,,,,,,0.0,0.0,0.0,0.0,NaN,NaN,NaN,0.0,0.0,0.0,0,0,0,15631,0,0.0,0.0,0,0,0,0,0,1,0,0,0,0.0,0.0,
24567260,2.854,,,-111.192696,-0.0,,,19,NaN,0.0,0.0,0.09062881,-0.006938773,-0.9759268,0.98015046,0.064505145,-0.24799147,-0.24633865,0.3554482,0.0,0.0,0.0,0.0,0.0,281,74,1565,1591.0,52.56,0.0,NaN,NaN,NaN,0.0,NaN,NaN,0.0,0.0,0.0,-0.0,NaN,NaN,NaN,NaN,NaN,NaN,NaN,NaN,false,false,-0.2507833088811915,0.0824947583693903,-0.029656072437700187,,0.0,,,0.0,0.0,0.0,0.0,0.0,0.0,0.0,0.0,0.0,0.0,-2200,2752,0,0,235,,,,,,,,,,,,,,,,,,28,0,0,0,0,Manual,0,0,0,0,0,30,5000,0.0,0.0,0,5,0,0,0,0,0,0,0,0,0,0.0,0.0,0.0,Hover,,lost,0.0,0,0,0,0,0,0,0,0,0,1,0,281,74,1565,1591.0,NaN,239,-28,1563,1581.0,NaN,217,-22,512,42,13,448,,,,,,,,,,,,,,,,,,,,,,,,,,,,,,,,,,,,,,,,,,,,,,,,,,0.0,,,,,,,,,,,,,,,,,,,,,,,,,,,,,,,,,,0.0,0.0,0.0,0.0,0.0,180.0,0.0,0.0,0.0,0,Manual,OTHER,NONE,GPS_POSITION_NONMATCH,True,Connected,,P,False,False,False,0,0,,0.0,,,,,,0.0,0.0,0.0,0.0,NaN,NaN,NaN,0.0,0.0,0.0,0,0,0,15899,0,0.0,0.0,0,0,0,0,0,1,0,0,0,0.0,0.0,
24792324,2.904,,,-111.94575,-0.0,,,19,NaN,0.0,0.0,0.09059956,-0.0063196123,-0.9734618,0.97768915,0.16131772,-0.2239916,-0.20716116,0.34512517,0.0,0.0,0.0,0.0,0.0,290,66,1571,1598.0,52.56,0.0,NaN,NaN,NaN,0.0,NaN,NaN,0.0,0.0,0.0,-0.0,NaN,NaN,NaN,NaN,NaN,NaN,NaN,NaN,false,false,-0.25965489118206897,0.08557609087659984,-0.03825166013093351,,0.0,,,0.0,0.0,0.0,0.0,0.0,0.0,0.0,0.0,0.0,0.0,-2200,2756,0,0,255,,,,,,,,,,,,,,,,,,31,0,0,0,0,Manual,0,0,0,0,0,30,5000,0.0,0.0,0,5,0,0,0,0,0,0,0,0,0,0.0,0.0,0.0,Hover,,lost,0.0,0,0,0,0,0,0,0,0,0,1,0,290,66,1571,1598.0,NaN,239,-34,1560,1578.0,NaN,220,-23,512,43,12,447,,,,,,,,,,,,,,,,,,,,,,,,,,,,,,,,,,,,,,,,,,,,,,,,,,0.0,,,,,,,,,,,,,,,,,,,,,,,,,,,,,,,,,,0.0,0.0,0.0,0.0,0.0,180.0,0.0,0.0,0.0,0,Manual,OTHER,NONE,GPS_POSITION_NONMATCH,True,Connected,,P,False,False,False,0,0,,0.0,,,,,,0.0,0.0,0.0,0.0,NaN,NaN,NaN,0.0,0.0,0.0,0,0,0,16029,0,0.0,0.0,0,0,0,0,0,1,0,0,0,0.0,0.0,
25017408,2.954,,,-111.72667,-0.0,,,0,NaN,0.0,0.0,0.09106251,-0.005279245,-0.9743175,0.978578,0.09853147,-0.07719032,-0.20904519,0.2436528,0.0,0.0,0.0,0.0,0.0,281,80,1568,1594.0,52.48,0.0,NaN,NaN,NaN,0.0,NaN,NaN,0.0,0.0,0.0,-0.0,NaN,NaN,NaN,NaN,NaN,NaN,NaN,NaN,false,false,-0.268982892581053,0.08774722470993729,-0.0458334830669791,,0.0,,,0.0,0.0,0.0,0.0,0.0,0.0,0.0,0.0,0.0,0.0,-2200,2756,0,0,275,26.7255497,58.3893733,20240305,70730,2024-03-05T07:07:30Z,39.094,99.99,99.99,113.83,0,0,0,0.0,0.0,0.0,20240305,70730,33,0,0,0,0,Manual,0,0,0,0,0,30,5000,0.0,0.0,0,5,0,0,0,0,0,0,0,0,0,0.0,0.0,0.0,Hover,,lost,100.0,0,0,0,0,0,0,0,0,0,1,0,281,80,1568,1594.0,NaN,242,-34,1560,1579.0,NaN,219,-19,511,41,12,447,,,,,,,,,,,,,,,,,,,,,,,,,,,,,,,,,,,,,,,,,,,,,,,,,,0.0,,,,,,,,,,,,,,,,,,,,,,,,,,,,,,,,,,0.0,0.0,0.0,0.0,0.0,180.0,0.0,0.0,0.0,0,Manual,OTHER,NONE,GPS_POSITION_NONMATCH,True,Connected,,P,False,False,False,0,0,,0.0,,,,,,0.0,0.0,0.0,0.0,NaN,NaN,NaN,0.0,0.0,0.0,0,0,0,16172,0,0.0,0.0,0,0,0,0,0,1,0,0,0,0.0,0.0,
25242431,3.004,,,-111.91046,-0.0,,,0,NaN,0.0,0.0,0.09090877,-0.006480719,-0.9758895,0.9801361,0.122636564,-0.10519484,-0.18507369,0.24567854,0.0,0.0,0.0,0.0,0.0,290,74,1562,1590.0,52.49,0.0,NaN,NaN,NaN,0.0,NaN,NaN,0.0,0.0,0.0,-0.0,NaN,NaN,NaN,NaN,NaN,NaN,NaN,NaN,false,false,-0.2769169475787253,0.09167230055020154,-0.05493095916297075,,0.0,,,0.0,0.0,0.0,0.0,0.0,0.0,0.0,0.0,0.0,0.0,-2200,2759,0,0,295,26.7255497,58.3893733,20240305,70730,2024-03-05T07:07:30Z,39.094,99.99,99.99,113.83,0,0,0,0.0,0.0,0.0,20240305,70730,36,0,0,0,0,Manual,0,0,0,0,0,30,5000,0.0,0.0,0,5,0,0,0,0,0,0,0,0,0,0.0,0.0,0.0,Hover,,lost,100.0,0,0,0,0,0,0,0,0,0,1,0,290,74,1562,1590.0,NaN,239,-34,1566,1584.0,NaN,220,-20,510,43,11,448,,,,,,,,,,,,,,,,,,,,,,,,,,,,,,,,,,,,,,,,,,,,,,,,,,0.0,,,,,,,,,,,,,,,,,,,,,,,,,,,,,,,,,,0.0,0.0,0.0,0.0,0.0,180.0,0.0,0.0,0.0,0,Manual,OTHER,NONE,GPS_POSITION_NONMATCH,True,Connected,,P,False,False,False,0,0,,0.0,,,,,,0.0,0.0,0.0,0.0,NaN,NaN,NaN,0.0,0.0,0.0,0,0,0,16240,0,0.0,0.0,0,0,0,0,0,1,0,0,0,0.0,0.0,
25467593,3.054,,,-111.23114,-0.0,,,0,NaN,0.0,0.0,0.09129438,-0.0060736835,-0.97722626,0.9815002,0.09155611,-0.21708632,-0.13765243,0.27286842,0.0,0.0,0.0,0.0,0.0,290,71,1571,1599.0,52.45,0.0,NaN,NaN,NaN,0.0,NaN,NaN,0.0,0.0,0.0,-0.0,NaN,NaN,NaN,NaN,NaN,NaN,NaN,NaN,false,false,-0.285111935005543,0.09582369406608032,-0.062419898567249055,,0.0,,,0.0,0.0,0.0,0.0,0.0,0.0,0.0,0.0,0.0,0.0,-2200,2759,0,0,315,26.7255497,58.3893733,20240305,70730,2024-03-05T07:07:30Z,39.094,99.99,99.99,113.83,0,0,0,0.0,0.0,0.0,20240305,70730,38,0,0,0,0,Manual,0,0,0,0,0,30,5000,0.0,0.0,0,5,0,0,0,0,0,0,0,0,0,0.0,0.0,0.0,Hover,,lost,100.0,0,0,0,0,0,0,0,0,0,1,0,290,71,1571,1599.0,NaN,239,-28,1563,1581.0,NaN,220,-22,513,44,11,446,,,,,,,,,,,,,,,,,,,,,,,,,,,,,,,,,,,,,,,,,,,,,,,,,,0.0,,,,,,,,,,,,,,,,,,,,,,,,,,,,,,,,,,0.0,0.0,0.0,0.0,0.0,180.0,0.0,0.0,0.0,0,Manual,OTHER,NONE,GPS_POSITION_NONMATCH,True,Connected,,P,False,False,False,0,0,,0.0,,,,,,0.0,0.0,0.0,0.0,NaN,NaN,NaN,0.0,0.0,0.0,0,0,0,16315,0,19.601366,12800.0,16443,-976,0,90,25,1,4112,0,0,0.0,0.0,
25692655,3.104,,,-111.79723,-0.0,,,0,NaN,0.0,0.0,0.09128209,-0.0062009823,-0.97587484,0.9801544,0.055602636,-0.1326409,-0.069736406,0.15983875,0.0,0.0,0.0,0.0,0.0,284,71,1577,1603.0,52.45,0.0,NaN,NaN,NaN,0.0,NaN,NaN,0.0,0.0,0.0,-0.0,NaN,NaN,NaN,NaN,NaN,NaN,NaN,NaN,false,false,-0.2940209626713389,0.09847485001547435,-0.07047891874919343,,0.0,,,0.0,0.0,0.0,0.0,0.0,0.0,0.0,0.0,0.0,0.0,-2200,2761,0,0,335,26.7255497,58.3893733,20240305,70731,2024-03-05T07:07:31Z,39.094,99.99,99.99,132.72,0,0,0,0.0,0.0,0.0,20240305,70731,41,0,0,0,0,Manual,0,0,0,0,0,30,5000,0.0,0.0,0,5,0,0,0,0,0,0,0,0,0,0.0,0.0,0.0,Hover,,lost,100.0,0,0,0,0,0,0,0,0,0,1,0,284,71,1577,1603.0,NaN,239,-34,1569,1587.0,NaN,219,-21,514,42,12,450,,,,,,,,,,,,,,,,,,,,,,,,,,,,,,,,,,,,,,,,,,,,,,,,,,0.0,,,,,,,,,,,,,,,,,,,,,,,,,,,,,,,,,,0.0,0.0,0.0,0.0,0.0,180.0,0.0,0.0,0.0,0,Manual,OTHER,NONE,GPS_POSITION_NONMATCH,True,Connected,,P,False,False,False,0,0,,0.0,,,,,,0.0,0.0,0.0,0.0,NaN,NaN,NaN,0.0,0.0,0.0,0,0,0,16351,0,19.601366,12800.0,16443,-976,0,90,25,1,4112,0,0,0.0,0.0,dateTime|2024-3-5 7:7:31 GMT
25918495,3.154,,,-112.24804,-0.0,,,0,NaN,0.0,0.0,0.09167032,-0.0065855524,-0.97748035,0.98179156,0.17673557,-0.14025556,-0.11012974,0.251069,0.0,0.0,0.0,0.0,0.0,290,80,1568,1596.0,52.39,0.0,NaN,NaN,NaN,0.0,NaN,NaN,0.0,0.0,0.0,-0.0,NaN,NaN,NaN,NaN,NaN,NaN,NaN,NaN,false,false,-0.3029395420394314,0.10114314411584185,-0.08100431268750552,,0.0,,,0.0,0.0,0.0,0.0,0.0,0.0,0.0,0.0,0.0,0.0,-2200,2761,0,0,355,26.7255497,58.3893733,20240305,70731,2024-03-05T07:07:31Z,39.094,99.99,99.99,132.72,0,0,0,0.0,0.0,0.0,20240305,70731,43,0,0,0,0,Manual,0,0,0,0,0,30,5000,0.0,0.0,0,5,0,0,0,0,0,0,0,0,0,0.0,0.0,0.0,Hover,,lost,100.0,0,0,0,0,0,0,0,0,0,1,0,290,80,1568,1596.0,NaN,235,-37,1563,1581.0,NaN,219,-20,512,42,12,450,,,,,,,,,,,,,,,,,,,,,,,,,,,,,,,,,,,,,,,,,,,,,,,,,,0.0,,,,,,,,,,,,,,,,,,,,,,,,,,,,,,,,,,0.0,0.0,0.0,0.0,0.0,180.0,0.0,0.0,0.0,0,Manual,OTHER,NONE,GPS_POSITION_NONMATCH,True,Connected,,P,False,False,False,0,0,,0.0,,,,,,0.0,0.0,0.0,0.0,NaN,NaN,NaN,0.0,0.0,0.0,0,0,0,16389,0,19.601366,12800.0,16443,-976,0,90,25,1,4112,0,0,0.0,0.0,
26143520,3.204,,,-112.39867,-0.0,,,0,NaN,0.0,0.0,0.09127888,-0.0069151437,-0.9762694,0.9805517,-0.045036428,-0.22626136,-0.16432883,0.28324273,0.0,0.0,0.0,0.0,0.0,284,68,1571,1597.0,52.4,0.0,NaN,NaN,NaN,0.0,NaN,NaN,0.0,0.0,0.0,-0.0,NaN,NaN,NaN,NaN,NaN,NaN,NaN,NaN,false,false,-0.31032314648752735,0.10369565346158932,-0.08948258234831807,,0.0,,,0.0,0.0,0.0,0.0,0.0,0.0,0.0,0.0,0.0,0.0,-2200,2762,0,0,375,26.7255497,58.3893733,20240305,70731,2024-03-05T07:07:31Z,39.094,99.99,99.99,132.72,0,0,0,0.0,0.0,0.0,20240305,70731,46,0,0,0,0,Manual,0,0,0,0,0,30,5000,0.0,0.0,0,5,0,0,0,0,0,0,0,0,0,0.0,0.0,0.0,Hover,,lost,100.0,0,0,0,0,0,0,0,0,0,1,0,284,68,1571,1597.0,NaN,239,-34,1572,1590.0,NaN,219,-22,512,42,11,450,,,,,,,,,,,,,,,,,,,,,,,,,,,,,,,,,,,,,,,,,,,,,,,,,,0.0,,,,,,,,,,,,,,,,,,,,,,,,,,,,,,,,,,0.0,0.0,0.0,0.0,0.0,180.0,0.0,0.0,0.0,0,Manual,OTHER,NONE,GPS_POSITION_NONMATCH,True,Connected,,P,False,False,False,0,0,,0.0,,,,,,0.0,0.0,0.0,0.0,NaN,NaN,NaN,0.0,0.0,0.0,0,0,0,16408,0,19.601366,12800.0,16443,-976,0,90,25,1,4112,0,0,0.0,0.0,
26368526,3.254,,,-112.03054,-0.0,,,0,NaN,0.0,0.0,0.09182129,-0.005781279,-0.9762827,0.9806082,0.050964724,-0.11722115,-0.15100238,0.19783811,0.0,0.0,0.0,0.0,0.0,287,68,1571,1598.0,52.39,0.0,NaN,NaN,NaN,0.0,NaN,NaN,0.0,0.0,0.0,-0.0,NaN,NaN,NaN,NaN,NaN,NaN,NaN,NaN,false,false,-0.31904500728336505,0.10621669168305864,-0.09711713059652705,,0.0,,,0.0,0.0,0.0,0.0,0.0,0.0,0.0,0.0,0.0,0.0,-2200,2762,0,0,395,26.7255497,58.3893733,20240305,70731,2024-03-05T07:07:31Z,39.094,99.99,99.99,132.72,0,0,0,0.0,0.0,0.0,20240305,70731,48,0,0,0,0,Manual,0,0,0,0,0,30,5000,0.0,0.0,0,5,0,0,0,0,0,0,0,0,0,0.0,0.0,0.0,Hover,,lost,100.0,0,0,0,0,0,0,0,0,0,1,0,287,68,1571,1598.0,NaN,235,-34,1566,1583.0,NaN,220,-21,512,41,12,447,,,,,,,,,,,,,,,,,,,,,,,,,,,,,,,,,,,,,,,,,,,,,,,,,,0.0,,,,,,,,,,,,,,,,,,,,,,,,,,,,,,,,,,0.0,0.0,0.0,0.0,0.0,180.0,0.0,0.0,0.0,0,Manual,OTHER,NONE,GPS_POSITION_NONMATCH,True,Connected,,P,False,False,False,0,0,,0.0,,,,,,0.0,0.0,0.0,0.0,NaN,NaN,NaN,0.0,0.0,0.0,0,0,0,16427,0,19.601366,12800.0,16443,-976,0,90,25,1,4112,0,0,0.0,0.0,
26594372,3.305,,,-112.225395,-0.0,,,0,NaN,0.0,0.0,0.09207758,-0.006467602,-0.977515,0.9818634,-0.06868725,-0.059001297,-0.16232666,0.1858737,0.0,0.0,0.0,0.0,0.0,281,74,1574,1600.0,52.41,0.0,NaN,NaN,NaN,0.0,NaN,NaN,0.0,0.0,0.0,-0.0,NaN,NaN,NaN,NaN,NaN,NaN,NaN,NaN,false,false,-0.3253436223634085,0.10977720878119607,-0.1075900773685372,,0.0,,,0.0,0.0,0.0,0.0,0.0,0.0,0.0,0.0,0.0,0.0,-2200,2763,0,0,415,26.7255497,58.3893733,20240305,70731,2024-03-05T07:07:31Z,39.094,99.99,99.99,132.72,0,0,0,0.0,0.0,0.0,20240305,70731,51,0,0,0,0,Manual,0,0,0,0,0,30,5000,0.0,0.0,0,5,0,0,0,0,0,0,0,0,0,0.0,0.0,0.0,Hover,,lost,100.0,0,0,0,0,0,0,0,0,0,1,0,281,74,1574,1600.0,NaN,239,-31,1560,1578.0,NaN,217,-21,513,43,12,447,,,,,,,,,,,,,,,,,,,,,,,,,,,,,,,,,,,,,,,,,,,,,,,,,,0.0,,,,,,,,,,,,,,,,,,,,,,,,,,,,,,,,,,0.0,0.0,0.0,0.0,0.0,180.0,0.0,0.0,0.0,0,Manual,OTHER,NONE,GPS_POSITION_NONMATCH,True,Connected,,P,False,False,False,0,0,,0.0,,,,,,0.0,0.0,0.0,0.0,NaN,NaN,NaN,0.0,0.0,0.0,0,0,0,16435,0,19.601366,12800.0,16443,-976,0,90,25,1,4112,0,0,0.0,0.0,
26821664,3.355,,,-111.59608,-0.0,,,0,NaN,0.0,0.0,0.091520585,-0.0067628035,-0.97705054,0.9813509,0.019126758,-0.22965033,-0.27330282,0.35749063,0.0,0.0,0.0,0.0,0.0,284,66,1571,1597.0,52.37,0.0,NaN,NaN,NaN,0.0,NaN,NaN,0.0,0.0,0.0,-0.0,NaN,NaN,NaN,NaN,NaN,NaN,NaN,NaN,false,false,-0.3340061944671322,0.11244391879432197,-0.11694725119556959,,0.0,,,0.0,0.0,0.0,0.0,0.0,0.0,0.0,0.0,0.0,0.0,-2200,2763,0,0,437,26.7255497,58.3893733,20240305,70731,2024-03-05T07:07:31Z,39.094,99.99,99.99,132.72,0,0,0,0.0,0.0,0.0,20240305,70731,53,0,0,0,0,Manual,0,0,0,0,0,30,5000,0.0,0.0,0,5,0,0,0,0,0,0,0,0,0,0.0,0.0,0.0,Hover,,lost,100.0,0,0,0,0,0,0,0,0,0,1,0,284,66,1571,1597.0,NaN,235,-31,1572,1589.0,NaN,219,-23,511,43,12,449,,,,,,,,,,,,,,,,,,,,,,,,,,,,,,,,,,,,,,,,,,,,,,,,,,0.0,,,,,,,,,,,,,,,,,,,,,,,,,,,,,,,,,,0.0,0.0,0.0,0.0,0.0,180.0,0.0,0.0,0.0,0,Manual,OTHER,NONE,GPS_POSITION_NONMATCH,False,Connected,,P,False,False,False,0,0,,0.0,,,,,,0.0,0.0,0.0,0.0,NaN,NaN,NaN,0.0,0.0,0.0,0,0,0,16442,0,19.601366,12800.0,16443,-976,0,90,25,1,4112,0,0,0.0,0.0,
27046725,3.405,,,-112.04107,-0.0,,,16,NaN,0.0,0.0,0.09167802,-0.0064407205,-0.9774768,0.98178774,0.039669298,-0.1241194,-0.2111254,0.24809921,0.0,0.0,0.0,0.0,0.0,287,77,1562,1590.0,52.35,0.0,NaN,NaN,NaN,0.0,NaN,NaN,0.0,0.0,0.0,-0.0,NaN,NaN,NaN,NaN,NaN,NaN,NaN,NaN,false,false,-0.3410806114951419,0.11608913822429234,-0.12599430476126172,,0.0,,,0.0,0.0,0.0,0.0,0.0,0.0,0.0,0.0,0.0,0.0,-2200,2765,0,0,457,26.7256699,58.3893921,,,,,0.73,1.83,795.24,10,6,16,,,,20240305,70731,56,0,0,0,0,Manual,0,0,0,0,0,30,5000,0.0,0.0,0,5,0,0,0,0,0,0,0,0,0,0.0,0.0,0.0,Hover,,lost,100.0,0,0,0,0,0,0,0,0,0,1,0,287,77,1562,1590.0,NaN,239,-28,1560,1578.0,NaN,219,-20,510,42,14,447,,,,,,,,,,,,,,,,,,,,,,,,,,,,,,,,,,,,,,,,,,,,,,,,,,0.0,,,,,,,,,,,,,,,,,,,,,,,,,,,,,,,,,,0.0,0.0,0.0,0.0,0.0,180.0,0.0,0.0,0.0,0,Manual,OTHER,NONE,GPS_POSITION_NONMATCH,False,Connected,,P,False,False,False,0,0,,0.0,,,,,,0.0,0.0,0.0,0.0,NaN,NaN,NaN,0.0,0.0,0.0,0,0,0,16449,0,19.601366,12800.0,16443,-976,0,90,25,1,4112,0,0,0.0,0.0,
27271786,3.455,,,-111.97314,-0.0,,,16,NaN,0.0,0.0,0.09078029,-0.0052500386,-0.9775848,0.9818048,0.11166227,-0.15484989,-0.14094503,0.23730244,0.0,0.0,0.0,0.0,0.0,287,74,1568,1595.0,52.38,0.0,NaN,NaN,NaN,0.0,NaN,NaN,0.0,0.0,0.0,-0.0,NaN,NaN,NaN,NaN,NaN,NaN,NaN,NaN,false,false,-0.34841746697022863,0.11902444925435973,-0.13524051815913807,,0.0,,,0.0,0.0,0.0,0.0,0.0,0.0,0.0,0.0,0.0,0.0,-2200,2765,0,0,477,26.7256699,58.3893921,,,,,0.73,1.83,795.24,10,6,16,,,,20240305,70731,58,0,0,0,0,Manual,0,0,0,0,0,30,5000,0.0,0.0,0,5,0,0,0,0,0,0,0,0,0,0.0,0.0,0.0,Hover,,lost,100.0,0,0,0,0,0,0,0,0,0,1,0,287,74,1568,1595.0,NaN,242,-31,1560,1578.0,NaN,220,-23,513,41,12,449,,,,,,,,,,,,,,,,,,,,,,,,,,,,,,,,,,,,,,,,,,,,,,,,,,0.0,,,,,,,,,,,,,,,,,,,,,,,,,,,,,,,,,,0.0,0.0,0.0,0.0,0.0,180.0,0.0,0.0,0.0,0,Manual,OTHER,NONE,GPS_POSITION_NONMATCH,False,Connected,,P,False,False,False,0,0,,0.0,,,,,,0.0,0.0,0.0,0.0,NaN,NaN,NaN,0.0,0.0,0.0,0,0,0,16453,0,19.601366,12800.0,16443,-976,0,90,25,1,4112,0,0,0.0,0.0,
27496912,3.505,,,-111.84358,-0.0,,,16,NaN,0.0,0.0,0.09251434,-0.006263137,-0.9790818,0.9834629,-0.027018467,-0.22581662,-0.115250744,0.2549625,0.0,0.0,0.0,0.0,0.0,281,77,1568,1594.0,52.38,0.0,NaN,NaN,NaN,0.0,NaN,NaN,0.0,0.0,0.0,-0.0,NaN,NaN,NaN,NaN,NaN,NaN,NaN,NaN,false,false,-0.3541752404338551,0.12244456715356458,-0.14566619163599426,,0.0,,,0.0,0.0,0.0,0.0,0.0,0.0,0.0,0.0,0.0,0.0,-2200,2766,0,0,497,26.7256699,58.3893921,,,,,0.73,1.83,795.24,10,6,16,,,,20240305,70731,61,0,0,0,0,Manual,0,0,0,0,0,30,5000,0.0,0.0,0,5,0,0,0,0,0,0,0,0,0,0.0,0.0,0.0,Hover,,lost,100.0,0,0,0,0,0,0,0,0,0,1,0,281,77,1568,1594.0,NaN,235,-31,1560,1577.0,NaN,217,-19,511,42,13,446,,,,,,,,,,,,,,,,,,,,,,,,,,,,,,,,,,,,,,,,,,,,,,,,,,0.0,,,,,,,,,,,,,,,,,,,,,,,,,,,,,,,,,,0.0,0.0,0.0,0.0,0.0,180.0,0.0,0.0,0.0,0,Manual,OTHER,NONE,GPS_POSITION_NONMATCH,False,Connected,,P,False,False,False,0,0,,0.0,,,,,,0.0,0.0,0.0,0.0,NaN,NaN,NaN,0.0,0.0,0.0,0,0,0,16455,0,19.601366,12800.0,16443,-976,0,90,25,1,4112,0,0,0.0,0.0,
27721996,3.555,,,-112.25594,-0.0,,,16,NaN,0.0,0.0,0.09189061,-0.0063922713,-0.98128164,0.9855954,0.059583195,-0.2360762,-0.034547884,0.24591805,0.0,0.0,0.0,0.0,0.0,284,74,1571,1598.0,52.41,0.0,NaN,NaN,NaN,0.0,NaN,NaN,0.0,0.0,0.0,-0.0,NaN,NaN,NaN,NaN,NaN,NaN,NaN,NaN,false,false,-0.35997260645378665,0.12577127312962968,-0.1566655004606312,,0.0,,,0.0,0.0,0.0,0.0,0.0,0.0,0.0,0.0,0.0,0.0,-2200,2766,0,0,517,26.7256699,58.3893921,,,,,0.73,1.83,795.24,10,6,16,,,,20240305,70731,63,0,0,0,0,Manual,0,0,0,0,0,30,5000,0.0,0.0,0,5,0,0,0,0,0,0,0,0,0,0.0,0.0,0.0,Hover,,lost,100.0,0,0,0,0,0,0,0,0,0,1,0,284,74,1571,1598.0,NaN,239,-34,1563,1581.0,NaN,219,-21,512,42,14,448,,,,,,,,,,,,,,,,,,,,,,,,,,,,,,,,,,,,,,,,,,,,,,,,,,0.0,,,,,,,,,,,,,,,,,,,,,,,,,,,,,,,,,,0.0,0.0,0.0,0.0,0.0,180.0,0.0,0.0,0.0,0,Manual,OTHER,NONE,GPS_POSITION_NONMATCH,False,Connected,,P,False,False,False,0,0,,0.0,,,,,,0.0,0.0,0.0,0.0,NaN,NaN,NaN,0.0,0.0,0.0,0,0,0,16456,0,19.601366,12800.0,16443,-976,0,90,25,1,4112,0,0,0.0,0.0,
27947103,3.605,,,-112.21697,-0.0,,,16,NaN,0.0,0.0,0.09187005,-0.0051725483,-0.9800535,0.9843636,0.18081003,-0.21881333,-0.23965827,0.3714938,0.0,0.0,0.0,0.0,0.0,281,71,1571,1597.0,52.43,0.0,NaN,NaN,NaN,0.0,NaN,NaN,0.0,0.0,0.0,-0.0,NaN,NaN,NaN,NaN,NaN,NaN,NaN,NaN,false,false,-0.36545817010243214,0.12903135138813673,-0.16887426093222024,,0.0,,,0.0,0.0,0.0,0.0,0.0,0.0,0.0,0.0,0.0,0.0,-2200,2766,0,0,537,26.7256699,58.3893921,,,,,0.73,1.83,795.24,10,6,16,,,,20240305,70731,65,0,0,0,0,Manual,0,0,0,0,0,30,5000,0.0,0.0,0,5,0,0,0,0,0,0,0,0,0,0.0,0.0,0.0,Hover,,lost,100.0,0,0,0,0,0,0,0,0,0,1,0,281,71,1571,1597.0,NaN,242,-34,1566,1584.0,NaN,218,-21,513,44,11,448,,,,,,,,,,,,,,,,,,,,,,,,,,,,,,,,,,,,,,,,,,,,,,,,,,0.0,,,,,,,,,,,,,,,,,,,,,,,,,,,,,,,,,,0.0,0.0,0.0,0.0,0.0,180.0,0.0,0.0,0.0,0,Manual,OTHER,NONE,GPS_POSITION_NONMATCH,False,Connected,,P,False,False,False,0,0,,0.0,,,,,,0.0,0.0,0.0,0.0,NaN,NaN,NaN,0.0,0.0,0.0,0,0,0,16456,0,19.601366,12800.0,16443,-976,0,90,25,1,4112,0,0,0.0,0.0,
28173879,3.656,,,-111.467575,-0.0,,,16,NaN,0.0,0.0,0.09151038,-0.0059470385,-0.9801666,0.9844471,0.071594216,-0.26759753,-0.0045221588,0.27704623,0.0,0.0,0.0,0.0,0.0,281,66,1571,1597.0,52.47,0.0,NaN,NaN,NaN,0.0,NaN,NaN,0.0,0.0,0.0,-0.0,NaN,NaN,NaN,NaN,NaN,NaN,NaN,NaN,false,false,-0.37241745540359944,0.1322649118572188,-0.1800882563113395,,0.0,,,0.0,0.0,0.0,0.0,0.0,0.0,0.0,0.0,0.0,0.0,-2200,2766,0,0,557,26.7256699,58.3893921,,,,,0.73,1.83,795.24,10,6,16,,,,20240305,70731,68,0,0,0,0,Manual,0,0,0,0,0,30,5000,0.0,0.0,0,5,0,0,0,0,0,0,0,0,0,0.0,0.0,0.0,Hover,,lost,100.0,0,0,0,0,0,0,0,0,0,1,0,281,66,1571,1597.0,NaN,235,-34,1563,1580.0,NaN,220,-20,512,42,11,447,,,,,,,,,,,,,,,,,,,,,,,,,,,,,,,,,,,,,,,,,,,,,,,,,,0.0,,,,,,,,,,,,,,,,,,,,,,,,,,,,,,,,,,0.0,0.0,0.0,0.0,0.0,180.0,0.0,0.0,0.0,0,Manual,OTHER,NONE,GPS_POSITION_NONMATCH,False,Connected,,P,False,False,False,0,0,,0.0,,,,,,0.0,0.0,0.0,0.0,NaN,NaN,NaN,0.0,0.0,0.0,0,0,0,16455,0,19.601366,12800.0,16443,-976,0,90,25,1,4112,0,0,0.0,0.0,
28399379,3.706,,,-111.78776,-0.0,,,16,NaN,0.0,0.0,0.0915563,-0.0058884835,-0.9819228,0.9861996,0.22519459,-0.19477475,-0.092280835,0.3117139,0.0,0.0,0.0,0.0,0.0,284,71,1571,1598.0,52.47,0.0,NaN,NaN,NaN,0.0,NaN,NaN,0.0,0.0,0.0,-0.0,NaN,NaN,NaN,NaN,NaN,NaN,NaN,NaN,false,false,-0.3793161132998288,0.1380323858049848,-0.19106395684559607,,0.0,,,0.0,0.0,0.0,0.0,0.0,0.0,0.0,0.0,0.0,0.0,-2200,2767,0,0,577,26.725606,58.3893883,,,,,0.73,1.83,302.41,10,6,16,,,,20240305,70731,71,0,0,0,0,Manual,0,0,0,0,0,30,5000,0.0,0.0,0,5,0,0,0,0,0,0,0,0,0,0.0,0.0,0.0,Hover,,lost,100.0,0,0,0,0,0,0,0,0,0,1,0,284,71,1571,1598.0,NaN,239,-34,1563,1581.0,NaN,218,-23,513,43,12,448,,,,,,,,,,,,,,,,,,,,,,,,,,,,,,,,,,,,,,,,,,,,,,,,,,0.0,,,,,,,,,,,,,,,,,,,,,,,,,,,,,,,,,,0.0,0.0,0.0,0.0,0.0,180.0,0.0,0.0,0.0,0,Manual,OTHER,NONE,GPS_POSITION_NONMATCH,False,Connected,,P,False,False,False,0,0,,0.0,,,,,,0.0,0.0,0.0,0.0,NaN,NaN,NaN,0.0,0.0,0.0,0,0,0,16455,0,19.601366,12800.0,16443,-976,0,90,25,1,4112,0,0,0.0,0.0,
28626079,3.756,,,-111.8578,-0.0,,,16,NaN,0.0,0.0,0.091879375,-0.005892003,-0.98335004,0.9876507,0.11146273,-0.14212829,-0.11682588,0.21511085,0.0,0.0,0.0,0.0,0.0,290,74,1568,1596.0,52.5,0.0,NaN,NaN,NaN,0.0,NaN,NaN,0.0,0.0,0.0,-0.0,NaN,NaN,NaN,NaN,NaN,NaN,NaN,NaN,false,false,-0.38576606291061893,0.14274017713296286,-0.2004205467874829,,0.0,,,0.0,0.0,0.0,0.0,0.0,0.0,0.0,0.0,0.0,0.0,-2200,2767,0,0,597,26.725606,58.3893883,,,,,0.73,1.83,302.41,10,6,16,,,,20240305,70731,73,0,0,0,0,Manual,0,0,0,0,0,30,5000,0.0,0.0,0,5,0,0,0,0,0,0,0,0,0,0.0,0.0,0.0,Hover,,lost,100.0,0,0,0,0,0,0,0,0,0,1,0,290,74,1568,1596.0,NaN,239,-34,1566,1584.0,NaN,221,-22,512,42,12,449,,,,,,,,,,,,,,,,,,,,,,,,,,,,,,,,,,,,,,,,,,,,,,,,,,0.0,,,,,,,,,,,,,,,,,,,,,,,,,,,,,,,,,,0.0,0.0,0.0,0.0,0.0,180.0,0.0,0.0,0.0,0,Manual,OTHER,NONE,GPS_POSITION_NONMATCH,False,Connected,,P,False,False,False,0,0,,0.0,,,,,,0.0,0.0,0.0,0.0,NaN,NaN,NaN,0.0,0.0,0.0,0,0,0,16454,0,19.601366,12800.0,16443,-976,0,90,25,1,4112,0,0,0.0,0.0,
28851126,3.806,,,-112.343895,-0.0,,,16,NaN,0.0,0.0,0.09166357,-0.005668289,-0.9815242,0.9858114,0.0076577226,-0.25752228,-0.233165,0.3474799,0.0,0.0,0.0,0.0,0.0,281,77,1568,1594.0,52.51,0.0,NaN,NaN,NaN,0.0,NaN,NaN,0.0,0.0,0.0,-0.0,NaN,NaN,NaN,NaN,NaN,NaN,NaN,NaN,false,false,-0.39061155952297016,0.147956061108953,-0.2082558211663359,,0.0,,,0.0,0.0,0.0,0.0,0.0,0.0,0.0,0.0,0.0,0.0,-2200,2768,0,0,617,26.725606,58.3893883,,,,,0.73,1.83,302.41,10,6,16,,,,20240305,70731,76,0,0,0,0,Manual,0,0,0,0,0,30,5000,0.0,0.0,0,5,0,0,0,0,0,0,0,0,0,0.0,0.0,0.0,Hover,,lost,100.0,0,0,0,0,0,0,0,0,0,1,0,281,77,1568,1594.0,NaN,235,-25,1566,1583.0,NaN,218,-19,511,41,14,448,,,,,,,,,,,,,,,,,,,,,,,,,,,,,,,,,,,,,,,,,,,,,,,,,,0.0,,,,,,,,,,,,,,,,,,,,,,,,,,,,,,,,,,0.0,0.0,0.0,0.0,0.0,180.0,0.0,0.0,0.0,0,Manual,OTHER,NONE,GPS_POSITION_NONMATCH,False,Connected,,P,False,False,False,0,0,,0.0,,,,,,0.0,0.0,0.0,0.0,NaN,NaN,NaN,0.0,0.0,0.0,0,0,0,16454,0,19.601366,12800.0,16443,-976,0,90,25,1,4112,0,0,0.0,0.0,
29076244,3.856,,,-112.34653,-0.0,,,16,NaN,0.0,0.0,0.09228987,-0.0056478,-0.9843659,0.9886989,0.110378645,-0.214677,-0.20007743,0.31352934,0.0,0.0,0.0,0.0,0.0,287,68,1571,1598.0,52.55,0.0,NaN,NaN,NaN,0.0,NaN,NaN,0.0,0.0,0.0,-0.0,NaN,NaN,NaN,NaN,NaN,NaN,NaN,NaN,false,false,-0.3967886422655342,0.15229890307582308,-0.22090905294800556,,0.0,,,0.0,0.0,0.0,0.0,0.0,0.0,0.0,0.0,0.0,0.0,-2200,2768,0,0,637,26.725606,58.3893883,,,,,0.73,1.83,302.41,10,6,16,,,,20240305,70731,78,0,0,0,0,Manual,0,0,0,0,0,30,5000,0.0,0.0,0,5,0,0,0,0,0,0,0,0,0,0.0,0.0,0.0,Hover,,lost,100.0,0,0,0,0,0,0,0,0,0,1,0,287,68,1571,1598.0,NaN,239,-34,1563,1581.0,NaN,221,-25,513,43,11,447,,,,,,,,,,,,,,,,,,,,,,,,,,,,,,,,,,,,,,,,,,,,,,,,,,0.0,,,,,,,,,,,,,,,,,,,,,,,,,,,,,,,,,,0.0,0.0,0.0,0.0,0.0,180.0,0.0,0.0,0.0,0,Manual,OTHER,NONE,GPS_POSITION_NONMATCH,False,Connected,,P,False,False,False,0,0,,0.0,,,,,,0.0,0.0,0.0,0.0,NaN,NaN,NaN,0.0,0.0,0.0,0,0,0,16455,0,19.601366,12800.0,16443,-976,0,90,25,1,4112,0,0,0.0,0.0,
29301307,3.906,,,-112.206436,-0.0,,,15,NaN,0.0,0.0,0.09177816,-0.005880789,-0.9837718,0.98806113,0.0492845,-0.112528324,-0.2241496,0.25560638,0.0,0.0,0.0,0.0,0.0,284,71,1568,1595.0,52.57,0.0,NaN,NaN,NaN,0.0,NaN,NaN,0.0,0.0,0.0,-0.0,NaN,NaN,NaN,NaN,NaN,NaN,NaN,NaN,false,false,-0.40275833824760027,0.15761405436584755,-0.2322379551706104,,0.0,,,0.0,0.0,0.0,0.0,0.0,0.0,0.0,0.0,0.0,0.0,-2200,2769,0,0,657,26.7256048,58.3893896,,,,,0.68,1.53,249.9,10,5,15,,,,20240305,70731,81,0,0,0,0,Manual,0,0,0,0,0,30,5000,0.0,0.0,0,5,0,0,0,0,0,0,0,0,0,0.0,0.0,0.0,Hover,,lost,100.0,0,0,0,0,0,0,0,0,0,1,0,284,71,1568,1595.0,NaN,242,-34,1563,1581.0,NaN,218,-21,511,43,12,448,,,,,,,,,,,,,,,,,,,,,,,,,,,,,,,,,,,,,,,,,,,,,,,,,,0.0,,,,,,,,,,,,,,,,,,,,,,,,,,,,,,,,,,0.0,0.0,0.0,0.0,0.0,180.0,0.0,0.0,0.0,0,Manual,OTHER,NONE,GPS_POSITION_NONMATCH,False,Connected,,P,False,False,False,0,0,,0.0,,,,,,0.0,0.0,0.0,0.0,NaN,NaN,NaN,0.0,0.0,0.0,0,0,0,16455,0,19.601366,12800.0,16443,-976,0,90,25,1,4112,0,0,0.0,0.0,
29528325,3.957,,,-112.44132,-0.0,,,15,NaN,0.0,0.0,0.09261499,-0.0067735957,-0.9831281,0.98750407,0.024724659,-0.25409555,-0.1465264,0.29435664,0.0,0.0,0.0,0.0,0.0,287,74,1568,1595.0,52.64,0.0,NaN,NaN,NaN,0.0,NaN,NaN,0.0,0.0,0.0,-0.0,NaN,NaN,NaN,NaN,NaN,NaN,NaN,NaN,false,false,-0.4109268121267748,0.16342558815585043,-0.24236206532292548,,0.0,,,0.0,0.0,0.0,0.0,0.0,0.0,0.0,0.0,0.0,0.0,-2200,2769,0,0,677,26.7256048,58.3893896,,,,,0.68,1.53,249.9,10,5,15,,,,20240305,70731,83,0,0,0,0,Manual,0,0,0,0,0,30,5000,0.0,0.0,0,5,0,0,0,0,0,0,0,0,0,0.0,0.0,0.0,Hover,,lost,100.0,0,0,0,0,0,0,0,0,0,1,0,287,74,1568,1595.0,NaN,242,-37,1566,1585.0,NaN,219,-23,512,43,11,449,,,,,,,,,,,,,,,,,,,,,,,,,,,,,,,,,,,,,,,,,,,,,,,,,,0.0,,,,,,,,,,,,,,,,,,,,,,,,,,,,,,,,,,0.0,0.0,0.0,0.0,0.0,180.0,0.0,0.0,0.0,0,Manual,OTHER,NONE,GPS_POSITION_NONMATCH,False,Connected,,P,False,False,False,0,0,,0.0,,,,,,0.0,0.0,0.0,0.0,NaN,NaN,NaN,0.0,0.0,0.0,0,0,0,16456,0,19.601366,12800.0,16443,-976,0,90,25,1,4112,0,0,0.0,0.0,
29753376,4.007,,,-112.21855,-0.0,,,15,NaN,0.0,0.0,0.09181168,-0.0061559333,-0.9833031,0.98759925,0.039398838,-0.3106602,-0.14401002,0.3446751,0.0,0.0,0.0,0.0,0.0,287,71,1565,1592.0,52.68,0.0,NaN,NaN,NaN,0.0,NaN,NaN,0.0,0.0,0.0,-0.0,NaN,NaN,NaN,NaN,NaN,NaN,NaN,NaN,false,false,-0.4167356195298039,0.16750586988947805,-0.25378312564790995,,0.0,,,0.0,0.0,0.0,0.0,0.0,0.0,0.0,0.0,0.0,0.0,-2200,2770,0,0,697,26.7256048,58.3893896,,,,,0.68,1.53,249.9,10,5,15,,,,20240305,70731,86,0,0,0,0,Manual,0,0,0,0,0,30,5000,0.0,0.0,0,5,0,0,0,0,0,0,0,0,0,0.0,0.0,0.0,Hover,,lost,100.0,0,0,0,0,0,0,0,0,0,1,0,287,71,1565,1592.0,NaN,235,-28,1569,1586.0,NaN,220,-21,510,42,13,449,,,,,,,,,,,,,,,,,,,,,,,,,,,,,,,,,,,,,,,,,,,,,,,,,,0.0,,,,,,,,,,,,,,,,,,,,,,,,,,,,,,,,,,0.0,0.0,0.0,0.0,0.0,180.0,0.0,0.0,0.0,0,Manual,OTHER,NONE,GPS_POSITION_NONMATCH,False,Connected,,P,False,False,False,0,0,,0.0,,,,,,0.0,0.0,0.0,0.0,NaN,NaN,NaN,0.0,0.0,0.0,0,0,0,16456,0,19.601366,12800.0,16443,-976,0,90,25,1,4112,0,0,0.0,0.0,
29978492,4.057,,,-112.025276,-0.0,,,15,NaN,0.0,0.0,0.09243018,-0.0059231194,-0.98471296,0.98905915,0.010355433,-0.09473814,-0.08684635,0.12893735,0.0,0.0,0.0,0.0,0.0,290,74,1568,1596.0,52.69,0.0,NaN,NaN,NaN,0.0,NaN,NaN,0.0,0.0,0.0,-0.0,NaN,NaN,NaN,NaN,NaN,NaN,NaN,NaN,false,false,-0.4241501781325507,0.1712115757495867,-0.26557789609231697,,0.0,,,0.0,0.0,0.0,0.0,0.0,0.0,0.0,0.0,0.0,0.0,-2200,2770,0,0,717,26.7256048,58.3893896,,,,,0.68,1.53,249.9,10,5,15,,,,20240305,70731,88,0,0,0,0,Manual,0,0,0,0,0,30,5000,0.0,0.0,0,5,0,0,0,0,0,0,0,0,0,0.0,0.0,0.0,Hover,,lost,100.0,0,0,0,0,0,0,0,0,0,1,0,290,74,1568,1596.0,NaN,239,-34,1566,1584.0,NaN,220,-23,512,43,11,449,,,,,,,,,,,,,,,,,,,,,,,,,,,,,,,,,,,,,,,,,,,,,,,,,,0.0,,,,,,,,,,,,,,,,,,,,,,,,,,,,,,,,,,0.0,0.0,0.0,0.0,0.0,180.0,0.0,0.0,0.0,0,Manual,OTHER,NONE,GPS_POSITION_NONMATCH,False,Connected,,P,False,False,False,0,0,,0.0,,,,,,0.0,0.0,0.0,0.0,NaN,NaN,NaN,0.0,0.0,0.0,0,0,0,16456,0,88.92018,12800.0,16417,-952,0,90,25,1,4112,0,0,0.0,0.0,
30203554,4.107,,,-112.09321,-0.0,,,15,NaN,0.0,0.0,0.09200811,-0.0061339242,-0.984128,0.9884387,0.06307892,-0.34557557,-0.032290373,0.35276634,0.0,0.0,0.0,0.0,0.0,290,71,1574,1602.0,52.77,0.0,NaN,NaN,NaN,0.0,NaN,NaN,0.0,0.0,0.0,-0.0,NaN,NaN,NaN,NaN,NaN,NaN,NaN,NaN,false,false,-0.42834246780969426,0.17565060711348954,-0.2786191907533,,0.0,,,0.0,0.0,0.0,0.0,0.0,0.0,0.0,0.0,0.0,0.0,-2200,2770,0,0,737,26.7256048,58.3893896,,,,,0.68,1.53,249.9,10,5,15,,,,20240305,70731,91,0,0,0,0,Manual,0,0,0,0,0,30,5000,0.0,0.0,0,5,0,0,0,0,0,0,0,0,0,0.0,0.0,0.0,Hover,,lost,100.0,0,0,0,0,0,0,0,0,0,1,0,290,71,1574,1602.0,NaN,242,-31,1557,1575.0,NaN,221,-20,512,43,13,446,,,,,,,,,,,,,,,,,,,,,,,,,,,,,,,,,,,,,,,,,,,,,,,,,,0.0,,,,,,,,,,,,,,,,,,,,,,,,,,,,,,,,,,0.0,0.0,0.0,0.0,0.0,180.0,0.0,0.0,0.0,0,Manual,OTHER,NONE,GPS_POSITION_NONMATCH,False,Connected,,P,False,False,False,0,0,,0.0,,,,,,0.0,0.0,0.0,0.0,NaN,NaN,NaN,0.0,0.0,0.0,0,0,0,16455,0,88.92018,12800.0,16417,-952,0,90,25,1,4112,0,0,0.0,0.0,
30428657,4.157,,,-112.045815,-0.0,,,15,NaN,0.0,0.0,0.091412075,-0.005868408,-0.9856742,0.98992133,0.13342996,-0.24117334,-0.14292814,0.31047797,0.0,0.0,0.0,0.0,0.0,284,80,1568,1595.0,52.82,0.0,NaN,NaN,NaN,0.0,NaN,NaN,0.0,0.0,0.0,-0.0,NaN,NaN,NaN,NaN,NaN,NaN,NaN,NaN,false,false,-0.43356559110048914,0.17782427378105978,-0.2902453566694445,,0.0,,,0.0,0.0,0.0,0.0,0.0,0.0,0.0,0.0,0.0,0.0,-2200,2770,0,0,757,26.725589,58.3893921,20240305,70732,2024-03-05T07:07:32Z,40.922,0.68,1.53,181.22,10,5,15,-0.01,0.0,-0.01,20240305,70732,93,0,0,0,0,Manual,0,0,0,0,0,30,5000,0.0,0.0,0,5,0,0,0,0,0,0,0,0,0,0.0,0.0,0.0,Hover,,lost,100.0,0,0,0,0,0,0,0,0,0,1,0,284,80,1568,1595.0,NaN,235,-39,1566,1584.0,NaN,217,-23,512,41,9,449,,,,,,,,,,,,,,,,,,,,,,,,,,,,,,,,,,,,,,,,,,,,,,,,,,0.0,,,,,,,,,,,,,,,,,,,,,,,,,,,,,,,,,,0.0,0.0,0.0,0.0,0.0,180.0,0.0,0.0,0.0,0,Manual,OTHER,NONE,GPS_POSITION_NONMATCH,False,Connected,,P,False,False,False,0,0,,0.0,,,,,,0.0,0.0,0.0,0.0,NaN,NaN,NaN,0.0,0.0,0.0,0,0,0,16454,0,88.92018,12800.0,16417,-952,0,90,25,1,4112,0,0,0.0,0.0,
30653708,4.207,,,-112.55404,-0.0,,,15,NaN,0.0,0.0,0.09239981,-0.006496582,-0.9863027,0.99064267,0.09532304,-0.05180721,0.06320803,0.12556164,0.0,0.0,0.0,0.0,0.0,281,74,1565,1591.0,52.86,0.0,NaN,NaN,NaN,0.0,NaN,NaN,0.0,0.0,0.0,-0.0,NaN,NaN,NaN,NaN,NaN,NaN,NaN,NaN,false,false,-0.4381414636019256,0.18368183834358584,-0.3003602572052013,,0.0,,,0.0,0.0,0.0,0.0,0.0,0.0,0.0,0.0,0.0,0.0,-2200,2771,0,0,777,26.725589,58.3893921,20240305,70732,2024-03-05T07:07:32Z,40.922,0.68,1.53,181.22,10,5,15,-0.01,0.0,-0.01,20240305,70732,96,0,0,0,0,Manual,0,0,0,0,0,30,5000,0.0,0.0,0,5,0,0,0,0,0,0,0,0,0,0.0,0.0,0.0,Hover,,lost,100.0,0,0,0,0,0,0,0,0,0,1,0,281,74,1565,1591.0,NaN,239,-31,1569,1587.0,NaN,218,-18,511,43,13,449,,,,,,,,,,,,,,,,,,,,,,,,,,,,,,,,,,,,,,,,,,,,,,,,,,0.0,,,,,,,,,,,,,,,,,,,,,,,,,,,,,,,,,,0.0,0.0,0.0,0.0,0.0,180.0,0.0,0.0,0.0,0,Manual,OTHER,NONE,GPS_POSITION_NONMATCH,False,Connected,,P,False,False,False,0,0,,0.0,,,,,,0.0,0.0,0.0,0.0,NaN,NaN,NaN,0.0,0.0,0.0,0,0,0,16453,0,88.92018,12800.0,16417,-952,0,90,25,1,4112,0,0,0.0,0.0,
30878826,4.257,,,-111.83147,-0.0,,,15,NaN,0.0,0.0,0.093099244,-0.005564356,-0.9852627,0.9896671,0.14405951,-0.27320603,0.0031345633,0.3088762,0.0,0.0,0.0,0.0,0.0,284,71,1571,1598.0,52.9,0.0,NaN,NaN,NaN,0.0,NaN,NaN,0.0,0.0,0.0,-0.0,NaN,NaN,NaN,NaN,NaN,NaN,NaN,NaN,false,false,-0.44371827326694796,0.18751741327398738,-0.3100004207435323,,0.0,,,0.0,0.0,0.0,0.0,0.0,0.0,0.0,0.0,0.0,0.0,-2200,2771,0,0,797,26.725589,58.3893921,20240305,70732,2024-03-05T07:07:32Z,40.922,0.68,1.53,181.22,10,5,15,-0.01,0.0,-0.01,20240305,70732,98,0,0,0,0,Manual,0,0,0,0,0,30,5000,0.0,0.0,0,5,0,0,0,0,0,0,0,0,0,0.0,0.0,0.0,Hover,,lost,100.0,0,0,0,0,0,0,0,0,0,1,0,284,71,1571,1598.0,NaN,239,-34,1566,1584.0,NaN,219,-23,513,43,11,448,,,,,,,,,,,,,,,,,,,,,,,,,,,,,,,,,,,,,,,,,,,,,,,,,,0.0,,,,,,,,,,,,,,,,,,,,,,,,,,,,,,,,,,0.0,0.0,0.0,0.0,0.0,180.0,0.0,0.0,0.0,0,Manual,OTHER,NONE,GPS_POSITION_NONMATCH,False,Connected,,P,False,False,False,0,0,,0.0,,,,,,0.0,0.0,0.0,0.0,NaN,NaN,NaN,0.0,0.0,0.0,0,0,0,16451,0,88.92018,12800.0,16417,-952,0,90,25,1,4112,0,0,0.0,0.0,
31103920,4.307,,,-112.04844,-0.0,,,16,NaN,0.0,0.0,0.09245294,-0.0056944666,-0.98783314,0.99216646,0.08901451,-0.17550555,0.102985606,0.22210766,0.0,0.0,0.0,0.0,0.0,287,80,1565,1593.0,52.94,0.0,NaN,NaN,NaN,0.0,NaN,NaN,0.0,0.0,0.0,-0.0,NaN,NaN,NaN,NaN,NaN,NaN,NaN,NaN,false,false,-0.4468924121033363,0.19313484496319108,-0.31999689940906895,,0.0,,,0.0,0.0,0.0,0.0,0.0,0.0,0.0,0.0,0.0,0.0,-2200,2771,0,0,817,26.7255736,58.3894043,20240305,70732,2024-03-05T07:07:32Z,41.319,0.65,1.47,135.76,10,6,16,0.01,0.0,-0.03,20240305,70732,101,0,0,0,0,Manual,0,0,0,0,0,30,5000,0.0,0.0,0,5,0,0,0,0,0,0,0,0,0,0.0,0.0,0.0,Hover,,lost,100.0,0,0,0,0,0,0,0,0,0,1,0,287,80,1565,1593.0,NaN,239,-34,1566,1584.0,NaN,219,-20,512,42,12,449,,,,,,,,,,,,,,,,,,,,,,,,,,,,,,,,,,,,,,,,,,,,,,,,,,0.0,,,,,,,,,,,,,,,,,,,,,,,,,,,,,,,,,,0.0,0.0,0.0,0.0,0.0,180.0,0.0,0.0,0.0,0,Manual,OTHER,NONE,GPS_POSITION_NONMATCH,False,Connected,,P,False,False,False,0,0,,0.0,,,,,,0.0,0.0,0.0,0.0,NaN,NaN,NaN,0.0,0.0,0.0,0,0,0,16450,0,88.92018,12800.0,16417,-952,0,90,25,1,4112,0,0,0.0,0.0,
31329800,4.357,,,-111.77565,-0.0,,,16,NaN,0.0,0.0,0.09237665,-0.0049456027,-0.9871195,0.9914448,0.07766105,-0.20589112,7.556297E-4,0.22005217,0.0,0.0,0.0,0.0,0.0,290,71,1574,1602.0,52.96,0.0,NaN,NaN,NaN,0.0,NaN,NaN,0.0,0.0,0.0,-0.0,NaN,NaN,NaN,NaN,NaN,NaN,NaN,NaN,false,false,-0.45156831212807746,0.1979827141846999,-0.33175560807580884,,0.0,,,0.0,0.0,0.0,0.0,0.0,0.0,0.0,0.0,0.0,0.0,-2200,2771,0,0,837,26.7255736,58.3894043,20240305,70732,2024-03-05T07:07:32Z,41.319,0.65,1.47,135.76,10,6,16,0.01,0.0,-0.03,20240305,70732,103,0,0,0,0,Manual,0,0,0,0,0,30,5000,0.0,0.0,0,5,0,0,0,0,0,0,0,0,0,0.0,0.0,0.0,Hover,,lost,100.0,0,0,0,0,0,0,0,0,0,1,0,290,71,1574,1602.0,NaN,239,-31,1566,1584.0,NaN,219,-22,512,42,13,449,,,,,,,,,,,,,,,,,,,,,,,,,,,,,,,,,,,,,,,,,,,,,,,,,,0.0,,,,,,,,,,,,,,,,,,,,,,,,,,,,,,,,,,0.0,0.0,0.0,0.0,0.0,180.0,0.0,0.0,0.0,0,Manual,OTHER,NONE,GPS_POSITION_NONMATCH,False,Connected,,P,False,False,False,0,0,,0.0,,,,,,0.0,0.0,0.0,0.0,NaN,NaN,NaN,0.0,0.0,0.0,0,0,0,16449,0,88.92018,12800.0,16417,-952,0,90,25,1,4112,0,0,0.0,0.0,
31554912,4.407,,,-112.070564,-0.0,,,16,NaN,0.0,0.0,0.092088506,-0.0060219103,-0.98763627,0.9919385,0.20388299,-0.20875508,-0.06664672,0.29931378,0.0,0.0,0.0,0.0,0.0,287,74,1568,1595.0,53.04,0.0,NaN,NaN,NaN,0.0,NaN,NaN,0.0,0.0,0.0,-0.0,NaN,NaN,NaN,NaN,NaN,NaN,NaN,NaN,false,false,-0.4583153587726193,0.2033476975144892,-0.3420252278488569,,0.0,,,0.0,0.0,0.0,0.0,0.0,0.0,0.0,0.0,0.0,0.0,-2200,2772,0,0,857,26.7255736,58.3894043,20240305,70732,2024-03-05T07:07:32Z,41.319,0.65,1.47,135.76,10,6,16,0.01,0.0,-0.03,20240305,70732,106,0,0,0,0,Manual,0,0,0,0,0,30,5000,0.0,0.0,0,5,0,0,0,0,0,0,0,0,0,0.0,0.0,0.0,Hover,,lost,100.0,0,0,0,0,0,0,0,0,0,1,0,287,74,1568,1595.0,NaN,242,-31,1560,1578.0,NaN,219,-21,511,43,13,448,,,,,,,,,,,,,,,,,,,,,,,,,,,,,,,,,,,,,,,,,,,,,,,,,,0.0,,,,,,,,,,,,,,,,,,,,,,,,,,,,,,,,,,0.0,0.0,0.0,0.0,0.0,180.0,0.0,0.0,0.0,0,Manual,OTHER,NONE,GPS_POSITION_NONMATCH,False,Connected,,P,False,False,False,0,0,,0.0,,,,,,0.0,0.0,0.0,0.0,NaN,NaN,NaN,0.0,0.0,0.0,0,0,0,16447,0,88.92018,12800.0,16417,-952,0,90,25,1,4112,0,0,0.0,0.0,
31780628,4.457,,,-112.17273,-0.0,,,16,NaN,0.0,0.0,0.0919082,-0.005484918,-0.9863529,0.9906409,0.105586655,-0.28151813,-0.074777246,0.3098268,0.0,0.0,0.0,0.0,0.0,287,68,1568,1595.0,53.09,0.0,NaN,NaN,NaN,0.0,NaN,NaN,0.0,0.0,0.0,-0.0,NaN,NaN,NaN,NaN,NaN,NaN,NaN,NaN,false,false,-0.46535776118088357,0.2095392018677482,-0.35120240021375193,,0.0,,,0.0,0.0,0.0,0.0,0.0,0.0,0.0,0.0,0.0,0.0,-2200,2772,0,0,877,26.7255736,58.3894043,20240305,70732,2024-03-05T07:07:32Z,41.319,0.65,1.47,135.76,10,6,16,0.01,0.0,-0.03,20240305,70732,108,0,0,0,0,Manual,0,0,0,0,0,30,5000,0.0,0.0,0,5,0,0,0,0,0,0,0,0,0,0.0,0.0,0.0,Hover,,lost,100.0,0,0,0,0,0,0,0,0,0,1,0,287,68,1568,1595.0,NaN,235,-28,1563,1580.0,NaN,219,-22,510,41,14,448,,,,,,,,,,,,,,,,,,,,,,,,,,,,,,,,,,,,,,,,,,,,,,,,,,0.0,,,,,,,,,,,,,,,,,,,,,,,,,,,,,,,,,,0.0,0.0,0.0,0.0,0.0,180.0,0.0,0.0,0.0,0,Manual,OTHER,NONE,GPS_POSITION_NONMATCH,False,Connected,,P,False,False,False,0,0,,0.0,,,,,,0.0,0.0,0.0,0.0,NaN,NaN,NaN,0.0,0.0,0.0,0,0,0,16446,0,88.92018,12800.0,16417,-952,0,90,25,1,4112,0,0,0.0,0.0,
32014544,4.509,,,-112.35179,-0.0,,,16,NaN,0.0,0.0,0.09251502,-0.0057833726,-0.9878836,0.992223,0.14439648,-0.37591448,-0.05949188,0.4070643,0.0,0.0,0.0,0.0,0.0,284,77,1568,1595.0,53.13,0.0,NaN,NaN,NaN,0.0,NaN,NaN,0.0,0.0,0.0,-0.0,NaN,NaN,NaN,NaN,NaN,NaN,NaN,NaN,false,false,-0.4686862787267091,0.21566419879774298,-0.36365376107587877,,0.0,,,0.0,0.0,0.0,0.0,0.0,0.0,0.0,0.0,0.0,0.0,-2200,2773,0,0,897,26.7255603,58.3894113,20240305,70732,2024-03-05T07:07:32Z,41.584,0.65,1.47,107.07,10,6,16,0.01,-0.01,-0.03,20240305,70732,111,0,0,0,0,Manual,0,0,0,0,0,30,5000,0.0,0.0,0,5,0,0,0,0,0,0,0,0,0,0.0,0.0,0.0,Hover,,lost,100.0,0,0,0,0,0,0,0,0,0,1,0,287,74,1568,1595.0,NaN,242,-31,1563,1581.0,NaN,219,-20,511,43,12,448,,,,,,,,,,,,,,,,,,,,,,,,,,,,,,,,,,,,,,,,,,,,,,,,,,0.0,,0,0,0,0,25,25,25,25,48.59375,48.90625,48.90625,49.010418,48.958332,48.958332,48.958332,48.958332,0.0,0.0,0.0,0.0,16.2,16.1,16.0,16.0,0.0,0.0,0.0,0.0,0,0,0,0,0.0,0.0,0.0,0.0,0.0,180.0,0.0,0.0,0.0,0,Manual,OTHER,NONE,GPS_POSITION_NONMATCH,False,Connected,,P,False,False,False,0,0,,0.0,,,,,,0.0,0.0,0.0,0.0,NaN,NaN,NaN,0.0,0.0,0.0,0,0,0,16445,0,88.92018,12800.0,16417,-952,0,90,25,1,4112,0,0,0.0,0.0,
32239583,4.559,,,-112.045815,-0.0,,,16,NaN,0.0,0.0,0.091166146,-0.005629855,-0.9877427,0.991957,0.10396072,-0.26834494,-0.041183867,0.2907111,0.0,0.0,0.0,0.0,0.0,287,71,1571,1598.0,53.2,0.0,NaN,NaN,NaN,0.0,NaN,NaN,0.0,0.0,0.0,-0.0,NaN,NaN,NaN,NaN,NaN,NaN,NaN,NaN,false,false,-0.4730095314078825,0.22206884962219672,-0.37533288361456996,,0.0,,,0.0,0.0,0.0,0.0,0.0,0.0,0.0,0.0,0.0,0.0,-2200,2773,0,0,917,26.7255603,58.3894113,20240305,70732,2024-03-05T07:07:32Z,41.584,0.65,1.47,107.07,10,6,16,0.01,-0.01,-0.03,20240305,70732,113,0,0,0,0,Manual,0,0,0,0,0,30,5000,0.0,0.0,0,5,0,0,0,0,0,0,0,0,0,0.0,0.0,0.0,Hover,,lost,100.0,0,0,0,0,0,0,0,0,0,1,0,287,71,1571,1598.0,NaN,242,-34,1563,1581.0,NaN,220,-21,512,43,12,447,,,,,,,,,,,,,,,,,,,,,,,,,,,,,,,,,,,,,,,,,,,,,,,,,,0.0,,0,0,0,0,25,25,25,25,48.59375,48.90625,48.90625,49.010418,48.958332,48.958332,48.958332,48.958332,0.0,0.0,0.0,0.0,16.1,16.2,16.0,16.0,0.0,0.0,0.0,0.0,0,0,0,0,0.0,0.0,0.0,0.0,0.0,180.0,0.0,0.0,0.0,0,Manual,OTHER,NONE,GPS_POSITION_NONMATCH,False,Connected,,P,False,False,False,0,0,,0.0,,,,,,0.0,0.0,0.0,0.0,NaN,NaN,NaN,0.0,0.0,0.0,0,0,0,16444,0,88.92018,12800.0,16417,-952,0,90,25,1,4112,0,0,0.0,0.0,
32464588,4.609,,,-112.35337,-0.0,,,16,NaN,0.0,0.0,0.09217578,-0.0063711116,-0.99006313,0.99436516,0.16487096,-0.33980596,-0.10327924,0.3915573,0.0,0.0,0.0,0.0,0.0,284,66,1571,1597.0,53.22,0.0,NaN,NaN,NaN,0.0,NaN,NaN,0.0,0.0,0.0,-0.0,NaN,NaN,NaN,NaN,NaN,NaN,NaN,NaN,false,false,-0.479228961451856,0.22927815421890682,-0.38673435419543956,,0.0,,,0.0,0.0,0.0,0.0,0.0,0.0,0.0,0.0,0.0,0.0,-2200,2774,0,0,937,26.7255603,58.3894113,20240305,70732,2024-03-05T07:07:32Z,41.584,0.65,1.47,107.07,10,6,16,0.01,-0.01,-0.03,20240305,70732,116,0,0,0,0,Manual,0,0,0,0,0,30,5000,0.0,0.0,0,5,0,0,0,0,0,0,0,0,0,0.0,0.0,0.0,Hover,,lost,100.0,0,0,0,0,0,0,0,0,0,1,0,284,74,1565,1592.0,NaN,242,-34,1563,1581.0,NaN,219,-22,512,43,12,447,,,,,,,,,,,,,,,,,,,,,,,,,,,,,,,,,,,,,,,,,,,,,,,,,,0.0,,0,0,0,0,25,25,25,25,48.59375,48.90625,48.854168,49.010418,48.958332,48.958332,48.958332,48.958332,0.0,0.0,0.0,0.0,16.1,16.1,16.0,15.9,0.0,0.0,0.0,0.0,0,0,0,0,0.0,0.0,0.0,0.0,0.0,180.0,0.0,0.0,0.0,0,Manual,OTHER,NONE,GPS_POSITION_NONMATCH,False,Connected,,P,False,False,False,0,0,,0.0,,,,,,0.0,0.0,0.0,0.0,NaN,NaN,NaN,0.0,0.0,0.0,0,0,0,16443,0,88.92018,12800.0,16417,-952,0,90,25,1,4112,0,0,0.0,0.0,
32689753,4.659,,,-112.102165,-0.0,,,16,NaN,0.0,0.0,0.0913496,-0.0059688883,-0.98936564,0.99359185,0.11115625,-0.1886447,0.12861794,0.25393918,0.0,0.0,0.0,0.0,0.0,287,77,1568,1595.0,53.27,0.0,NaN,NaN,NaN,0.0,NaN,NaN,0.0,0.0,0.0,-0.0,NaN,NaN,NaN,NaN,NaN,NaN,NaN,NaN,false,false,-0.48612566086842224,0.2353446146628417,-0.3987712086951338,,0.0,,,0.0,0.0,0.0,0.0,0.0,0.0,0.0,0.0,0.0,0.0,-2200,2774,0,0,957,26.7255603,58.3894113,20240305,70732,2024-03-05T07:07:32Z,41.584,0.65,1.47,107.07,10,6,16,0.01,-0.01,-0.03,20240305,70732,118,0,0,0,0,Manual,0,0,0,0,0,30,5000,0.0,0.0,0,5,0,0,0,0,0,0,0,0,0,0.0,0.0,0.0,Hover,,lost,100.0,0,0,0,0,0,0,0,0,0,1,0,287,77,1568,1595.0,NaN,239,-31,1560,1578.0,NaN,219,-20,511,43,12,447,,,,,,,,,,,,,,,,,,,,,,,,,,,,,,,,,,,,,,,,,,,,,,,,,,0.0,,0,0,0,0,25,25,25,25,48.59375,48.90625,48.854168,49.010418,48.958332,48.958332,48.958332,48.958332,0.0,0.0,0.0,0.0,16.2,16.2,15.8,16.0,0.0,0.0,0.0,0.0,0,0,0,0,0.0,0.0,0.0,0.0,0.0,180.0,0.0,0.0,0.0,0,Manual,OTHER,NONE,GPS_POSITION_NONMATCH,False,Connected,,P,False,False,False,0,0,,0.0,,,,,,0.0,0.0,0.0,0.0,NaN,NaN,NaN,0.0,0.0,0.0,0,0,0,16442,0,88.92018,12800.0,16417,-952,0,90,25,1,4112,0,0,0.0,0.0,
32914765,4.709,,,-111.70456,-0.0,,,16,NaN,0.0,0.0,0.09270345,-0.00689112,-0.9888897,0.99324936,0.10273937,-0.17427109,-0.18602738,0.27483082,0.0,0.0,0.0,0.0,0.0,284,74,1568,1595.0,53.37,0.0,NaN,NaN,NaN,0.0,NaN,NaN,0.0,0.0,0.0,-0.0,NaN,NaN,NaN,NaN,NaN,NaN,NaN,NaN,false,false,-0.49003074283853953,0.24034991671520142,-0.4112459318045223,,0.0,,,0.0,0.0,0.0,0.0,0.0,0.0,0.0,0.0,0.0,0.0,-2200,2774,0,0,977,26.7255603,58.3894113,20240305,70732,2024-03-05T07:07:32Z,41.584,0.65,1.47,107.07,10,6,16,0.01,-0.01,-0.03,20240305,70732,121,0,0,0,0,Manual,0,0,0,0,0,30,5000,0.0,0.0,0,5,0,0,0,0,0,0,0,0,0,0.0,0.0,0.0,Hover,,lost,100.0,0,0,0,0,0,0,0,0,0,1,0,281,71,1565,1591.0,NaN,235,-31,1563,1580.0,NaN,218,-21,511,42,12,448,,,,,,,,,,,,,,,,,,,,,,,,,,,,,,,,,,,,,,,,,,,,,,,,,,0.0,,0,0,0,0,25,25,25,25,48.59375,48.90625,48.854168,49.010418,48.958332,48.958332,48.958332,48.958332,0.0,0.0,0.0,0.0,16.2,16.2,16.0,16.0,0.0,0.0,0.0,0.0,0,0,0,0,0.0,0.0,0.0,0.0,0.0,180.0,0.0,0.0,0.0,0,Manual,OTHER,NONE,GPS_POSITION_NONMATCH,False,Connected,,P,False,False,False,0,0,,0.0,,,,,,0.0,0.0,0.0,0.0,NaN,NaN,NaN,0.0,0.0,0.0,0,0,0,16441,0,88.92018,12800.0,16417,-952,0,90,25,1,4112,0,0,0.0,0.0,
33139886,4.759,,,-112.38023,-0.0,,,16,NaN,0.0,0.0,0.09173273,-0.006298664,-0.98955125,0.993814,0.089507,-0.17544557,-0.06689893,0.2080099,0.0,0.0,0.0,0.0,0.0,281,68,1568,1594.0,53.43,0.0,NaN,NaN,NaN,0.0,NaN,NaN,0.0,0.0,0.0,-0.0,NaN,NaN,NaN,NaN,NaN,NaN,NaN,NaN,false,false,-0.4936953627665317,0.2458883780262899,-0.42202534515289947,,0.0,,,0.0,0.0,0.0,0.0,0.0,0.0,0.0,0.0,0.0,0.0,-2200,2774,0,0,997,26.7255492,58.3894103,20240305,70732,2024-03-05T07:07:32Z,41.446,0.65,1.47,86.26,10,6,16,0.0,0.0,-0.03,20240305,70732,123,0,0,0,0,Manual,0,0,0,0,0,30,5000,0.0,0.0,0,5,0,0,0,0,0,0,0,0,0,0.0,0.0,0.0,Hover,,lost,100.0,0,0,0,0,0,0,0,0,0,1,0,281,68,1568,1594.0,NaN,235,-31,1563,1580.0,NaN,217,-22,511,42,12,447,,,,,,,,,,,,,,,,,,,,,,,,,,,,,,,,,,,,,,,,,,,,,,,,,,0.0,,0,0,0,0,25,25,25,25,48.59375,48.90625,48.854168,49.010418,48.958332,48.958332,48.958332,48.958332,0.0,0.0,0.0,0.0,16.2,16.2,15.8,16.0,0.0,0.0,0.0,0.0,0,0,0,0,0.0,0.0,0.0,0.0,0.0,180.0,0.0,0.0,0.0,0,Manual,OTHER,NONE,GPS_POSITION_NONMATCH,False,Connected,,P,False,False,False,0,0,,0.0,,,,,,0.0,0.0,0.0,0.0,NaN,NaN,NaN,0.0,0.0,0.0,0,0,0,16440,0,88.92018,12800.0,16417,-952,0,90,25,1,4112,0,5122,0.0,0.0,
33364889,4.809,,,-111.689285,-0.0,,,16,NaN,0.0,0.0,0.09191726,-0.005876406,-0.988892,0.99317205,0.19136092,-0.34533635,-0.12725313,0.41481265,0.0,0.0,0.0,0.0,0.0,281,80,1565,1592.0,53.45,0.0,NaN,NaN,NaN,0.0,NaN,NaN,0.0,0.0,0.0,-0.0,NaN,NaN,NaN,NaN,NaN,NaN,NaN,NaN,false,false,-0.4979553322877175,0.2522639849352186,-0.434746421458289,,0.0,,,0.0,0.0,0.0,0.0,0.0,0.0,0.0,0.0,0.0,0.0,-2200,2775,0,0,1017,26.7255492,58.3894103,20240305,70732,2024-03-05T07:07:32Z,41.446,0.65,1.47,86.26,10,6,16,0.0,0.0,-0.03,20240305,70732,126,0,0,0,0,Manual,0,0,0,0,0,30,5000,0.0,0.0,0,5,0,0,0,0,0,0,0,0,0,0.0,0.0,0.0,Hover,,lost,100.0,0,0,0,0,0,0,0,0,0,1,0,281,71,1571,1597.0,NaN,232,-34,1563,1580.0,NaN,217,-20,511,40,12,447,,,,,,,,,,,,,,,,,,,,,,,,,,,,,,,,,,,,,,,,,,,,,,,,,,0.0,,0,0,0,0,25,25,25,25,48.59375,48.90625,48.854168,49.010418,48.958332,48.958332,48.958332,48.958332,0.0,0.0,0.0,0.0,16.2,16.1,16.0,16.0,0.0,0.0,0.0,0.0,0,0,0,0,0.0,0.0,0.0,0.0,0.0,180.0,0.0,0.0,0.0,0,Manual,OTHER,NONE,GPS_POSITION_NONMATCH,False,Connected,,P,False,False,False,0,0,,0.0,,,,,,0.0,0.0,0.0,0.0,NaN,NaN,NaN,0.0,0.0,0.0,0,0,0,16439,0,88.92018,12800.0,16417,-952,0,90,25,1,4112,0,5122,0.0,0.0,
33589889,4.859,,,-111.970505,-0.0,,,16,NaN,0.0,0.0,0.09206154,-0.006530987,-0.98932517,0.9936208,0.28898552,-0.28458256,-0.1197365,0.42289087,0.0,0.0,0.0,0.0,0.0,287,74,1568,1595.0,53.48,0.0,NaN,NaN,NaN,0.0,NaN,NaN,0.0,0.0,0.0,-0.0,NaN,NaN,NaN,NaN,NaN,NaN,NaN,NaN,false,false,-0.5006229028350868,0.25879068355188184,-0.4452519958704746,,0.0,,,0.0,0.0,0.0,0.0,0.0,0.0,0.0,0.0,0.0,0.0,-2200,2775,0,0,1037,26.7255492,58.3894103,20240305,70732,2024-03-05T07:07:32Z,41.446,0.65,1.47,86.26,10,6,16,0.0,0.0,-0.03,20240305,70732,128,0,0,0,0,Manual,0,0,0,0,0,30,5000,0.0,0.0,0,5,0,0,0,0,0,0,0,0,0,0.0,0.0,0.0,Hover,,lost,100.0,0,0,0,0,0,0,0,0,0,1,0,287,74,1568,1595.0,NaN,235,-31,1563,1580.0,NaN,218,-22,513,41,13,447,,,,,,,,,,,,,,,,,,,,,,,,,,,,,,,,,,,,,,,,,,,,,,,,,,0.0,,0,0,0,0,25,25,25,25,48.59375,48.90625,48.854168,49.010418,48.958332,48.958332,48.958332,48.958332,0.0,0.0,0.0,0.0,16.2,16.2,16.0,16.0,0.0,0.0,0.0,0.0,0,0,0,0,0.0,0.0,0.0,0.0,0.0,180.0,0.0,0.0,0.0,0,Manual,OTHER,NONE,GPS_POSITION_NONMATCH,False,Connected,,P,False,False,False,0,0,,0.0,,,,,,0.0,0.0,0.0,0.0,NaN,NaN,NaN,0.0,0.0,0.0,0,0,0,16438,0,88.92018,12800.0,16417,-952,0,90,25,1,4112,0,5122,0.0,0.0,
33814897,4.909,,,-112.13482,-0.0,,,16,NaN,0.0,0.0,0.092198424,-0.0071142484,-0.9895554,0.99386674,0.17707998,-0.2666816,-0.20357332,0.37936592,0.0,0.0,0.0,0.0,0.0,277,71,1565,1590.0,53.56,0.0,NaN,NaN,NaN,0.0,NaN,NaN,0.0,0.0,0.0,-0.0,NaN,NaN,NaN,NaN,NaN,NaN,NaN,NaN,false,false,-0.5060146615197094,0.2661771459485027,-0.4583074557600566,,0.0,,,0.0,0.0,0.0,0.0,0.0,0.0,0.0,0.0,0.0,0.0,-2200,2776,0,0,1057,26.7255474,58.3894038,20240305,70732,2024-03-05T07:07:32Z,41.419,0.7,1.56,72.26,10,4,14,-0.01,0.0,-0.02,20240305,70732,131,0,0,0,0,Manual,0,0,0,0,0,30,5000,0.0,0.0,0,5,0,0,0,0,0,0,0,0,0,0.0,0.0,0.0,Hover,,lost,100.0,0,0,0,0,0,0,0,0,0,1,0,287,74,1562,1589.0,NaN,242,-31,1563,1581.0,NaN,218,-21,510,43,12,447,,,,,,,,,,,,,,,,,,,,,,,,,,,,,,,,,,,,,,,,,,,,,,,,,,0.0,,0,0,0,0,25,25,25,25,48.59375,48.90625,48.854168,49.010418,48.958332,48.958332,48.958332,48.958332,0.0,0.0,0.0,0.0,16.1,16.2,16.0,16.0,0.0,0.0,0.0,0.0,0,0,0,0,0.0,0.0,0.0,0.0,0.0,180.0,0.0,0.0,0.0,0,Manual,OTHER,NONE,GPS_POSITION_NONMATCH,False,Connected,,P,False,False,False,0,0,,0.0,,,,,,0.0,0.0,0.0,0.0,NaN,NaN,NaN,0.0,0.0,0.0,0,0,0,16436,0,88.92018,12800.0,16417,-952,0,90,25,1,4112,0,5122,0.0,0.0,
34040090,4.959,,,-112.184845,-0.0,,,14,NaN,0.0,0.0,0.09161634,-0.0055500567,-0.98938674,0.993635,0.14731985,-0.29673377,-0.13666537,0.3583734,0.0,0.0,0.0,0.0,0.0,287,71,1565,1592.0,53.59,0.0,NaN,NaN,NaN,0.0,NaN,NaN,0.0,0.0,0.0,-0.0,NaN,NaN,NaN,NaN,NaN,NaN,NaN,NaN,false,false,-0.5121340216024535,0.27299482930116503,-0.4698147058732294,,0.0,,,0.0,0.0,0.0,0.0,0.0,0.0,0.0,0.0,0.0,0.0,-2200,2776,0,0,1077,26.7255474,58.3894038,20240305,70732,2024-03-05T07:07:32Z,41.419,0.7,1.56,72.26,10,4,14,-0.01,0.0,-0.02,20240305,70732,133,0,0,0,0,Manual,0,0,0,0,0,30,5000,0.0,0.0,0,5,0,0,0,0,0,0,0,0,0,0.0,0.0,0.0,Hover,,lost,100.0,0,0,0,0,0,0,0,0,0,1,0,287,71,1565,1592.0,NaN,242,-28,1563,1581.0,NaN,220,-20,510,43,13,448,,,,,,,,,,,,,,,,,,,,,,,,,,,,,,,,,,,,,,,,,,,,,,,,,,0.0,,0,0,0,0,25,25,25,25,48.59375,48.90625,48.854168,49.010418,48.958332,48.958332,48.958332,48.958332,0.0,0.0,0.0,0.0,16.2,16.2,15.9,16.0,0.0,0.0,0.0,0.0,0,0,0,0,0.0,0.0,0.0,0.0,0.0,180.0,0.0,0.0,0.0,0,Manual,OTHER,NONE,GPS_POSITION_NONMATCH,False,Connected,,P,False,False,False,0,0,,0.0,,,,,,0.0,0.0,0.0,0.0,NaN,NaN,NaN,0.0,0.0,0.0,0,0,0,16435,0,88.92018,12800.0,16417,-952,0,90,25,1,4112,0,5122,0.0,0.0,
34265092,5.009,,,-111.92205,-0.0,,,14,NaN,0.0,0.0,0.09182766,-0.006400726,-0.99059814,0.9948658,0.090609066,-0.40429023,-0.13508734,0.4357857,0.0,0.0,0.0,0.0,0.0,290,74,1568,1596.0,53.66,0.0,NaN,NaN,NaN,0.0,NaN,NaN,0.0,0.0,0.0,-0.0,NaN,NaN,NaN,NaN,NaN,NaN,NaN,NaN,false,false,-0.5173109533414204,0.27806193592236395,-0.48121417041293646,,0.0,,,0.0,0.0,0.0,0.0,0.0,0.0,0.0,0.0,0.0,0.0,-2200,2776,0,0,1097,26.7255474,58.3894038,20240305,70732,2024-03-05T07:07:32Z,41.419,0.7,1.56,72.26,10,4,14,-0.01,0.0,-0.02,20240305,70732,136,0,0,0,0,Manual,0,0,0,0,0,30,5000,0.0,0.0,0,5,0,0,0,0,0,0,0,0,0,0.0,0.0,0.0,Hover,,lost,100.0,0,0,0,0,0,0,0,0,0,1,0,287,71,1568,1595.0,NaN,235,-39,1560,1578.0,NaN,220,-21,511,41,9,447,,,,,,,,,,,,,,,,,,,,,,,,,,,,,,,,,,,,,,,,,,,,,,,,,,0.0,,0,0,0,0,25,25,25,25,48.59375,48.90625,48.854168,49.010418,48.958332,48.958332,48.958332,48.958332,0.0,0.0,0.0,0.0,16.2,16.1,16.0,15.9,0.0,0.0,0.0,0.0,0,0,0,0,0.0,0.0,0.0,0.0,0.0,180.0,0.0,0.0,0.0,0,Manual,OTHER,NONE,GPS_POSITION_NONMATCH,False,Connected,,P,False,False,False,0,0,,0.0,,,,,,0.0,0.0,0.0,0.0,NaN,NaN,NaN,0.0,0.0,0.0,0,0,0,16433,0,88.92018,12800.0,16417,-952,0,90,25,1,4112,0,5122,0.0,0.0,
