Clock:Tick#,Clock:offsetTime,IMU_ATTI(0):Longitude,IMU_ATTI(0):Latitude,IMU_ATTI(0):press:D,IMU_ATTI(0):alti:D,IMU_ATTI(0):relativeHeight:C,IMU_ATTI(0):absoluteHeight:C,IMU_ATTI(0):numSats,IMU_ATTI(0):roll:C,IMU_ATTI(0):pitch:C,IMU_ATTI(0):yaw:C,IMU_ATTI(0):accelX,IMU_ATTI(0):accelY,IMU_ATTI(0):accelZ,IMU_ATTI(0):accelComposite:C,IMU_ATTI(0):gyroX,IMU_ATTI(0):gyroY,IMU_ATTI(0):gyroZ,IMU_ATTI(0):gyroComposite:C,IMU_ATTI(0):velN,IMU_ATTI(0):velE,IMU_ATTI(0):velD,IMU_ATTI(0):velComposite:C,IMU_ATTI(0):velH:C,IMU_ATTI(0):magX,IMU_ATTI(0):magY,IMU_ATTI(0):magZ,IMU_ATTI(0):magMod:C,IMU_ATTI(0):temperature,IMU_ATTI(0):yawUnWrapped:C,IMU_ATTI(0):tiltInclination:C,IMU_ATTI(0):tiltDirectionEarthFrame:C,IMU_ATTI(0):tiltDirectionBodyFrame:C,IMU_ATTI(0):yaw360:C,IMU_ATTI(0):magYaw:C,IMU_ATTI(0):Yaw-magYaw:C,IMUCalcs(0):PosN:C,IMUCalcs(0):PosE:C,IMUCalcs(0):PosD:C,IMUCalcs(0):height:C,IMUCalcs(0):velN:C,IMUCalcs(0):velE:C,IMUCalcs(0):velD:C,IMUCalcs(0):diffVelN:C,IMUCalcs(0):diffVelE:C,IMUCalcs(0):diffVelD:C,IMUCalcs(0):Lat:C,IMUCalcs(0):Long:C,IMUCalcs(0):VelocityError:C,IMUCalcs(0):PositionError:C,IMUCalcs(0):totalGyroZ:C,IMUCalcs(0):totalGyroX:C,IMUCalcs(0):totalGyroY:C,IMU_ATTI(0):distanceHP:C,IMU_ATTI(0):distanceTravelled:C,IMU_ATTI(0):directionOfTravel[mag]:C,IMU_ATTI(0):directionOfTravel[true]:C,IMU_ATTI(0):quatW:D,IMU_ATTI(0):quatX:D,IMU_ATTI(0):quatY:D,IMU_ATTI(0):quatZ:D,IMU_ATTI(0):agX:D,IMU_ATTI(0):agY:D,IMU_ATTI(0):agZ:D,IMU_ATTI(0):gbX:D,IMU_ATTI(0):gbY:D,IMU_ATTI(0):gbZ:D,IMU_ATTI(0):ty:D,IMU_ATTI(0):tz:D,IMU_ATTI(0):sensor_stat:D,IMU_ATTI(0):filter_stat:D,IMU_ATTI(0):atti_cnt:D,GPS:Long,GPS:Lat,GPS:Date,GPS:Time,GPS:dateTimeStamp,GPS:heightMSL,GPS:hDOP,GPS:pDOP,GPS:sAcc,GPS:numGPS,GPS:numGLNAS,GPS:numSV,GPS:velN,GPS:velE,GPS:velD,GPS:rawDate,GPS:rawTime,Controller:ctrl_tick:D,Controller:ctrl_pitch:D,Controller:ctrl_roll:D,Controller:ctrl_yaw:D,Controller:ctrl_thr:D,Controller:ctrl_mode,Controller:mode_switch:D,Controller:motor_state:D,Controller:sig_level:D,Controller:ctrl_level:D,Controller:sim_model:D,Controller:max_height:D,Controller:max_radius:D,Controller:D2H_x:D,Controller:D2H_y:D,Controller:act_req_id:D,Controller:act_act_id:D,Controller:cmd_mod:D,Controller:mod_req_id:D,Controller:fw_flag:D,Controller:mot_sta:D,Controller:OH_take:D,Controller:OH_take_f:D,Controller:rc_cnt:D,Controller:sup_rc:D,Controller:is_soaring_up:D,Controller:soar_up_timer:D,Controller:vert_vel_err:D,Controller:vert_vel_err_fltr:D,RC_Info:failSafe,RC_Info:dataLost,RC_Info:appLost,RC_Info:sigStrength:C,RC_Info:cur_cmd:D,RC_Info:vedio_lost:D,RC_Info:frame_lost:D,RC_Info:rec_cnt:D,RC_Info:sky_con:D,RC_Info:gnd_con:D,RC_Info:connected:D,RC_Info:m_changed:D,RC_Info:arm_status:D,RC_Info:wifi_en:D,RC_Info:in_wifi:D,MagCali(0):X:D,MagCali(0):Y:D,MagCali(0):Z:D,MagCali(0):Mod:C,MagCali(0):magYaw:C,MagCali(1):X:D,MagCali(1):Y:D,MagCali(1):Z:D,MagCali(1):Mod:C,MagCali(1):magYaw:C,CompassFilter(0):X:D,CompassFilter(0):Y:D,CompassFilter(0):Z:D,CompassFilter(1):X:D,CompassFilter(1):Y:D,CompassFilter(1):Z:D,BatteryStatus:not_ready,BatteryStatus:comm_err,BatteryStatus:first_auth,BatteryStatus:auth_fail,BatteryStatus:need_re,BatteryStatus:volVerylow,BatteryStatus:volNotsafe,BatteryStatus:volLevel1:D,BatteryStatus:vollevel2:D,BatteryStatus:capLevel1:D,BatteryStatus:capLevel2:D,BatteryStatus:smartCap1:D,BatteryStatus:smartCap2:D,BatteryStatus:d_flg:D,BatteryStatus:ccsc:D,BatteryStatus:all:D,SMART_BATT:goHome%,SMART_BATT:land%,SMART_BATT:goHomeTime,SMART_BATT:landTime,OA:frontDistance,MVO:velX,MVO:velY,MVO:velZ,MVO:posX,MVO:posY,MVO:posZ,MVO:hoverPointUncertainty1,MVO:hoverPointUncertainty2,MVO:hoverPointUncertainty3,MVO:hoverPointUncertainty4,MVO:hoverPointUncertainty5,MVO:hoverPointUncertainty6,MVO:velocityUncertainty1,MVO:velocityUncertainty2,MVO:velocityUncertainty3,MVO:velocityUncertainty4,MVO:velocityUncertainty5,MVO:velocityUncertainty6,MVO:height,MVO:heightUncertainty,Motor:Speed:RFront,Motor:Speed:LFront,Motor:Speed:LBack,Motor:Speed:RBack,Motor:EscTemp:RFront,Motor:EscTemp:LFront,Motor:EscTemp:LBack,Motor:EscTemp:RBack,Motor:PPMrecv:RFront,Motor:PPMrecv:LFront,Motor:PPMrecv:LBack,Motor:PPMrecv:RBack,Motor:PPMsend:RFront,Motor:PPMsend:LFront,Motor:PPMsend:LBack,Motor:PPMsend:RBack,Motor:V_out:RFront,Motor:V_out:LFront,Motor:V_out:LBack,Motor:V_out:RBack,Motor:Volts:RFront,Motor:Volts:LFront,Motor:Volts:LBack,Motor:Volts:RBack,Motor:Current:RFront,Motor:Current:LFront,Motor:Current:LBack,Motor:Current:RBack,Motor:Status:RFront,Motor:Status:LFront,Motor:Status:LBack,Motor:Status:RBack,AirSpeed:air_vbx:D,AirSpeed:air_vby:D,AirSpeed:comp_alti:D,AirSpeed:windSpeed,AirSpeed:windDirection,AirSpeed:windFromDir,AirSpeed:windN,AirSpeed:windE,AirSpeed:MotorSpd:D,AirSpeed:vel_level:D,osd_data:flyCState,osd_data:flycCommand,osd_data:flightAction,osd_data:nonGPSCause,osd_data:compassError,osd_data:connectedToRC,osd_data:lowVoltage,osd_data:ModeSwitch,osd_data:gpsUsed,osd_data:visionUsed,osd_data:notEnoughForce,osd_data:flightTime,osd_data:navHealth,osd_data:vpsHeight,osd_data:relativeHeight,usonic:usonic_h,ATTI_MINI0:s_qw0,ATTI_MINI0:s_qx0,ATTI_MINI0:s_qy0,ATTI_MINI0:s_qz0,ATTI_MINI0:roll:C,ATTI_MINI0:pitch:C,ATTI_MINI0:yaw:C,ATTI_MINI0:s_pgz0,ATTI_MINI0:s_vgz0,ATTI_MINI0:s_agz0,ATTI_MINI0:s_rsv00,ATTI_MINI0:s_rsv10,ATTI_MINI0:s_cnt0,BatteryInfo:ad_v:D,BatteryInfo:r_time,BatteryInfo:ave_I:D,BatteryInfo:vol_t:D,BatteryInfo:pack_ve:D,BatteryInfo:I:D,BatteryInfo:r_cap:D,BatteryInfo:cap_per:D,BatteryInfo:temp:D,BatteryInfo:right:D,BatteryInfo:l_cell:D,BatteryInfo:dyna_cnt:D,BatteryInfo:f_cap:D,BatteryInfo:out_ctl:D,BatteryInfo:out_ctl_f:D,Attribute|Value,ConvertDatV3,4.3.0
0,.000,,,,,,,,,,,,,,,,,,,,,,,,,,,,,,,,,,,,,,,,,,,,,,,,,,,,,,,,,,,,,,,,,,,,,,,,,,,,,,,,,,,,,,,,,,,,,,,,,,,,,,,,,,,,,,,,,,,,,,,,,,,,,,,,,,,,,,,,,,,,,,,,,,,,,,,,,,,,,,,,,,,,,,,,,,,,,,,,,,,,,,,,,,,,,,,,,,,,,,,,,,,,,,,,,,,,,,,,,,,,,,,,,,,,,,,,,,,,,,,,,,,,,,,,,,,,,,,,,,,,,,,,,,,,,,,,,,,
11196842,2.488,,,,,,,,,,,,,,,,,,,,,,,,,,,,,,,,,,,,,,,,,,,,,,,,,,,,,,,,,,,,,,,,,,,,,,,,,,,,,,,,,,,,,,,,,,,,,,,,,,,,,,,,,,,,,,,,,,,,,,,,,,,,,,,,,,,,,,,,,,,,,,,,,,,,,,,,,,,,,,,,,,,,,,,,,,,,,,,,,,,,,,,,,,,,0.0,,,,,,,,,,,,,,,,,,,,,,,,,,,,,,,,,,,,,,,,,,,,,,,,,,,P,,,,,,,,,,,,,,,,,,,,,,,,,,,,,,,,,,,,,Firmware Date| Nov 16 2017
16514757,3.670,,,,,,,,,,,,,,,,,,,,,,,,,,,,,,,,,,,,,,,,,,,,,,,,,,,,,,,,,,,,,,,,,,,,,,,,,,,,,,,,,,,,,,,,,,,,,,,,,,,,,,,,,,,,,,,,,,,,,,,,,,,,,,,,,,,,,,,,,,,,,,,,,,,,,,,,,,,,,,,,,,,,,,,,,,,,,,,,,,,,,,,,,,,,0.0,,,,,,,,,,,,,,,,,,,,,,,,,,,,,,,,,,,,,,,,,,,,,,,,,,,P,,,,,,,,,,,,,,,,,,,,,,,,,,,,,,,,,,,,,ACType|P4
20646688,4.588,,,,,,,,,,,,,,,,,,,,,,,,,,,,,,,,,,,,,,,,,,,,,,,,,,,,,,,,,,,,,,,,,,,,,,,,,,,,,,,,,,,,,,,,,,,,,,,,,,,,,,,,,,,,,,,,,,,,,,,,,,,,,,,,,,,,,,,,,,,,,,,,,,,,,,,,,,,,,,,,,,,,,,,,,,,,,,,,,,,,,,,,,,,,0.0,,,,,,,,,,,,,,,,,,,,,,,,,,,,,,,,,,,,,,,,,,,,,,,,,,,P,,,,,,,,,,,,,,,,,,,,,,,,,,,,,,,,,,,,,
20846241,4.632,,,,,,,,,,,,,,,,,,,,,,,,,,,,,,,,,,,,,,,,,,,,,,,,,,,,,,,,,,,,,,,,,,,,,,,,,,,,,,,,,,,,,,,,,,,,,,,,,,,,,,,,,,,,,,,,,,,,,,,,,,,,,,,,,,,,,,,,,,,,,,,,,,,,,,,,,,,,,,,,,,,,,,,,,,,,,,,,,,,,,,,,,,,,0.0,,,,,,,,,,,,,,,,,,,,,,,,,,,,,,,,,,,,,,,,,,,,,,,,,,,P,,,,,,,,,,,,,,,,,,,,,,,,,,,,,,,,,,,,,
21015183,4.670,,,,,,,,,,,,,,,,,,,,,,,,,,,,,,,,,,,,,,,,,,,,,,,,,,,,,,,,,,,,,,,,,,,,,,,,,,,,,,,,,,,,,,,,,,,,,,,,,,,,,,,,,,,,,,,,,,,,,,,,,,,,,,,,,,,,,,,,,,,,,,,,,,,,,,,,,,,,,,,,,,,,,,,,,,,,,,,,,,,,,,,,,,,,0.0,,,,,,,,,,,,,,,,,,,,,,,,,,,,,,,,,,,,,,,,,,,,,,,,,,,P,,,,,,,,,,,,,,,,,,,,,,,,,,,,,,,,,,,,,
21165652,4.703,,,0.0,-0.0,,,0,NaN,0.0,0.0,0.15053163,-0.14955834,-0.6743655,0.70696276,0.026078809,0.5533611,-0.53510785,0.77021366,0.0,0.0,0.0,0.0,0.0,123,69,397,421.0,0.0,0.0,NaN,NaN,NaN,0.0,NaN,NaN,0.0,0.0,0.0,-0.0,NaN,NaN,NaN,NaN,NaN,NaN,NaN,NaN,false,false,-0.009835361486636884,0.0014992910307896068,0.00927590210488205,,0.0,,,0.0,0.0,0.0,0.0,0.0,0.0,0.0,0.0,0.0,0.0,0,0,0,0,11,,,,,,,,,,,,,,,,,,0,0,0,0,0,Manual,0,0,0,0,0,100,5000,0.0,0.0,0,5,0,0,0,0,0,0,0,0,0,0.0,0.0,0.0,,,,,,,,,,,,,,,,123,69,397,421.0,NaN,-6,55,329,333.0,NaN,118,66,383,-5,49,318,,,,,,,,,,,,,,,,,,,,,,,,,,,,,,,,,,,,,,,,0.0,,,,,,,,,,,,,,,,,,,,,,,,,,,,,,,,,,0.0,0.0,0.0,0.0,0.0,180.0,0.0,0.0,0.0,0,,,,,,,,P,,,,,,,,0.05,0.0,0.0,0.0,0.0,NaN,NaN,NaN,0.0,0.0,0.0,0,0,0,,,,,,,,,,,,,,,,
22495437,4.999,,,0.0,-0.0,,,0,NaN,0.0,0.0,0.23544668,-0.20834784,-1.0197828,1.0671462,-0.43371633,0.12742576,-0.49111974,0.66749215,0.0,0.0,0.0,0.0,0.0,122,72,400,424.0,0.0,0.0,NaN,NaN,NaN,0.0,NaN,NaN,0.0,0.0,0.0,-0.0,NaN,NaN,NaN,NaN,NaN,NaN,NaN,NaN,false,false,-0.02363368508785868,-9.836698102663188E-4,0.019646450112322356,,0.0,,,0.0,0.0,0.0,0.0,0.0,0.0,0.0,0.0,0.0,0.0,0,0,0,0,21,,,,,,,,,,,,,,,,,,1,0,0,0,0,Manual,0,0,0,0,0,30,50,0.0,0.0,0,5,0,0,0,0,0,0,0,0,0,0.0,0.0,0.0,Hover,,lost,0.0,0,0,0,0,0,0,0,0,0,1,0,122,72,400,424.0,NaN,-6,55,329,333.0,NaN,143,81,465,-6,63,384,,,,,,,,,,,,,,,,,,,,,,,,,,,,,,,,,,,,,,,,0.0,,,,,,,,,,,,,,,,,,,,,,,,,,,,,,,,,,0.0,0.0,0.0,0.0,0.0,180.0,0.0,0.0,0.0,0,,,,,,,,P,,,,,,,,0.046,0.0,0.0,0.0,0.0,NaN,NaN,NaN,0.0,0.0,0.0,0,0,0,0,0,0.0,0.0,0,0,0,0,0,1,0,0,0,0.0,0.0,
22646200,5.032,,,0.0,-0.0,,,4,NaN,0.0,0.0,0.2166489,-0.18963242,-0.94396293,0.98689574,0.022115553,-0.12034461,-0.39044604,0.40916994,0.0,0.0,0.0,0.0,0.0,-25,332,1230,1274.0,28.06,0.0,NaN,NaN,NaN,0.0,NaN,NaN,0.0,0.0,0.0,-0.0,NaN,NaN,NaN,NaN,NaN,NaN,NaN,NaN,false,false,-0.16437260841451717,-0.10097759380479254,0.008944057993256926,,0.0,,,0.0,0.0,0.0,0.0,0.0,0.0,0.0,0.0,0.0,0.0,-2200,2562,0,0,143,,,,,,,,,,,,,,,,,,17,0,0,0,0,Manual,0,0,0,0,0,30,50,0.0,0.0,0,5,0,0,0,0,0,0,0,0,0,0.0,0.0,0.0,Hover,,lost,0.0,0,0,0,0,0,0,0,0,0,1,0,-25,332,1230,1274.0,NaN,70,78,1203,1207.0,NaN,124,70,398,-4,52,329,,,,,,,,,,,,,,,,,,,,,,,,,,,,,,,,,,,,,,,,0.0,,0,0,0,0,27,29,29,0,48.59375,48.90625,48.854168,0.0,48.958332,48.958332,48.958332,26.041666,0.0,0.0,0.0,0.0,16.7,16.7,16.4,0.0,0.0,0.0,0.0,0.0,0,0,0,-1,0.0,0.0,0.0,0.0,0.0,180.0,0.0,0.0,0.0,0,,,,,,,,P,,,,,,,,0.05,0.0,0.0,0.0,0.0,NaN,NaN,NaN,0.0,0.0,0.0,0,0,0,14581,0,0.0,0.0,0,0,0,0,0,1,0,0,0,0.0,0.0,
22796894,5.066,,,0.0,-0.0,,,4,NaN,0.0,0.0,0.21800874,-0.19308132,-0.94394404,0.9878454,-0.34071726,-0.38032123,-0.29360786,0.5890145,0.0,0.0,0.0,0.0,0.0,-28,332,1236,1280.0,28.08,0.0,NaN,NaN,NaN,0.0,NaN,NaN,0.0,0.0,0.0,-0.0,NaN,NaN,NaN,NaN,NaN,NaN,NaN,NaN,false,false,-0.17490538687726342,-0.10730040956900466,9.010320804065941E-4,,0.0,,,0.0,0.0,0.0,0.0,0.0,0.0,0.0,0.0,0.0,0.0,-2200,2562,0,0,157,,,,,,,,,,,,,,,,,,18,0,0,0,0,Manual,0,0,0,0,0,30,50,0.0,0.0,0,5,0,0,0,0,0,0,0,0,0,0.0,0.0,0.0,Hover,,lost,0.0,0,0,0,0,0,0,0,0,0,1,0,-28,332,1236,1280.0,NaN,70,75,1209,1213.0,NaN,123,69,398,-4,52,329,,,,,,,,,,,,,,,,,,,,,,,,,,,,,,,,,,,,,,,,0.0,,0,0,0,0,28,29,29,29,48.59375,48.90625,48.854168,49.010418,48.958332,48.958332,48.958332,48.958332,0.0,0.0,0.0,0.0,16.8,16.8,16.5,16.5,0.0,0.0,0.0,0.0,0,0,0,0,0.0,0.0,0.0,0.0,0.0,180.0,0.0,0.0,0.0,0,Manual,OTHER,NONE,GPS_POSITION_NONMATCH,True,DisConnected,,P,False,False,False,0,0,,0.0,0.05,0.0,0.0,0.0,0.0,NaN,NaN,NaN,0.0,0.0,0.0,0,0,0,14866,0,0.0,0.0,0,0,0,0,0,1,0,0,0,0.0,0.0,
22947355,5.099,,,0.0,-0.0,,,4,NaN,0.0,0.0,0.21483515,-0.19313182,-0.94436234,0.9875598,-0.25556338,-0.08209114,-0.5785019,0.63774294,0.0,0.0,0.0,0.0,0.0,-25,329,1233,1276.0,28.1,0.0,NaN,NaN,NaN,0.0,NaN,NaN,0.0,0.0,0.0,-0.0,NaN,NaN,NaN,NaN,NaN,NaN,NaN,NaN,false,false,-0.19125952659018708,-0.11768103044311373,-0.0037213280428751716,,0.0,,,0.0,0.0,0.0,0.0,0.0,0.0,0.0,0.0,0.0,0.0,-2200,2566,0,0,171,,,,,,,,,,,,,,,,,,20,0,0,0,0,Manual,0,0,0,0,0,30,50,0.0,0.0,0,5,0,0,0,0,0,0,0,0,0,0.0,0.0,0.0,Hover,,lost,0.0,0,0,0,0,0,0,0,0,0,1,0,-25,329,1233,1276.0,NaN,70,81,1209,1213.0,NaN,123,69,399,-5,51,331,,,,,,,,,,,,,,,,,,,,,,,,,,,,,,,,,,,,,,,,0.0,,0,0,0,0,28,29,29,29,48.59375,48.90625,48.854168,49.010418,48.958332,48.958332,48.958332,48.958332,0.0,0.0,0.0,0.0,16.7,16.7,16.5,16.6,0.0,0.0,0.0,0.0,0,0,0,0,0.0,0.0,0.0,0.0,0.0,180.0,0.0,0.0,0.0,0,Manual,OTHER,NONE,GPS_POSITION_NONMATCH,True,DisConnected,,P,False,False,False,0,0,,0.0,0.05,0.0,0.0,0.0,0.0,NaN,NaN,NaN,0.0,0.0,0.0,0,0,0,15339,0,0.0,0.0,0,0,0,0,0,1,0,0,0,0.0,0.0,
23099840,5.133,,,0.0,-0.0,,,4,NaN,0.0,0.0,0.21768789,-0.19124886,-0.9419815,0.9855422,-0.21334656,-0.17835799,-0.5024573,0.57427496,0.0,0.0,0.0,0.0,0.0,-28,332,1239,1283.0,28.11,0.0,NaN,NaN,NaN,0.0,NaN,NaN,0.0,0.0,0.0,-0.0,NaN,NaN,NaN,NaN,NaN,NaN,NaN,NaN,false,false,-0.20478033284774,-0.1246543210824258,-0.006823318033529091,,0.0,,,0.0,0.0,0.0,0.0,0.0,0.0,0.0,0.0,0.0,0.0,-2200,2566,0,0,183,,,,,,,,,,,,,,,,,,22,0,0,0,0,Manual,0,0,0,0,0,30,50,0.0,0.0,0,5,0,0,0,0,0,0,0,0,0,0.0,0.0,0.0,Hover,,lost,0.0,0,0,0,0,0,0,0,0,0,1,0,-28,332,1239,1283.0,NaN,70,81,1209,1213.0,NaN,123,69,399,-4,52,330,,,,,,,,,,,,,,,,,,,,,,,,,,,,,,,,,,,,,,,,0.0,,0,0,0,0,28,29,29,29,48.59375,48.90625,48.854168,49.010418,48.958332,48.958332,48.958332,48.958332,0.0,0.0,0.0,0.0,16.4,16.8,16.5,16.5,0.0,0.0,0.0,0.0,0,0,0,0,0.0,0.0,0.0,0.0,0.0,180.0,0.0,0.0,0.0,0,Manual,OTHER,NONE,GPS_POSITION_NONMATCH,True,DisConnected,,P,False,False,False,0,0,,0.0,0.05,0.0,0.0,0.0,0.0,NaN,NaN,NaN,0.0,0.0,0.0,0,0,0,15707,0,0.0,0.0,0,0,0,0,0,1,0,0,0,0.0,0.0,
23251449,5.167,,,0.0,-0.0,,,4,NaN,0.0,0.0,0.21934281,-0.19251943,-0.94335425,0.9874676,-0.33364648,-0.26387143,-0.3975165,0.5822091,0.0,0.0,0.0,0.0,0.0,-28,332,1242,1285.0,28.11,0.0,NaN,NaN,NaN,0.0,NaN,NaN,0.0,0.0,0.0,-0.0,NaN,NaN,NaN,NaN,NaN,NaN,NaN,NaN,false,false,-0.2176871094653876,-0.13290767312870755,-0.014582929711121295,,0.0,,,0.0,0.0,0.0,0.0,0.0,0.0,0.0,0.0,0.0,0.0,-2200,2566,0,0,197,,,,,,,,,,,,,,,,,,23,0,0,0,0,Manual,0,0,0,0,0,30,50,0.0,0.0,0,5,0,0,0,0,0,0,0,0,0,0.0,0.0,0.0,Hover,,lost,0.0,0,0,0,0,0,0,0,0,0,1,0,-28,332,1242,1285.0,NaN,73,78,1209,1213.0,NaN,122,70,401,-5,51,329,,,,,,,,,,,,,,,,,,,,,,,,,,,,,,,,,,,,,,,,0.0,,0,0,0,0,28,29,29,29,48.59375,48.90625,48.854168,49.010418,48.958332,48.958332,48.958332,48.958332,0.0,0.0,0.0,0.0,16.4,16.8,16.5,16.5,0.0,0.0,0.0,0.0,0,0,0,0,0.0,0.0,0.0,0.0,0.0,180.0,0.0,0.0,0.0,0,Manual,OTHER,NONE,GPS_POSITION_NONMATCH,True,DisConnected,,P,False,False,False,0,0,,0.0,0.05,0.0,0.0,0.0,0.0,NaN,NaN,NaN,0.0,0.0,0.0,0,0,0,15859,0,0.0,0.0,0,0,0,0,0,1,0,0,0,0.0,0.0,
23402148,5.200,,,-57.083733,-0.0,,,4,NaN,0.0,0.0,0.2155004,-0.19237797,-0.9452828,0.98843783,-0.14150666,-0.124472864,-0.48927832,0.52431947,0.0,0.0,0.0,0.0,0.0,-25,327,1230,1272.0,28.1,0.0,NaN,NaN,NaN,0.0,NaN,NaN,0.0,0.0,0.0,-0.0,NaN,NaN,NaN,NaN,NaN,NaN,NaN,NaN,false,false,-0.2311039105432684,-0.13967110209315847,-0.02064130236362338,,0.0,,,0.0,0.0,0.0,0.0,0.0,0.0,0.0,0.0,0.0,0.0,-2200,2568,0,0,211,,,,,,,,,,,,,,,,,,25,0,0,0,0,Manual,0,0,0,0,0,30,50,0.0,0.0,0,5,0,0,0,0,0,0,0,0,0,0.0,0.0,0.0,Hover,,lost,0.0,0,0,0,0,0,0,0,0,0,1,0,-25,327,1230,1272.0,NaN,70,75,1206,1210.0,NaN,124,68,398,-3,52,331,,,,,,,,,,,,,,,,,,,,,,,,,,,,,,,,,,,,,,,,0.0,,0,0,0,0,28,29,29,29,48.59375,48.90625,48.854168,49.010418,48.958332,48.958332,48.958332,48.958332,0.0,0.0,0.0,0.0,16.9,16.5,16.5,16.5,0.0,0.0,0.0,0.0,0,0,0,0,0.0,0.0,0.0,0.0,0.0,180.0,0.0,0.0,0.0,0,Manual,OTHER,NONE,GPS_POSITION_NONMATCH,True,DisConnected,,P,False,False,False,0,0,,0.0,0.05,0.0,0.0,0.0,0.0,NaN,NaN,NaN,0.0,0.0,0.0,0,0,0,16111,0,0.0,0.0,0,0,0,0,0,1,0,0,0,0.0,0.0,
23552228,5.234,,,-57.027214,-0.0,,,0,NaN,0.0,0.0,0.21724753,-0.19222695,-0.9428306,0.9864468,-0.32332033,-0.18548723,-0.34976932,0.51115566,0.0,0.0,0.0,0.0,0.0,-28,332,1230,1274.0,28.09,0.0,NaN,NaN,NaN,0.0,NaN,NaN,0.0,0.0,0.0,-0.0,NaN,NaN,NaN,NaN,NaN,NaN,NaN,NaN,false,false,-0.24509976470226746,-0.1453125013209584,-0.022422314728065995,,0.0,,,0.0,0.0,0.0,0.0,0.0,0.0,0.0,0.0,0.0,0.0,-2200,2568,0,0,223,26.7209451,58.3914368,20240502,82448,2024-05-02T08:24:48Z,63.804,99.99,99.99,170.67,0,0,0,0.0,0.0,0.0,20240502,82448,27,0,0,0,0,Manual,0,0,0,0,0,30,50,0.0,0.0,0,5,0,0,0,0,0,0,0,0,0,0.0,0.0,0.0,Hover,,lost,0.0,0,0,0,0,0,0,0,0,0,1,0,-28,332,1230,1274.0,NaN,70,75,1206,1210.0,NaN,123,70,398,-5,51,330,,,,,,,,,,,,,,,,,,,,,,,,,,,,,,,,,,,,,,,,0.0,,0,0,0,0,28,29,29,29,48.59375,48.90625,48.854168,49.010418,48.958332,48.958332,48.958332,48.958332,0.0,0.0,0.0,0.0,16.7,16.7,16.5,16.5,0.0,0.0,0.0,0.0,0,0,0,0,0.0,0.0,0.0,0.0,0.0,180.0,0.0,0.0,0.0,0,Manual,OTHER,NONE,GPS_POSITION_NONMATCH,True,DisConnected,,P,False,False,False,0,0,,0.0,0.05,0.0,0.0,0.0,0.0,NaN,NaN,NaN,0.0,0.0,0.0,0,0,0,16307,0,0.0,0.0,0,0,0,0,0,1,0,0,0,0.0,0.0,
23703649,5.267,,,-56.921505,-0.0,,,0,NaN,0.0,0.0,0.21831597,-0.19267523,-0.9443405,0.9882129,-0.1653916,-0.23594712,-0.41185454,0.50264263,0.0,0.0,0.0,0.0,0.0,-22,332,1233,1277.0,28.13,0.0,NaN,NaN,NaN,0.0,NaN,NaN,0.0,0.0,0.0,-0.0,NaN,NaN,NaN,NaN,NaN,NaN,NaN,NaN,false,false,-0.25827238014881004,-0.15231601289860897,-0.030055494280615047,,0.0,,,0.0,0.0,0.0,0.0,0.0,0.0,0.0,0.0,0.0,0.0,-2200,2568,0,0,237,26.7209451,58.3914368,20240502,82448,2024-05-02T08:24:48Z,63.804,99.99,99.99,170.67,0,0,0,0.0,0.0,0.0,20240502,82448,28,0,0,0,0,Manual,0,0,0,0,0,30,50,0.0,0.0,0,5,0,0,0,0,0,0,0,0,0,0.0,0.0,0.0,Hover,,lost,0.0,0,0,0,0,0,0,0,0,0,1,0,-22,332,1233,1277.0,NaN,63,75,1209,1212.0,NaN,123,70,398,-4,51,330,,,,,,,,,,,,,,,,,,,,,,,,,,,,,,,,,,,,,,,,0.0,,0,0,0,0,28,30,29,29,48.59375,48.90625,48.854168,49.010418,48.958332,48.958332,48.958332,48.958332,0.0,0.0,0.0,0.0,16.7,16.8,16.5,16.6,0.0,0.0,0.0,0.0,0,0,0,0,0.0,0.0,0.0,0.0,0.0,180.0,0.0,0.0,0.0,0,Manual,OTHER,NONE,GPS_POSITION_NONMATCH,True,DisConnected,,P,False,False,False,0,0,,0.0,0.05,0.0,0.0,0.0,0.0,NaN,NaN,NaN,0.0,0.0,0.0,0,0,0,16388,0,0.0,0.0,0,0,0,0,0,1,0,0,0,0.0,0.0,
23854390,5.301,,,-57.085304,-0.0,,,0,NaN,0.0,0.0,0.21608418,-0.19096525,-0.94414735,0.9872053,-0.21729508,-0.04935029,-0.4056798,0.46284845,0.0,0.0,0.0,0.0,0.0,-22,335,1230,1274.0,28.15,0.0,NaN,NaN,NaN,0.0,NaN,NaN,0.0,0.0,0.0,-0.0,NaN,NaN,NaN,NaN,NaN,NaN,NaN,NaN,false,false,-0.2711908670214065,-0.158171835145003,-0.035029945825511444,,0.0,,,0.0,0.0,0.0,0.0,0.0,0.0,0.0,0.0,0.0,0.0,-2200,2570,0,0,251,26.7209451,58.3914368,20240502,82448,2024-05-02T08:24:48Z,63.804,99.99,99.99,170.67,0,0,0,0.0,0.0,0.0,20240502,82448,30,0,0,0,0,Manual,0,0,0,0,0,30,50,0.0,0.0,0,5,0,0,0,0,0,0,0,0,0,0.0,0.0,0.0,Hover,,lost,0.0,0,0,0,0,0,0,0,0,0,1,0,-22,335,1230,1274.0,NaN,66,75,1209,1213.0,NaN,125,70,398,-7,50,331,,,,,,,,,,,,,,,,,,,,,,,,,,,,,,,,,,,,,,,,0.0,,0,0,0,0,28,30,29,29,48.59375,48.90625,48.854168,49.010418,48.958332,48.958332,48.958332,48.958332,0.0,0.0,0.0,0.0,16.7,16.7,16.3,16.7,0.0,0.0,0.0,0.0,0,0,0,0,0.0,0.0,0.0,0.0,0.0,180.0,0.0,0.0,0.0,0,Manual,OTHER,NONE,GPS_POSITION_NONMATCH,True,DisConnected,,P,False,False,False,0,0,,0.0,0.05,0.0,0.0,0.0,0.0,NaN,NaN,NaN,0.0,0.0,0.0,0,0,0,16523,0,0.0,0.0,0,0,0,0,0,1,0,0,0,0.0,0.0,
24005467,5.335,,,-56.72997,-0.0,,,0,NaN,0.0,0.0,0.2177003,-0.19378524,-0.9448706,0.9888006,-0.2952408,-0.016597172,-0.37611416,0.4784396,0.0,0.0,0.0,0.0,0.0,-25,338,1236,1281.0,28.15,0.0,NaN,NaN,NaN,0.0,NaN,NaN,0.0,0.0,0.0,-0.0,NaN,NaN,NaN,NaN,NaN,NaN,NaN,NaN,false,false,-0.28513827139654424,-0.1655574165329463,-0.039641485836488854,,0.0,,,0.0,0.0,0.0,0.0,0.0,0.0,0.0,0.0,0.0,0.0,-2200,2570,0,0,265,26.7209451,58.3914368,20240502,82448,2024-05-02T08:24:48Z,63.804,99.99,99.99,170.67,0,0,0,0.0,0.0,0.0,20240502,82448,32,0,0,0,0,Manual,0,0,0,0,0,30,50,0.0,0.0,0,5,0,0,0,0,0,0,0,0,0,0.0,0.0,0.0,Hover,,lost,0.0,0,0,0,0,0,0,0,0,0,1,0,-25,338,1236,1281.0,NaN,66,75,1200,1204.0,NaN,123,71,399,-5,51,329,,,,,,,,,,,,,,,,,,,,,,,,,,,,,,,,,,,,,,,,0.0,,0,0,0,0,28,30,29,29,48.59375,48.90625,48.854168,49.010418,48.958332,48.958332,48.958332,48.958332,0.0,0.0,0.0,0.0,16.8,16.7,16.5,16.5,0.0,0.0,0.0,0.0,0,0,0,0,0.0,0.0,0.0,0.0,0.0,180.0,0.0,0.0,0.0,0,Manual,OTHER,NONE,GPS_POSITION_NONMATCH,True,DisConnected,,P,False,False,False,0,0,,0.0,0.05,0.0,0.0,0.0,0.0,NaN,NaN,NaN,0.0,0.0,0.0,0,0,0,16627,0,0.0,0.0,0,0,0,0,0,1,0,0,0,0.0,0.0,
24155896,5.368,,,-56.821022,-0.0,,,0,NaN,0.0,0.0,0.21708366,-0.19150953,-0.9447634,0.988119,-0.2684249,-0.08457158,-0.40937835,0.49678457,0.0,0.0,0.0,0.0,0.0,-28,329,1227,1270.0,28.16,0.0,NaN,NaN,NaN,0.0,NaN,NaN,0.0,0.0,0.0,-0.0,NaN,NaN,NaN,NaN,NaN,NaN,NaN,NaN,false,false,-0.2960116328637632,-0.173386545916683,-0.04457691421894783,,0.0,,,0.0,0.0,0.0,0.0,0.0,0.0,0.0,0.0,0.0,0.0,-2200,2570,0,0,277,26.7209451,58.3914368,20240502,82448,2024-05-02T08:24:48Z,63.804,99.99,99.99,170.67,0,0,0,0.0,0.0,0.0,20240502,82448,33,0,0,0,0,Manual,0,0,0,0,0,30,50,0.0,0.0,0,5,0,0,0,0,0,0,0,0,0,0.0,0.0,0.0,Hover,,lost,0.0,0,0,0,0,0,0,0,0,0,1,0,-28,329,1227,1270.0,NaN,66,75,1206,1210.0,NaN,123,71,399,-6,50,328,,,,,,,,,,,,,,,,,,,,,,,,,,,,,,,,,,,,,,,,0.0,,0,0,0,0,28,30,29,29,48.59375,48.90625,48.854168,49.010418,48.958332,48.958332,48.958332,48.958332,0.0,0.0,0.0,0.0,16.8,16.7,16.5,16.5,0.0,0.0,0.0,0.0,0,0,0,0,0.0,0.0,0.0,0.0,0.0,180.0,0.0,0.0,0.0,0,Manual,OTHER,NONE,GPS_POSITION_NONMATCH,True,DisConnected,,P,False,False,False,0,0,,0.0,0.05,0.0,0.0,0.0,0.0,NaN,NaN,NaN,0.0,0.0,0.0,0,0,0,16670,0,0.0,0.0,0,0,0,0,0,1,0,0,0,0.0,0.0,
24314855,5.403,,,-57.050766,-0.0,,,0,NaN,0.0,0.0,0.21700557,-0.19089806,-0.9422563,0.9855863,-0.24565992,-0.12760499,-0.32744122,0.42877683,0.0,0.0,0.0,0.0,0.0,-35,335,1227,1272.0,28.13,0.0,NaN,NaN,NaN,0.0,NaN,NaN,0.0,0.0,0.0,-0.0,NaN,NaN,NaN,NaN,NaN,NaN,NaN,NaN,false,false,-0.31192515663847686,-0.18102384746343758,-0.047530500700957656,,0.0,,,0.0,0.0,0.0,0.0,0.0,0.0,0.0,0.0,0.0,0.0,-2200,2571,0,0,291,26.7209451,58.3914368,20240502,82448,2024-05-02T08:24:48Z,63.804,99.99,99.99,170.67,0,0,0,0.0,0.0,0.0,20240502,82448,35,0,0,0,0,Manual,0,0,0,0,0,30,50,0.0,0.0,0,5,0,0,0,0,0,0,0,0,0,0.0,0.0,0.0,Hover,,lost,100.0,0,0,0,0,0,0,0,0,0,1,0,-35,335,1227,1272.0,NaN,70,75,1206,1210.0,NaN,120,70,396,-5,51,330,,,,,,,,,,,,,,,,,,,,,,,,,,,,,,,,,,,,,,,,0.0,,0,0,0,0,28,30,29,29,48.59375,48.90625,48.854168,49.010418,48.958332,48.958332,48.958332,48.958332,0.0,0.0,0.0,0.0,16.8,16.6,16.6,16.5,0.0,0.0,0.0,0.0,0,0,0,0,0.0,0.0,0.0,0.0,0.0,180.0,0.0,0.0,0.0,0,Manual,OTHER,NONE,GPS_POSITION_NONMATCH,True,DisConnected,,P,False,False,False,0,0,,0.0,0.05,0.0,0.0,0.0,0.0,NaN,NaN,NaN,0.0,0.0,0.0,0,0,0,16743,0,0.0,0.0,0,0,0,0,0,1,0,0,0,0.0,0.0,
24466729,5.437,,,-57.020935,-0.0,,,0,NaN,0.0,0.0,0.21727045,-0.1937914,-0.94291276,0.9868364,-0.2421833,-0.0889925,-0.3962085,0.47281453,0.0,0.0,0.0,0.0,0.0,-28,338,1230,1275.0,28.15,0.0,NaN,NaN,NaN,0.0,NaN,NaN,0.0,0.0,0.0,-0.0,NaN,NaN,NaN,NaN,NaN,NaN,NaN,NaN,false,false,-0.32476606105830896,-0.1884040320020668,-0.05369647770406116,,0.0,,,0.0,0.0,0.0,0.0,0.0,0.0,0.0,0.0,0.0,0.0,-2200,2571,0,0,305,26.7209451,58.3914368,20240502,82448,2024-05-02T08:24:48Z,63.804,99.99,99.99,170.67,0,0,0,0.0,0.0,0.0,20240502,82448,37,0,0,0,0,Manual,0,0,0,0,0,30,50,0.0,0.0,0,5,0,0,0,0,0,0,0,0,0,0.0,0.0,0.0,Hover,,lost,100.0,0,0,0,0,0,0,0,0,0,1,0,-28,338,1230,1275.0,NaN,73,75,1212,1216.0,NaN,123,72,398,-4,51,330,,,,,,,,,,,,,,,,,,,,,,,,,,,,,,,,,,,,,,,,0.0,,0,0,0,0,28,30,29,29,48.59375,48.90625,48.854168,49.010418,48.958332,48.958332,48.958332,48.958332,0.0,0.0,0.0,0.0,16.7,16.6,16.5,16.5,0.0,0.0,0.0,0.0,0,0,0,0,0.0,0.0,0.0,0.0,0.0,180.0,0.0,0.0,0.0,0,Manual,OTHER,NONE,GPS_POSITION_NONMATCH,True,DisConnected,,P,False,False,False,0,0,,0.0,0.05,0.0,0.0,0.0,0.0,NaN,NaN,NaN,0.0,0.0,0.0,0,0,0,16799,0,18.838198,0.0,17008,-938,0,97,25,1,4246,0,0,0.0,0.0,
24616811,5.470,,,-56.82155,-0.0,,,0,NaN,0.0,0.0,0.21676832,-0.1921911,-0.9431532,0.9866427,-0.2336112,-0.24613987,-0.31758475,0.46477854,0.0,0.0,0.0,0.0,0.0,-28,332,1224,1268.0,28.17,0.0,NaN,NaN,NaN,0.0,NaN,NaN,0.0,0.0,0.0,-0.0,NaN,NaN,NaN,NaN,NaN,NaN,NaN,NaN,false,false,-0.3391393252621917,-0.19753844121842845,-0.05873121635632694,,0.0,,,0.0,0.0,0.0,0.0,0.0,0.0,0.0,0.0,0.0,0.0,-2200,2571,0,0,319,26.7209451,58.3914368,20240502,82448,2024-05-02T08:24:48Z,63.804,99.99,99.99,177.56,0,0,0,0.0,0.0,0.0,20240502,82448,39,0,0,0,0,Manual,0,0,0,0,0,30,50,0.0,0.0,0,5,0,0,0,0,0,0,0,0,0,0.0,0.0,0.0,Hover,,lost,100.0,0,0,0,0,0,0,0,0,0,1,0,-28,332,1224,1268.0,NaN,70,81,1206,1210.0,NaN,123,71,397,-4,51,331,,,,,,,,,,,,,,,,,,,,,,,,,,,,,,,,,,,,,,,,0.0,,0,0,0,0,28,30,29,29,48.59375,48.90625,48.854168,49.010418,48.958332,48.958332,48.958332,48.958332,0.0,0.0,0.0,0.0,16.7,16.8,16.5,16.6,0.0,0.0,0.0,0.0,0,0,0,0,0.0,0.0,0.0,0.0,0.0,180.0,0.0,0.0,0.0,0,Manual,OTHER,NONE,GPS_POSITION_NONMATCH,True,DisConnected,,P,False,False,False,0,0,,0.0,0.05,0.0,0.0,0.0,0.0,NaN,NaN,NaN,0.0,0.0,0.0,0,0,0,16822,0,18.838198,12800.0,17008,-938,0,97,25,1,4246,0,0,0.0,0.0,dateTime|2024-5-2 8:24:48 GMT
24767162,5.504,,,-57.38675,-0.0,,,0,NaN,0.0,0.0,0.21690361,-0.19193494,-0.943711,0.98715585,-0.22066799,-0.09833836,-0.6088075,0.6549896,0.0,0.0,0.0,0.0,0.0,-28,329,1230,1273.0,28.13,0.0,NaN,NaN,NaN,0.0,NaN,NaN,0.0,0.0,0.0,-0.0,NaN,NaN,NaN,NaN,NaN,NaN,NaN,NaN,false,false,-0.35239163029202913,-0.20449348194470018,-0.0629262636274821,,0.0,,,0.0,0.0,0.0,0.0,0.0,0.0,0.0,0.0,0.0,0.0,-2200,2572,0,0,331,26.7209451,58.3914368,20240502,82448,2024-05-02T08:24:48Z,63.804,99.99,99.99,177.56,0,0,0,0.0,0.0,0.0,20240502,82448,40,0,0,0,0,Manual,0,0,0,0,0,30,50,0.0,0.0,0,5,0,0,0,0,0,0,0,0,0,0.0,0.0,0.0,Hover,,lost,100.0,0,0,0,0,0,0,0,0,0,1,0,-28,329,1230,1273.0,NaN,66,78,1209,1213.0,NaN,122,68,397,-5,53,329,,,,,,,,,,,,,,,,,,,,,,,,,,,,,,,,,,,,,,,,0.0,,0,0,0,0,28,30,29,29,48.59375,48.90625,48.854168,49.010418,48.958332,48.958332,48.958332,48.958332,0.0,0.0,0.0,0.0,16.8,16.8,16.5,16.4,0.0,0.0,0.0,0.0,0,0,0,0,0.0,0.0,0.0,0.0,0.0,180.0,0.0,0.0,0.0,0,Manual,OTHER,NONE,GPS_POSITION_NONMATCH,True,DisConnected,,P,False,False,False,0,0,,0.0,0.05,0.0,0.0,0.0,0.0,NaN,NaN,NaN,0.0,0.0,0.0,0,0,0,16862,0,18.838198,12800.0,17008,-938,0,97,25,1,4246,0,0,0.0,0.0,
24918653,5.537,,,-57.225037,-0.0,,,0,NaN,0.0,0.0,0.21810146,-0.19205593,-0.9437864,0.9875153,-0.26846412,-0.18924029,-0.30652544,0.4492691,0.0,0.0,0.0,0.0,0.0,-31,338,1230,1275.0,28.1,0.0,NaN,NaN,NaN,0.0,NaN,NaN,0.0,0.0,0.0,-0.0,NaN,NaN,NaN,NaN,NaN,NaN,NaN,NaN,false,false,-0.36776313735490973,-0.21228919598275353,-0.0680386979179155,,0.0,,,0.0,0.0,0.0,0.0,0.0,0.0,0.0,0.0,0.0,0.0,-2200,2572,0,0,345,26.7209451,58.3914368,20240502,82448,2024-05-02T08:24:48Z,63.804,99.99,99.99,177.56,0,0,0,0.0,0.0,0.0,20240502,82448,42,0,0,0,0,Manual,0,0,0,0,0,30,50,0.0,0.0,0,5,0,0,0,0,0,0,0,0,0,0.0,0.0,0.0,Hover,,lost,100.0,0,0,0,0,0,0,0,0,0,1,0,-31,338,1230,1275.0,NaN,66,75,1209,1213.0,NaN,121,72,398,-6,50,331,,,,,,,,,,,,,,,,,,,,,,,,,,,,,,,,,,,,,,,,0.0,,0,0,0,0,28,30,29,29,48.59375,48.90625,48.854168,49.010418,48.958332,48.958332,48.958332,48.958332,0.0,0.0,0.0,0.0,16.7,16.8,16.5,16.5,0.0,0.0,0.0,0.0,0,0,0,0,0.0,0.0,0.0,0.0,0.0,180.0,0.0,0.0,0.0,0,Manual,OTHER,NONE,GPS_POSITION_NONMATCH,True,DisConnected,,P,False,False,False,0,0,,0.0,0.05,0.0,0.0,0.0,0.0,NaN,NaN,NaN,0.0,0.0,0.0,0,0,0,16893,0,18.838198,12800.0,17008,-938,0,97,25,1,4246,0,0,0.0,0.0,
25069442,5.571,,,-56.88487,-0.0,,,0,NaN,0.0,0.0,0.21752466,-0.19271252,-0.94279295,0.9865666,-0.23091394,-0.111928575,-0.4823344,0.5463476,0.0,0.0,0.0,0.0,0.0,-28,335,1230,1275.0,28.15,0.0,NaN,NaN,NaN,0.0,NaN,NaN,0.0,0.0,0.0,-0.0,NaN,NaN,NaN,NaN,NaN,NaN,NaN,NaN,false,false,-0.38180305996312214,-0.21966784049880572,-0.07386181719212681,,0.0,,,0.0,0.0,0.0,0.0,0.0,0.0,0.0,0.0,0.0,0.0,-2200,2572,0,0,359,26.7209451,58.3914368,20240502,82448,2024-05-02T08:24:48Z,63.804,99.99,99.99,177.56,0,0,0,0.0,0.0,0.0,20240502,82448,44,0,0,0,0,Manual,0,0,0,0,0,30,50,0.0,0.0,0,5,0,0,0,0,0,0,0,0,0,0.0,0.0,0.0,Hover,,lost,100.0,0,0,0,0,0,0,0,0,0,1,0,-28,335,1230,1275.0,NaN,70,81,1203,1207.0,NaN,122,72,397,-5,51,330,,,,,,,,,,,,,,,,,,,,,,,,,,,,,,,,,,,,,,,,0.0,,0,0,0,0,28,30,29,29,48.59375,48.90625,48.854168,49.010418,48.958332,48.958332,48.958332,48.958332,0.0,0.0,0.0,0.0,16.8,16.6,16.5,16.5,0.0,0.0,0.0,0.0,0,0,0,0,0.0,0.0,0.0,0.0,0.0,180.0,0.0,0.0,0.0,0,Manual,OTHER,NONE,GPS_POSITION_NONMATCH,True,DisConnected,,P,False,False,False,0,0,,0.0,0.05,0.0,0.0,0.0,0.0,NaN,NaN,NaN,0.0,0.0,0.0,0,0,0,16917,0,18.838198,12800.0,17008,-938,0,97,25,1,4246,0,0,0.0,0.0,
25220156,5.604,,,-57.119846,-0.0,,,0,NaN,0.0,0.0,0.21712238,-0.1928205,-0.94358206,0.98725325,-0.3081002,-0.09158581,-0.43346676,0.53963614,0.0,0.0,0.0,0.0,0.0,-28,338,1227,1273.0,28.16,0.0,NaN,NaN,NaN,0.0,NaN,NaN,0.0,0.0,0.0,-0.0,NaN,NaN,NaN,NaN,NaN,NaN,NaN,NaN,false,false,-0.39626488791612857,-0.22911274763482026,-0.0785626110026727,,0.0,,,0.0,0.0,0.0,0.0,0.0,0.0,0.0,0.0,0.0,0.0,-2200,2574,0,0,373,26.7209451,58.3914368,20240502,82448,2024-05-02T08:24:48Z,63.804,99.99,99.99,177.56,0,0,0,0.0,0.0,0.0,20240502,82448,45,0,0,0,0,Manual,0,0,0,0,0,30,50,0.0,0.0,0,5,0,0,0,0,0,0,0,0,0,0.0,0.0,0.0,Hover,,lost,100.0,0,0,0,0,0,0,0,0,0,1,0,-28,338,1227,1273.0,NaN,73,70,1209,1213.0,NaN,123,71,397,-4,51,329,,,,,,,,,,,,,,,,,,,,,,,,,,,,,,,,,,,,,,,,0.0,,0,0,0,0,28,30,29,29,48.59375,48.90625,48.854168,49.010418,48.958332,48.958332,48.958332,48.958332,0.0,0.0,0.0,0.0,16.8,16.6,16.5,16.5,0.0,0.0,0.0,0.0,0,0,0,0,0.0,0.0,0.0,0.0,0.0,180.0,0.0,0.0,0.0,0,Manual,OTHER,NONE,GPS_POSITION_NONMATCH,True,DisConnected,,P,False,False,False,0,0,,0.0,0.05,0.0,0.0,0.0,0.0,NaN,NaN,NaN,0.0,0.0,0.0,0,0,0,16928,0,18.838198,12800.0,17008,-938,0,97,25,1,4246,0,0,0.0,0.0,
25370890,5.638,,,-56.923073,-0.0,,,0,NaN,0.0,0.0,0.21662517,-0.1911003,-0.9430963,0.98634493,-0.18457343,-0.12650223,-0.4020606,0.46013355,0.0,0.0,0.0,0.0,0.0,-38,329,1224,1268.0,28.15,0.0,NaN,NaN,NaN,0.0,NaN,NaN,0.0,0.0,0.0,-0.0,NaN,NaN,NaN,NaN,NaN,NaN,NaN,NaN,false,false,-0.4065333872141714,-0.23651288271724424,-0.08321187478399716,,0.0,,,0.0,0.0,0.0,0.0,0.0,0.0,0.0,0.0,0.0,0.0,-2200,2574,0,0,385,26.7209451,58.3914368,20240502,82449,2024-05-02T08:24:49Z,63.804,99.99,99.99,192.48,0,0,0,0.0,0.0,0.0,20240502,82449,47,0,0,0,0,Manual,0,0,0,0,0,30,50,0.0,0.0,0,5,0,0,0,0,0,0,0,0,0,0.0,0.0,0.0,Hover,,lost,100.0,0,0,0,0,0,0,0,0,0,1,0,-38,329,1224,1268.0,NaN,63,72,1212,1215.0,NaN,120,69,396,-6,49,332,,,,,,,,,,,,,,,,,,,,,,,,,,,,,,,,,,,,,,,,0.0,,0,0,0,0,28,30,29,29,48.59375,48.90625,48.854168,49.010418,48.958332,48.958332,48.958332,48.958332,0.0,0.0,0.0,0.0,16.8,16.7,16.5,16.6,0.0,0.0,0.0,0.0,0,0,0,0,0.0,0.0,0.0,0.0,0.0,180.0,0.0,0.0,0.0,0,Manual,OTHER,NONE,GPS_POSITION_NONMATCH,True,DisConnected,,P,False,False,False,0,0,,0.0,0.05,0.0,0.0,0.0,0.0,NaN,NaN,NaN,0.0,0.0,0.0,0,0,0,16945,0,18.838198,12800.0,17008,-938,0,97,25,1,4246,0,0,0.0,0.0,
25524804,5.672,,,-57.09315,-0.0,,,0,NaN,0.0,0.0,0.21751828,-0.19163218,-0.94447166,0.98795944,-0.17818297,-0.003652617,-0.32644328,0.37192437,0.0,0.0,0.0,0.0,0.0,-25,335,1227,1272.0,28.17,0.0,NaN,NaN,NaN,0.0,NaN,NaN,0.0,0.0,0.0,-0.0,NaN,NaN,NaN,NaN,NaN,NaN,NaN,NaN,false,false,-0.41921226437478154,-0.2434240897320714,-0.08753602042928299,,0.0,,,0.0,0.0,0.0,0.0,0.0,0.0,0.0,0.0,0.0,0.0,-2200,2574,0,0,399,26.7209451,58.3914368,20240502,82449,2024-05-02T08:24:49Z,63.804,99.99,99.99,192.48,0,0,0,0.0,0.0,0.0,20240502,82449,49,0,0,0,0,Manual,0,0,0,0,0,30,50,0.0,0.0,0,5,0,0,0,0,0,0,0,0,0,0.0,0.0,0.0,Hover,,lost,100.0,0,0,0,0,0,0,0,0,0,1,0,-25,335,1227,1272.0,NaN,73,72,1206,1210.0,NaN,120,69,396,-6,50,331,,,,,,,,,,,,,,,,,,,,,,,,,,,,,,,,,,,,,,,,0.0,,0,0,0,0,28,30,29,29,48.59375,48.90625,48.854168,49.010418,48.958332,48.958332,48.958332,48.958332,0.0,0.0,0.0,0.0,16.8,16.8,16.6,16.6,0.0,0.0,0.0,0.0,0,0,0,0,0.0,0.0,0.0,0.0,0.0,180.0,0.0,0.0,0.0,0,Manual,OTHER,NONE,GPS_POSITION_NONMATCH,True,DisConnected,,P,False,False,False,0,0,,0.0,0.046,0.0,0.0,0.0,0.0,NaN,NaN,NaN,0.0,0.0,0.0,0,0,0,16959,0,18.838198,12800.0,17008,-938,0,97,25,1,4246,0,0,0.0,0.0,
25674813,5.706,,,-57.525963,-0.0,,,0,NaN,0.0,0.0,0.21717478,-0.19228055,-0.94252664,0.9861507,-0.28263506,-0.2013304,-0.4946676,0.6042454,0.0,0.0,0.0,0.0,0.0,-28,338,1227,1273.0,28.18,0.0,NaN,NaN,NaN,0.0,NaN,NaN,0.0,0.0,0.0,-0.0,NaN,NaN,NaN,NaN,NaN,NaN,NaN,NaN,false,false,-0.4338400865231513,-0.2508026091712183,-0.09361504039180496,,0.0,,,0.0,0.0,0.0,0.0,0.0,0.0,0.0,0.0,0.0,0.0,-2200,2574,0,0,413,26.7209451,58.3914368,20240502,82449,2024-05-02T08:24:49Z,63.804,99.99,99.99,192.48,0,0,0,0.0,0.0,0.0,20240502,82449,50,0,0,0,0,Manual,0,0,0,0,0,30,50,0.0,0.0,0,5,0,0,0,0,0,0,0,0,0,0.0,0.0,0.0,Hover,,lost,100.0,0,0,0,0,0,0,0,0,0,1,0,-28,338,1227,1273.0,NaN,73,78,1203,1207.0,NaN,123,72,397,-3,50,329,,,,,,,,,,,,,,,,,,,,,,,,,,,,,,,,,,,,,,,,0.0,,0,0,0,0,28,30,29,29,48.59375,48.90625,48.854168,49.010418,48.958332,48.958332,48.958332,48.958332,0.0,0.0,0.0,0.0,16.8,16.7,16.5,16.5,0.0,0.0,0.0,0.0,0,0,0,0,0.0,0.0,0.0,0.0,0.0,180.0,0.0,0.0,0.0,0,Manual,OTHER,NONE,GPS_POSITION_NONMATCH,True,DisConnected,,P,False,False,False,0,0,,0.0,0.046,0.0,0.0,0.0,0.0,NaN,NaN,NaN,0.0,0.0,0.0,0,0,0,16965,0,18.838198,12800.0,17008,-938,0,97,25,1,4246,0,0,0.0,0.0,
25827746,5.739,,,-57.51288,-0.0,,,0,NaN,0.0,0.0,0.21743904,-0.19227226,-0.9430481,0.98670566,-0.100802496,-0.30864623,-0.5044858,0.5999413,0.0,0.0,0.0,0.0,0.0,-35,335,1221,1266.0,28.18,0.0,NaN,NaN,NaN,0.0,NaN,NaN,0.0,0.0,0.0,-0.0,NaN,NaN,NaN,NaN,NaN,NaN,NaN,NaN,false,false,-0.4495818950781647,-0.2593045898537001,-0.09927938732472058,,0.0,,,0.0,0.0,0.0,0.0,0.0,0.0,0.0,0.0,0.0,0.0,-2200,2574,0,0,427,26.7209451,58.3914368,20240502,82449,2024-05-02T08:24:49Z,63.804,99.99,99.99,192.48,0,0,0,0.0,0.0,0.0,20240502,82449,52,0,0,0,0,Manual,0,0,0,0,0,30,50,0.0,0.0,0,5,0,0,0,0,0,0,0,0,0,0.0,0.0,0.0,Hover,,lost,100.0,0,0,0,0,0,0,0,0,0,1,0,-35,335,1221,1266.0,NaN,73,75,1209,1213.0,NaN,120,70,395,-4,51,330,,,,,,,,,,,,,,,,,,,,,,,,,,,,,,,,,,,,,,,,0.0,,0,0,0,0,28,30,29,29,48.59375,48.90625,48.854168,49.010418,48.958332,48.958332,48.958332,48.958332,0.0,0.0,0.0,0.0,16.8,16.8,16.5,16.5,0.0,0.0,0.0,0.0,0,0,0,0,0.0,0.0,0.0,0.0,0.0,180.0,0.0,0.0,0.0,0,Manual,OTHER,NONE,GPS_POSITION_NONMATCH,True,DisConnected,,P,False,False,False,0,0,,0.0,0.05,0.0,0.0,0.0,0.0,NaN,NaN,NaN,0.0,0.0,0.0,0,0,0,16975,0,18.838198,12800.0,17008,-938,0,97,25,1,4246,0,0,0.0,0.0,
25978394,5.773,,,-56.709038,-0.0,,,0,NaN,0.0,0.0,0.21615711,-0.19042501,-0.9447783,0.98772043,-0.20275587,-0.18420571,-0.33084622,0.4295357,0.0,0.0,0.0,0.0,0.0,-28,332,1233,1277.0,28.18,0.0,NaN,NaN,NaN,0.0,NaN,NaN,0.0,0.0,0.0,-0.0,NaN,NaN,NaN,NaN,NaN,NaN,NaN,NaN,false,false,-0.46150881865232307,-0.2648407131336812,-0.1047717982426783,,0.0,,,0.0,0.0,0.0,0.0,0.0,0.0,0.0,0.0,0.0,0.0,-2200,2574,0,0,439,26.7209451,58.3914368,20240502,82449,2024-05-02T08:24:49Z,63.804,99.99,99.99,192.48,0,0,0,0.0,0.0,0.0,20240502,82449,54,0,0,0,0,Manual,0,0,0,0,0,30,50,0.0,0.0,0,5,0,0,0,0,0,0,0,0,0,0.0,0.0,0.0,Hover,,lost,100.0,0,0,0,0,0,0,0,0,0,1,0,-28,332,1233,1277.0,NaN,63,84,1206,1210.0,NaN,121,70,396,-4,51,330,,,,,,,,,,,,,,,,,,,,,,,,,,,,,,,,,,,,,,,,0.0,,0,0,0,0,28,30,29,29,48.59375,48.90625,48.854168,49.010418,48.958332,48.958332,48.958332,48.958332,0.0,0.0,0.0,0.0,16.8,16.8,16.5,16.5,0.0,0.0,0.0,0.0,0,0,0,0,0.0,0.0,0.0,0.0,0.0,180.0,0.0,0.0,0.0,0,Manual,OTHER,NONE,GPS_POSITION_NONMATCH,False,DisConnected,,P,False,False,False,0,0,,0.0,0.05,0.0,0.0,0.0,0.0,NaN,NaN,NaN,0.0,0.0,0.0,0,0,0,16979,0,18.838198,12800.0,17008,-938,0,97,25,1,4246,0,0,0.0,0.0,
26131864,5.807,,,-57.589813,-0.0,,,0,NaN,0.0,0.0,0.21649186,-0.1918391,-0.9422314,0.9856323,-0.214474,-0.024707515,-0.4679091,0.5153139,0.0,0.0,0.0,0.0,0.0,-31,329,1221,1264.0,28.15,0.0,NaN,NaN,NaN,0.0,NaN,NaN,0.0,0.0,0.0,-0.0,NaN,NaN,NaN,NaN,NaN,NaN,NaN,NaN,false,false,-0.4763221620125684,-0.2738419431260526,-0.10978123612430107,,0.0,,,0.0,0.0,0.0,0.0,0.0,0.0,0.0,0.0,0.0,0.0,-2200,2576,0,0,453,26.7209451,58.3914368,20240502,82449,2024-05-02T08:24:49Z,63.804,99.99,99.99,192.48,0,0,0,0.0,0.0,0.0,20240502,82449,55,0,0,0,0,Manual,0,0,0,0,0,30,50,0.0,0.0,0,5,0,0,0,0,0,0,0,0,0,0.0,0.0,0.0,Hover,,lost,100.0,0,0,0,0,0,0,0,0,0,1,0,-31,329,1221,1264.0,NaN,70,72,1206,1210.0,NaN,123,69,398,-6,53,329,,,,,,,,,,,,,,,,,,,,,,,,,,,,,,,,,,,,,,,,0.0,,0,0,0,0,28,30,29,29,48.59375,48.90625,48.854168,49.010418,48.958332,48.958332,48.958332,48.958332,0.0,0.0,0.0,0.0,16.8,16.7,16.4,16.6,0.0,0.0,0.0,0.0,0,0,0,0,0.0,0.0,0.0,0.0,0.0,180.0,0.0,0.0,0.0,0,Manual,OTHER,NONE,GPS_POSITION_NONMATCH,False,DisConnected,,P,False,False,False,0,0,,0.0,0.05,0.0,0.0,0.0,0.0,NaN,NaN,NaN,0.0,0.0,0.0,0,0,0,16987,0,18.838198,12800.0,17008,-938,0,97,25,1,4246,0,0,0.0,0.0,
26282157,5.840,,,-57.255913,-0.0,,,4,NaN,0.0,0.0,0.21539688,-0.19277237,-0.94501746,0.98823833,-0.9423802,0.21205781,-1.0583732,1.4329002,0.0,0.0,0.0,0.0,0.0,-35,332,1230,1274.0,28.19,0.0,NaN,NaN,NaN,0.0,NaN,NaN,0.0,0.0,0.0,-0.0,NaN,NaN,NaN,NaN,NaN,NaN,NaN,NaN,false,false,-0.49370597411142825,-0.27559686981687803,-0.1171217162855524,,0.0,,,0.0,0.0,0.0,0.0,0.0,0.0,0.0,0.0,0.0,0.0,-2200,2576,0,0,467,26.7207526,58.3917769,,,,,2.27,8.71,6443.52,2,2,4,,,,20240502,82449,57,0,0,0,0,Manual,0,0,0,0,0,30,50,0.0,0.0,0,5,0,0,0,0,0,0,0,0,0,0.0,0.0,0.0,Hover,,lost,100.0,0,0,0,0,0,0,0,0,0,1,0,-35,332,1230,1274.0,NaN,73,75,1200,1204.0,NaN,120,69,397,-3,50,328,,,,,,,,,,,,,,,,,,,,,,,,,,,,,,,,,,,,,,,,0.0,,0,0,0,0,28,30,29,29,48.59375,48.90625,48.854168,49.010418,48.958332,48.958332,48.958332,48.958332,0.0,0.0,0.0,0.0,16.8,16.7,16.5,16.6,0.0,0.0,0.0,0.0,0,0,0,0,0.0,0.0,0.0,0.0,0.0,180.0,0.0,0.0,0.0,0,Manual,OTHER,NONE,GPS_POSITION_NONMATCH,False,DisConnected,,P,False,False,False,0,0,,0.0,0.05,0.0,0.0,0.0,0.0,NaN,NaN,NaN,0.0,0.0,0.0,0,0,0,16993,0,18.838198,12800.0,17008,-938,0,97,25,1,4246,0,0,0.0,0.0,
26432158,5.874,,,-56.951855,-0.0,,,4,NaN,0.0,0.0,0.216945,-0.19621523,-0.946107,0.9902949,-0.86422133,0.2200954,-0.07179954,0.8946931,0.0,0.0,0.0,0.0,0.0,-25,332,1224,1268.0,28.18,0.0,NaN,NaN,NaN,0.0,NaN,NaN,0.0,0.0,0.0,-0.0,NaN,NaN,NaN,NaN,NaN,NaN,NaN,NaN,false,false,-0.5071615503066074,-0.28838479196096434,-0.11589213205165522,,0.0,,,0.0,0.0,0.0,0.0,0.0,0.0,0.0,0.0,0.0,0.0,-2200,2576,0,0,479,26.7207526,58.3917769,,,,,2.27,8.71,6443.52,2,2,4,,,,20240502,82449,59,0,0,0,0,Manual,0,0,0,0,0,30,50,0.0,0.0,0,5,0,0,0,0,0,0,0,0,0,0.0,0.0,0.0,Hover,,lost,100.0,0,0,0,0,0,0,0,0,0,1,0,-25,332,1224,1268.0,NaN,73,81,1206,1210.0,NaN,123,70,396,-4,52,328,,,,,,,,,,,,,,,,,,,,,,,,,,,,,,,,,,,,,,,,0.0,,0,0,0,0,28,30,29,29,48.59375,48.90625,48.854168,49.010418,48.958332,48.958332,48.958332,48.958332,0.0,0.0,0.0,0.0,16.8,16.9,16.5,16.5,0.0,0.0,0.0,0.0,0,0,0,0,0.0,0.0,0.0,0.0,0.0,180.0,0.0,0.0,0.0,0,Manual,OTHER,NONE,GPS_POSITION_NONMATCH,False,DisConnected,,P,False,False,False,0,0,,0.0,0.05,0.0,0.0,0.0,0.0,NaN,NaN,NaN,0.0,0.0,0.0,0,0,0,16997,0,18.838198,12800.0,17008,-938,0,97,25,1,4246,0,0,0.0,0.0,
26583659,5.907,,,-57.555794,-0.0,,,4,NaN,0.0,0.0,0.2178854,-0.18904719,-0.9441486,0.9872332,0.0049728844,-0.26787955,-0.73696107,0.7841529,0.0,0.0,0.0,0.0,0.0,-31,329,1224,1267.0,28.19,0.0,NaN,NaN,NaN,0.0,NaN,NaN,0.0,0.0,0.0,-0.0,NaN,NaN,NaN,NaN,NaN,NaN,NaN,NaN,false,false,-0.5157762769966632,-0.29260866011433495,-0.12975172996670253,,0.0,,,0.0,0.0,0.0,0.0,0.0,0.0,0.0,0.0,0.0,0.0,-2200,2577,0,0,493,26.7207526,58.3917769,,,,,2.27,8.71,6443.52,2,2,4,,,,20240502,82449,60,0,0,0,0,Manual,0,0,0,0,0,30,50,0.0,0.0,0,5,0,0,0,0,0,0,0,0,0,0.0,0.0,0.0,Hover,,lost,100.0,0,0,0,0,0,0,0,0,0,1,0,-31,329,1224,1267.0,NaN,73,84,1206,1211.0,NaN,123,69,395,-3,53,330,,,,,,,,,,,,,,,,,,,,,,,,,,,,,,,,,,,,,,,,0.0,,0,0,0,0,28,30,29,29,48.59375,48.90625,48.854168,49.010418,48.958332,48.958332,48.958332,48.958332,0.0,0.0,0.0,0.0,16.8,16.7,16.5,16.5,0.0,0.0,0.0,0.0,0,0,0,0,0.0,0.0,0.0,0.0,0.0,180.0,0.0,0.0,0.0,0,Manual,OTHER,NONE,GPS_POSITION_NONMATCH,False,DisConnected,,P,False,False,False,0,0,,0.0,0.05,0.0,0.0,0.0,0.0,NaN,NaN,NaN,0.0,0.0,0.0,0,0,0,16999,0,18.838198,12800.0,17008,-938,0,97,25,1,4246,0,0,0.0,0.0,
26734392,5.941,,,-57.000004,-0.0,,,4,NaN,0.0,0.0,0.21419938,-0.19417948,-0.9471549,0.9902976,-0.41122267,0.24147542,-0.62328154,0.7847893,0.0,0.0,0.0,0.0,0.0,-28,332,1224,1268.0,28.21,0.0,NaN,NaN,NaN,0.0,NaN,NaN,0.0,0.0,0.0,-0.0,NaN,NaN,NaN,NaN,NaN,NaN,NaN,NaN,false,false,-0.532749524368898,-0.2971892083102523,-0.13202700138621432,,0.0,,,0.0,0.0,0.0,0.0,0.0,0.0,0.0,0.0,0.0,0.0,-2200,2577,0,0,507,26.7207526,58.3917769,,,,,2.27,8.71,6443.52,2,2,4,,,,20240502,82449,62,0,0,0,0,Manual,0,0,0,0,0,30,50,0.0,0.0,0,5,0,0,0,0,0,0,0,0,0,0.0,0.0,0.0,Hover,,lost,100.0,0,0,0,0,0,0,0,0,0,1,0,-28,332,1224,1268.0,NaN,70,81,1209,1213.0,NaN,122,69,396,-5,53,330,,,,,,,,,,,,,,,,,,,,,,,,,,,,,,,,,,,,,,,,0.0,,0,0,0,0,28,30,29,29,48.59375,48.90625,48.854168,49.010418,48.958332,48.958332,48.958332,48.958332,0.0,0.0,0.0,0.0,16.8,16.8,16.6,16.5,0.0,0.0,0.0,0.0,0,0,0,0,0.0,0.0,0.0,0.0,0.0,180.0,0.0,0.0,0.0,0,Manual,OTHER,NONE,GPS_POSITION_NONMATCH,False,DisConnected,,P,False,False,False,0,0,,0.0,0.05,0.0,0.0,0.0,0.0,NaN,NaN,NaN,0.0,0.0,0.0,0,0,0,17001,0,18.838198,12800.0,17008,-938,0,97,25,1,4246,0,0,0.0,0.0,
26885762,5.975,,,-56.992153,-0.0,,,4,NaN,0.0,0.0,0.2192009,-0.19409937,-0.94426906,0.988619,-0.6745951,0.05555109,-0.25631905,0.72378445,0.0,0.0,0.0,0.0,0.0,-35,335,1224,1269.0,28.2,0.0,NaN,NaN,NaN,0.0,NaN,NaN,0.0,0.0,0.0,-0.0,NaN,NaN,NaN,NaN,NaN,NaN,NaN,NaN,false,false,-0.5490025029586456,-0.30844703415325925,-0.1325058122123452,,0.0,,,0.0,0.0,0.0,0.0,0.0,0.0,0.0,0.0,0.0,0.0,-2200,2577,0,0,521,26.7207526,58.3917769,,,,,2.27,8.71,6443.52,2,2,4,,,,20240502,82449,64,0,0,0,0,Manual,0,0,0,0,0,30,50,0.0,0.0,0,5,0,0,0,0,0,0,0,0,0,0.0,0.0,0.0,Hover,,lost,100.0,0,0,0,0,0,0,0,0,0,1,0,-35,335,1224,1269.0,NaN,70,81,1212,1216.0,NaN,121,70,396,-4,53,331,,,,,,,,,,,,,,,,,,,,,,,,,,,,,,,,,,,,,,,,0.0,,0,0,0,0,28,30,29,29,48.59375,48.90625,48.854168,49.010418,48.958332,48.958332,48.958332,48.958332,0.0,0.0,0.0,0.0,16.7,16.6,16.4,16.7,0.0,0.0,0.0,0.0,0,0,0,0,0.0,0.0,0.0,0.0,0.0,180.0,0.0,0.0,0.0,0,Manual,OTHER,NONE,GPS_POSITION_NONMATCH,False,DisConnected,,P,False,False,False,0,0,,0.0,0.046,0.0,0.0,0.0,0.0,NaN,NaN,NaN,0.0,0.0,0.0,0,0,0,17003,0,18.838198,12800.0,17008,-938,0,97,25,1,4246,0,0,0.0,0.0,
27035890,6.008,,,-56.81998,-0.0,,,4,NaN,0.0,0.0,0.21881618,-0.19171768,-0.9450179,0.9887846,-0.053145036,-0.24557836,-0.10769433,0.27337006,0.0,0.0,0.0,0.0,0.0,-38,335,1224,1269.0,28.21,0.0,NaN,NaN,NaN,0.0,NaN,NaN,0.0,0.0,0.0,-0.0,NaN,NaN,NaN,NaN,NaN,NaN,NaN,NaN,false,false,-0.5565649885947033,-0.3182495591108927,-0.1409204543488049,,0.0,,,0.0,0.0,0.0,0.0,0.0,0.0,0.0,0.0,0.0,0.0,-2200,2577,0,0,533,26.7207526,58.3917769,,,,,2.27,8.71,6443.52,2,2,4,,,,20240502,82449,65,0,0,0,0,Manual,0,0,0,0,0,30,50,0.0,0.0,0,5,0,0,0,0,0,0,0,0,0,0.0,0.0,0.0,Hover,,lost,100.0,0,0,0,0,0,0,0,0,0,1,0,-38,335,1224,1269.0,NaN,70,78,1209,1213.0,NaN,120,71,396,-4,52,331,,,,,,,,,,,,,,,,,,,,,,,,,,,,,,,,,,,,,,,,0.0,,0,0,0,0,28,30,29,29,48.59375,48.90625,48.854168,49.010418,48.958332,48.958332,48.958332,48.958332,0.0,0.0,0.0,0.0,16.7,16.6,16.4,16.7,0.0,0.0,0.0,0.0,0,0,0,0,0.0,0.0,0.0,0.0,0.0,180.0,0.0,0.0,0.0,0,Manual,OTHER,NONE,GPS_POSITION_NONMATCH,False,DisConnected,,P,False,False,False,0,0,,0.0,0.046,0.0,0.0,0.0,0.0,NaN,NaN,NaN,0.0,0.0,0.0,0,0,0,17004,0,18.838198,12800.0,17008,-938,0,97,25,1,4246,0,0,0.0,0.0,
27194856,6.043,,,-57.16956,-0.0,,,5,NaN,0.0,0.0,0.21450016,-0.19015461,-0.94420725,0.9867606,-0.12029646,0.12441562,-0.64665395,0.66941154,0.0,0.0,0.0,0.0,0.0,-31,332,1230,1274.0,28.23,0.0,NaN,NaN,NaN,0.0,NaN,NaN,0.0,0.0,0.0,-0.0,NaN,NaN,NaN,NaN,NaN,NaN,NaN,NaN,false,false,-0.5738955339659548,-0.3220555504186289,-0.14455229047249202,,0.0,,,0.0,0.0,0.0,0.0,0.0,0.0,0.0,0.0,0.0,0.0,-2200,2577,0,0,547,26.7208515,58.3913469,,,,,1.9,2.14,416.8,3,2,5,,,,20240502,82449,67,0,0,0,0,Manual,0,0,0,0,0,30,50,0.0,0.0,0,5,0,0,0,0,0,0,0,0,0,0.0,0.0,0.0,Hover,,lost,100.0,0,0,0,0,0,0,0,0,0,1,0,-31,332,1230,1274.0,NaN,66,75,1209,1213.0,NaN,121,69,397,-5,50,330,,,,,,,,,,,,,,,,,,,,,,,,,,,,,,,,,,,,,,,,0.0,,0,0,0,0,28,30,29,29,48.59375,48.90625,48.854168,49.010418,48.958332,48.958332,48.958332,48.958332,0.0,0.0,0.0,0.0,16.8,16.7,16.6,16.6,0.0,0.0,0.0,0.0,0,0,0,0,0.0,0.0,0.0,0.0,0.0,180.0,0.0,0.0,0.0,0,Manual,OTHER,NONE,GPS_POSITION_NONMATCH,False,DisConnected,,P,False,False,False,0,0,,0.0,0.05,0.0,0.0,0.0,0.0,NaN,NaN,NaN,0.0,0.0,0.0,0,0,0,17006,0,18.838198,12800.0,17008,-938,0,97,25,1,4246,0,0,0.0,0.0,
27350581,6.078,,,-56.485584,-0.0,,,5,NaN,0.0,0.0,0.21979202,-0.19455762,-0.9438071,0.98839927,-0.38464302,-0.2795356,-0.2250347,0.5260523,0.0,0.0,0.0,0.0,0.0,-31,324,1221,1263.0,28.24,0.0,NaN,NaN,NaN,0.0,NaN,NaN,0.0,0.0,0.0,-0.0,NaN,NaN,NaN,NaN,NaN,NaN,NaN,NaN,false,false,-0.5874324568804483,-0.32868698603965485,-0.14797945075192914,,0.0,,,0.0,0.0,0.0,0.0,0.0,0.0,0.0,0.0,0.0,0.0,-2200,2577,0,0,561,26.7208515,58.3913469,,,,,1.9,2.14,416.8,3,2,5,,,,20240502,82449,69,0,0,0,0,Manual,0,0,0,0,0,30,50,0.0,0.0,0,5,0,0,0,0,0,0,0,0,0,0.0,0.0,0.0,Hover,,lost,100.0,0,0,0,0,0,0,0,0,0,1,0,-31,324,1221,1263.0,NaN,73,75,1200,1204.0,NaN,121,67,394,-6,52,330,,,,,,,,,,,,,,,,,,,,,,,,,,,,,,,,,,,,,,,,0.0,,0,0,0,0,28,30,29,29,48.59375,48.90625,48.854168,49.010418,48.958332,48.958332,48.958332,48.958332,0.0,0.0,0.0,0.0,16.7,16.8,16.6,16.5,0.0,0.0,0.0,0.0,0,0,0,0,0.0,0.0,0.0,0.0,0.0,180.0,0.0,0.0,0.0,0,Manual,OTHER,NONE,GPS_POSITION_NONMATCH,False,DisConnected,,P,False,False,False,0,0,,0.0,0.05,0.0,0.0,0.0,0.0,NaN,NaN,NaN,0.0,0.0,0.0,0,0,0,17007,0,18.838198,12800.0,17008,-938,0,97,25,1,4246,0,0,0.0,0.0,
27500861,6.111,,,-57.64843,-0.0,,,5,NaN,0.0,0.0,0.21679534,-0.19278601,-0.94439846,0.987955,-0.370635,-0.115331456,-0.48128438,0.61830926,0.0,0.0,0.0,0.0,0.0,-35,335,1227,1272.0,28.29,0.0,NaN,NaN,NaN,0.0,NaN,NaN,0.0,0.0,0.0,-0.0,NaN,NaN,NaN,NaN,NaN,NaN,NaN,NaN,false,false,-0.599073850404944,-0.3401908968902261,-0.15683591794010326,,0.0,,,0.0,0.0,0.0,0.0,0.0,0.0,0.0,0.0,0.0,0.0,-2200,2579,0,0,575,26.7208515,58.3913469,,,,,1.9,2.14,416.8,3,2,5,,,,20240502,82449,71,0,0,0,0,Manual,0,0,0,0,0,30,50,0.0,0.0,0,5,0,0,0,0,0,0,0,0,0,0.0,0.0,0.0,Hover,,lost,100.0,0,0,0,0,0,0,0,0,0,1,0,-35,335,1227,1272.0,NaN,73,75,1200,1204.0,NaN,121,67,395,-4,51,328,,,,,,,,,,,,,,,,,,,,,,,,,,,,,,,,,,,,,,,,0.0,,0,0,0,0,28,30,29,29,48.59375,48.90625,48.854168,49.010418,48.958332,48.958332,48.958332,48.958332,0.0,0.0,0.0,0.0,16.7,16.7,16.5,16.5,0.0,0.0,0.0,0.0,0,0,0,0,0.0,0.0,0.0,0.0,0.0,180.0,0.0,0.0,0.0,0,Manual,OTHER,NONE,GPS_POSITION_NONMATCH,False,DisConnected,,P,False,False,False,0,0,,0.0,0.05,0.0,0.0,0.0,0.0,NaN,NaN,NaN,0.0,0.0,0.0,0,0,0,17007,0,18.838198,12800.0,17008,-938,0,97,25,1,4246,0,0,0.0,0.0,
27652425,6.145,,,-57.134495,-0.0,,,5,NaN,0.0,0.0,0.21637794,-0.1898868,-0.94465494,0.98754716,-0.22678387,0.05688794,-0.4517025,0.5086279,0.0,0.0,0.0,0.0,0.0,-31,329,1224,1267.0,28.23,0.0,NaN,NaN,NaN,0.0,NaN,NaN,0.0,0.0,0.0,-0.0,NaN,NaN,NaN,NaN,NaN,NaN,NaN,NaN,false,false,-0.6140813943477732,-0.34722513309232483,-0.1603770135743507,,0.0,,,0.0,0.0,0.0,0.0,0.0,0.0,0.0,0.0,0.0,0.0,-2200,2579,0,0,589,26.7208515,58.3913469,,,,,1.9,2.14,416.8,3,2,5,,,,20240502,82449,72,0,0,0,0,Manual,0,0,0,0,0,30,50,0.0,0.0,0,5,0,0,0,0,0,0,0,0,0,0.0,0.0,0.0,Hover,,lost,100.0,0,0,0,0,0,0,0,0,0,1,0,-31,329,1224,1267.0,NaN,70,81,1209,1213.0,NaN,121,69,396,-5,52,331,,,,,,,,,,,,,,,,,,,,,,,,,,,,,,,,,,,,,,,,0.0,,0,0,0,0,28,30,29,29,48.59375,48.90625,48.854168,49.010418,48.958332,48.958332,48.958332,48.958332,0.0,0.0,0.0,0.0,16.8,16.7,16.5,16.5,0.0,0.0,0.0,0.0,0,0,0,0,0.0,0.0,0.0,0.0,0.0,180.0,0.0,0.0,0.0,0,Manual,OTHER,NONE,GPS_POSITION_NONMATCH,False,DisConnected,,P,False,False,False,0,0,,0.0,0.046,0.0,0.0,0.0,0.0,NaN,NaN,NaN,0.0,0.0,0.0,0,0,0,17007,0,18.838198,12800.0,17008,-938,0,97,25,1,4246,0,0,0.0,0.0,
27803149,6.178,,,-56.847717,-0.0,,,5,NaN,0.0,0.0,0.218739,-0.19123335,-0.94274145,0.98649806,-0.2654852,-0.124582104,-0.33160535,0.44267955,0.0,0.0,0.0,0.0,0.0,-31,329,1233,1276.0,28.24,0.0,NaN,NaN,NaN,0.0,NaN,NaN,0.0,0.0,0.0,-0.0,NaN,NaN,NaN,NaN,NaN,NaN,NaN,NaN,false,false,-0.6269037212332571,-0.35212732200539354,-0.16470911536168814,,0.0,,,0.0,0.0,0.0,0.0,0.0,0.0,0.0,0.0,0.0,0.0,-2200,2579,0,0,601,26.7208515,58.3913469,,,,,1.9,2.14,416.8,3,2,5,,,,20240502,82449,74,0,0,0,0,Manual,0,0,0,0,0,30,50,0.0,0.0,0,5,0,0,0,0,0,0,0,0,0,0.0,0.0,0.0,Hover,,lost,100.0,0,0,0,0,0,0,0,0,0,1,0,-31,329,1233,1276.0,NaN,66,78,1212,1216.0,NaN,122,68,398,-5,53,331,,,,,,,,,,,,,,,,,,,,,,,,,,,,,,,,,,,,,,,,0.0,,0,0,0,0,28,30,29,29,48.59375,48.90625,48.854168,49.010418,48.958332,48.958332,48.958332,48.958332,0.0,0.0,0.0,0.0,16.8,16.6,16.5,16.7,0.0,0.0,0.0,0.0,0,0,0,0,0.0,0.0,0.0,0.0,0.0,180.0,0.0,0.0,0.0,0,Manual,OTHER,NONE,GPS_POSITION_NONMATCH,False,DisConnected,,P,False,False,False,0,0,,0.0,0.05,0.0,0.0,0.0,0.0,NaN,NaN,NaN,0.0,0.0,0.0,0,0,0,17006,0,18.838198,12800.0,17008,-938,0,97,25,1,4246,0,0,0.0,0.0,
27953937,6.212,,,-57.440655,-0.0,,,5,NaN,0.0,0.0,0.21765138,-0.19287802,-0.9441077,0.98788327,-0.25297838,-0.25115752,-0.37708881,0.5189163,0.0,0.0,0.0,0.0,0.0,-35,329,1227,1270.0,28.28,0.0,NaN,NaN,NaN,0.0,NaN,NaN,0.0,0.0,0.0,-0.0,NaN,NaN,NaN,NaN,NaN,NaN,NaN,NaN,false,false,-0.6387707209777624,-0.35906279861731893,-0.1720918085967253,,0.0,,,0.0,0.0,0.0,0.0,0.0,0.0,0.0,0.0,0.0,0.0,-2200,2580,0,0,615,26.7209422,58.3913822,,,,,1.99,6.65,488.74,3,2,5,,,,20240502,82449,76,0,0,0,0,Manual,0,0,0,0,0,30,50,0.0,0.0,0,5,0,0,0,0,0,0,0,0,0,0.0,0.0,0.0,Hover,,lost,100.0,0,0,0,0,0,0,0,0,0,1,0,-35,329,1227,1270.0,NaN,66,78,1212,1216.0,NaN,121,69,399,-6,52,331,,,,,,,,,,,,,,,,,,,,,,,,,,,,,,,,,,,,,,,,0.0,,0,0,0,0,28,30,29,29,48.59375,48.90625,48.854168,49.010418,48.958332,48.958332,48.958332,48.958332,0.0,0.0,0.0,0.0,16.6,16.6,16.5,16.5,0.0,0.0,0.0,0.0,0,0,0,0,0.0,0.0,0.0,0.0,0.0,180.0,0.0,0.0,0.0,0,Manual,OTHER,NONE,GPS_POSITION_NONMATCH,False,DisConnected,,P,False,False,False,0,0,,0.0,0.05,0.0,0.0,0.0,0.0,NaN,NaN,NaN,0.0,0.0,0.0,0,0,0,17006,0,18.838198,12800.0,17008,-938,0,97,25,1,4246,0,0,0.0,0.0,
28104643,6.245,,,-57.327614,-0.0,,,5,NaN,0.0,0.0,0.21530993,-0.18958074,-0.94341516,0.98606867,-0.15894186,-0.1252201,-0.54969907,0.5857573,0.0,0.0,0.0,0.0,0.0,-31,329,1230,1273.0,28.28,0.0,NaN,NaN,NaN,0.0,NaN,NaN,0.0,0.0,0.0,-0.0,NaN,NaN,NaN,NaN,NaN,NaN,NaN,NaN,false,false,-0.6547990699968431,-0.36639746162971787,-0.17704698800967095,,0.0,,,0.0,0.0,0.0,0.0,0.0,0.0,0.0,0.0,0.0,0.0,-2200,2580,0,0,629,26.7209422,58.3913822,,,,,1.99,6.65,488.74,3,2,5,,,,20240502,82449,77,0,0,0,0,Manual,0,0,0,0,0,30,50,0.0,0.0,0,5,0,0,0,0,0,0,0,0,0,0.0,0.0,0.0,Hover,,lost,100.0,0,0,0,0,0,0,0,0,0,1,0,-31,329,1230,1273.0,NaN,63,87,1200,1204.0,NaN,121,68,397,-6,54,328,,,,,,,,,,,,,,,,,,,,,,,,,,,,,,,,,,,,,,,,0.0,,0,0,0,0,28,30,29,29,48.59375,48.90625,48.854168,49.010418,48.958332,48.958332,48.958332,48.958332,0.0,0.0,0.0,0.0,16.6,16.6,16.5,16.5,0.0,0.0,0.0,0.0,0,0,0,0,0.0,0.0,0.0,0.0,0.0,180.0,0.0,0.0,0.0,0,Manual,OTHER,NONE,GPS_POSITION_NONMATCH,False,DisConnected,,P,False,False,False,0,0,,0.0,0.05,0.0,0.0,0.0,0.0,NaN,NaN,NaN,0.0,0.0,0.0,0,0,0,17006,0,18.838198,12800.0,17008,-938,0,97,25,1,4246,0,0,0.0,0.0,
28257632,6.279,,,-57.061756,-0.0,,,5,NaN,0.0,0.0,0.21867165,-0.1909597,-0.9452929,0.98886883,-0.13561586,-0.2784502,-0.3425802,0.46183047,0.0,0.0,0.0,0.0,0.0,-35,329,1230,1273.0,28.29,0.0,NaN,NaN,NaN,0.0,NaN,NaN,0.0,0.0,0.0,-0.0,NaN,NaN,NaN,NaN,NaN,NaN,NaN,NaN,false,false,-0.6671134948733646,-0.3711621354948116,-0.1841061828141723,,0.0,,,0.0,0.0,0.0,0.0,0.0,0.0,0.0,0.0,0.0,0.0,-2200,2580,0,0,643,26.7209422,58.3913822,,,,,1.99,6.65,488.74,3,2,5,,,,20240502,82449,79,0,0,0,0,Manual,0,0,0,0,0,30,50,0.0,0.0,0,5,0,0,0,0,0,0,0,0,0,0.0,0.0,0.0,Hover,,lost,100.0,0,0,0,0,0,0,0,0,0,1,0,-35,329,1230,1273.0,NaN,63,87,1206,1210.0,NaN,121,68,398,-5,54,328,,,,,,,,,,,,,,,,,,,,,,,,,,,,,,,,,,,,,,,,0.0,,0,0,0,0,28,30,29,29,48.59375,48.90625,48.854168,49.010418,48.958332,48.958332,48.958332,48.958332,0.0,0.0,0.0,0.0,16.8,16.8,16.5,16.5,0.0,0.0,0.0,0.0,0,0,0,0,0.0,0.0,0.0,0.0,0.0,180.0,0.0,0.0,0.0,0,Manual,OTHER,NONE,GPS_POSITION_NONMATCH,False,DisConnected,,P,False,False,False,0,0,,0.0,0.046,0.0,0.0,0.0,0.0,NaN,NaN,NaN,0.0,0.0,0.0,0,0,0,17005,0,18.838198,12800.0,17008,-938,0,97,25,1,4246,0,0,0.0,0.0,
28408436,6.313,,,-57.716465,-0.0,,,5,NaN,0.0,0.0,0.21732986,-0.19241358,-0.94560087,0.9891492,-0.16194683,-0.2640997,-0.25691244,0.40246668,0.0,0.0,0.0,0.0,0.0,-31,332,1227,1271.0,28.31,0.0,NaN,NaN,NaN,0.0,NaN,NaN,0.0,0.0,0.0,-0.0,NaN,NaN,NaN,NaN,NaN,NaN,NaN,NaN,false,false,-0.6774282073528419,-0.3763508615355524,-0.19154366077757928,,0.0,,,0.0,0.0,0.0,0.0,0.0,0.0,0.0,0.0,0.0,0.0,-2200,2580,0,0,655,26.7209422,58.3913822,,,,,1.99,6.65,488.74,3,2,5,,,,20240502,82449,81,0,0,0,0,Manual,0,0,0,0,0,30,50,0.0,0.0,0,5,0,0,0,0,0,0,0,0,0,0.0,0.0,0.0,Hover,,lost,100.0,0,0,0,0,0,0,0,0,0,1,0,-31,332,1227,1271.0,NaN,63,87,1206,1210.0,NaN,121,69,397,-6,54,329,,,,,,,,,,,,,,,,,,,,,,,,,,,,,,,,,,,,,,,,0.0,,0,0,0,0,28,30,29,29,48.59375,48.90625,48.854168,49.010418,48.958332,48.958332,48.958332,48.958332,0.0,0.0,0.0,0.0,16.8,16.7,16.5,16.5,0.0,0.0,0.0,0.0,0,0,0,0,0.0,0.0,0.0,0.0,0.0,180.0,0.0,0.0,0.0,0,Manual,OTHER,NONE,GPS_POSITION_NONMATCH,False,DisConnected,,P,False,False,False,0,0,,0.0,0.046,0.0,0.0,0.0,0.0,NaN,NaN,NaN,0.0,0.0,0.0,0,0,0,17004,0,18.838198,12800.0,17008,-938,0,97,25,1,4246,0,0,0.0,0.0,
28561926,6.347,,,-56.9843,-0.0,,,5,NaN,0.0,0.0,0.21619126,-0.19241208,-0.94393766,0.98730916,-0.2791447,-0.087436214,-0.49892002,0.5783494,0.0,0.0,0.0,0.0,0.0,-31,335,1233,1278.0,28.3,0.0,NaN,NaN,NaN,0.0,NaN,NaN,0.0,0.0,0.0,-0.0,NaN,NaN,NaN,NaN,NaN,NaN,NaN,NaN,false,false,-0.6919121604261869,-0.3849903117854152,-0.19842251449117726,,0.0,,,0.0,0.0,0.0,0.0,0.0,0.0,0.0,0.0,0.0,0.0,-2200,2580,0,0,669,26.7209422,58.3913822,,,,,1.99,6.65,488.74,3,2,5,,,,20240502,82449,82,0,0,0,0,Manual,0,0,0,0,0,30,50,0.0,0.0,0,5,0,0,0,0,0,0,0,0,0,0.0,0.0,0.0,Hover,,lost,100.0,0,0,0,0,0,0,0,0,0,1,0,-31,335,1233,1278.0,NaN,73,81,1206,1210.0,NaN,122,71,398,-4,53,329,,,,,,,,,,,,,,,,,,,,,,,,,,,,,,,,,,,,,,,,0.0,,0,0,0,0,28,30,29,29,48.59375,48.90625,48.854168,49.010418,48.958332,48.958332,48.958332,48.958332,0.0,0.0,0.0,0.0,16.7,16.7,16.5,16.6,0.0,0.0,0.0,0.0,0,0,0,0,0.0,0.0,0.0,0.0,0.0,180.0,0.0,0.0,0.0,0,Manual,OTHER,NONE,GPS_POSITION_NONMATCH,False,DisConnected,,P,False,False,False,0,0,,0.0,0.05,0.0,0.0,0.0,0.0,NaN,NaN,NaN,0.0,0.0,0.0,0,0,0,17003,0,18.838198,12800.0,17008,-938,0,97,25,1,4246,0,0,0.0,0.0,
28712151,6.380,,,-56.94662,-0.0,,,5,NaN,0.0,0.0,0.21851204,-0.19073674,-0.94423616,0.98778033,-0.29494733,-0.12904859,-0.3446199,0.471604,0.0,0.0,0.0,0.0,0.0,-25,338,1230,1275.0,28.28,0.0,NaN,NaN,NaN,0.0,NaN,NaN,0.0,0.0,0.0,-0.0,NaN,NaN,NaN,NaN,NaN,NaN,NaN,NaN,false,false,-0.7069515501562713,-0.39191305655526754,-0.2027576447538199,,0.0,,,0.0,0.0,0.0,0.0,0.0,0.0,0.0,0.0,0.0,0.0,-2200,2580,0,0,683,26.7209422,58.3913822,,,,,1.99,6.65,488.74,3,2,5,,,,20240502,82449,84,0,0,0,0,Manual,0,0,0,0,0,30,50,0.0,0.0,0,5,0,0,0,0,0,0,0,0,0,0.0,0.0,0.0,Hover,,lost,100.0,0,0,0,0,0,0,0,0,0,1,0,-25,338,1230,1275.0,NaN,63,81,1212,1216.0,NaN,123,71,398,-5,51,331,,,,,,,,,,,,,,,,,,,,,,,,,,,,,,,,,,,,,,,,0.0,,0,0,0,0,28,30,29,29,48.59375,48.90625,48.854168,49.010418,48.958332,48.958332,48.958332,48.958332,0.0,0.0,0.0,0.0,16.8,16.6,16.4,16.4,0.0,0.0,0.0,0.0,0,0,0,0,0.0,0.0,0.0,0.0,0.0,180.0,0.0,0.0,0.0,0,Manual,OTHER,NONE,GPS_POSITION_NONMATCH,False,DisConnected,,P,False,False,False,0,0,,0.0,0.05,0.0,0.0,0.0,0.0,NaN,NaN,NaN,0.0,0.0,0.0,0,0,0,17002,0,18.838198,12800.0,17008,-938,0,97,25,1,4246,0,0,0.0,0.0,
28862219,6.414,,,-57.237072,-0.0,,,5,NaN,0.0,0.0,0.21806575,-0.19143899,-0.9447372,0.98829645,-0.23575918,-0.11895063,-0.43861067,0.5119678,0.0,0.0,0.0,0.0,0.0,-31,329,1224,1267.0,28.29,0.0,NaN,NaN,NaN,0.0,NaN,NaN,0.0,0.0,0.0,-0.0,NaN,NaN,NaN,NaN,NaN,NaN,NaN,NaN,false,false,-0.7170262123904814,-0.399156092276282,-0.21014274129639937,,0.0,,,0.0,0.0,0.0,0.0,0.0,0.0,0.0,0.0,0.0,0.0,-2200,2581,0,0,695,26.7209752,58.391409,,,,,1.99,6.65,482.02,3,2,5,,,,20240502,82449,86,0,0,0,0,Manual,0,0,0,0,0,30,50,0.0,0.0,0,5,0,0,0,0,0,0,0,0,0,0.0,0.0,0.0,Hover,,lost,100.0,0,0,0,0,0,0,0,0,0,1,0,-31,329,1224,1267.0,NaN,63,81,1212,1216.0,NaN,121,69,396,-7,52,332,,,,,,,,,,,,,,,,,,,,,,,,,,,,,,,,,,,,,,,,0.0,,0,0,0,0,28,30,29,29,48.59375,48.90625,48.854168,49.010418,48.958332,48.958332,48.958332,48.958332,0.0,0.0,0.0,0.0,16.7,16.7,16.5,16.5,0.0,0.0,0.0,0.0,0,0,0,0,0.0,0.0,0.0,0.0,0.0,180.0,0.0,0.0,0.0,0,Manual,OTHER,NONE,GPS_POSITION_NONMATCH,False,DisConnected,,P,False,False,False,0,0,,0.0,0.05,0.0,0.0,0.0,0.0,NaN,NaN,NaN,0.0,0.0,0.0,0,0,0,17001,0,18.838198,12800.0,17008,-938,0,97,25,1,4246,0,0,0.0,0.0,
29013657,6.447,,,-57.075882,-0.0,,,5,NaN,0.0,0.0,0.21699399,-0.19078867,-0.9445858,0.9877899,-0.33648467,-0.20106195,-0.41071314,0.5677439,0.0,0.0,0.0,0.0,0.0,-35,335,1224,1269.0,28.33,0.0,NaN,NaN,NaN,0.0,NaN,NaN,0.0,0.0,0.0,-0.0,NaN,NaN,NaN,NaN,NaN,NaN,NaN,NaN,false,false,-0.7316889887157125,-0.40831250918742135,-0.21502790837867786,,0.0,,,0.0,0.0,0.0,0.0,0.0,0.0,0.0,0.0,0.0,0.0,-2200,2581,0,0,709,26.7209752,58.391409,,,,,1.99,6.65,482.02,3,2,5,,,,20240502,82449,87,0,0,0,0,Manual,0,0,0,0,0,30,50,0.0,0.0,0,5,0,0,0,0,0,0,0,0,0,0.0,0.0,0.0,Hover,,lost,100.0,0,0,0,0,0,0,0,0,0,1,0,-35,335,1224,1269.0,NaN,73,75,1212,1216.0,NaN,120,70,395,-4,51,331,,,,,,,,,,,,,,,,,,,,,,,,,,,,,,,,,,,,,,,,0.0,,0,0,0,0,28,30,29,29,48.59375,48.90625,48.854168,49.010418,48.958332,48.958332,48.958332,48.958332,0.0,0.0,0.0,0.0,16.7,16.7,16.5,16.5,0.0,0.0,0.0,0.0,0,0,0,0,0.0,0.0,0.0,0.0,0.0,180.0,0.0,0.0,0.0,0,Manual,OTHER,NONE,GPS_POSITION_NONMATCH,False,DisConnected,,P,False,False,False,0,0,,0.0,0.05,0.0,0.0,0.0,0.0,NaN,NaN,NaN,0.0,0.0,0.0,0,0,0,17000,0,18.838198,12800.0,17008,-938,0,97,25,1,4246,0,0,0.0,0.0,
29164394,6.481,,,-57.050766,-0.0,,,5,NaN,0.0,0.0,0.21733415,-0.19074816,-0.94467247,0.9879398,-0.1982814,-0.21743563,-0.31462184,0.43079075,0.0,0.0,0.0,0.0,0.0,-25,329,1230,1273.0,28.33,0.0,NaN,NaN,NaN,0.0,NaN,NaN,0.0,0.0,0.0,-0.0,NaN,NaN,NaN,NaN,NaN,NaN,NaN,NaN,false,false,-0.7449839396107358,-0.41717032009750077,-0.22191371512248076,,0.0,,,0.0,0.0,0.0,0.0,0.0,0.0,0.0,0.0,0.0,0.0,-2200,2581,0,0,723,26.7209752,58.391409,,,,,1.99,6.65,482.02,3,2,5,,,,20240502,82449,89,0,0,0,0,Manual,0,0,0,0,0,30,50,0.0,0.0,0,5,0,0,0,0,0,0,0,0,0,0.0,0.0,0.0,Hover,,lost,100.0,0,0,0,0,0,0,0,0,0,1,0,-25,329,1230,1273.0,NaN,63,78,1209,1213.0,NaN,124,69,398,-5,53,330,,,,,,,,,,,,,,,,,,,,,,,,,,,,,,,,,,,,,,,,0.0,,0,0,0,0,29,30,29,29,48.59375,48.90625,48.854168,49.010418,48.958332,48.958332,48.958332,48.958332,0.0,0.0,0.0,0.0,16.8,16.8,16.7,16.5,0.0,0.0,0.0,0.0,0,0,0,0,0.0,0.0,0.0,0.0,0.0,180.0,0.0,0.0,0.0,0,Manual,OTHER,NONE,GPS_POSITION_NONMATCH,False,DisConnected,,P,False,False,False,0,0,,0.0,0.046,0.0,0.0,0.0,0.0,NaN,NaN,NaN,0.0,0.0,0.0,0,0,0,16999,0,85.43936,12800.0,17008,-914,0,97,25,1,4246,0,0,0.0,0.0,
29315956,6.515,,,-57.402973,-0.0,,,5,NaN,0.0,0.0,0.21629053,-0.19084716,-0.9450809,0.9881205,-0.21016754,-0.1744045,-0.5035088,0.5728075,0.0,0.0,0.0,0.0,0.0,-35,332,1227,1271.0,28.31,0.0,NaN,NaN,NaN,0.0,NaN,NaN,0.0,0.0,0.0,-0.0,NaN,NaN,NaN,NaN,NaN,NaN,NaN,NaN,false,false,-0.7592548951711486,-0.4243325646708269,-0.22964324959988652,,0.0,,,0.0,0.0,0.0,0.0,0.0,0.0,0.0,0.0,0.0,0.0,-2200,2582,0,0,737,26.7209752,58.391409,,,,,1.99,6.65,482.02,3,2,5,,,,20240502,82449,91,0,0,0,0,Manual,0,0,0,0,0,30,50,0.0,0.0,0,5,0,0,0,0,0,0,0,0,0,0.0,0.0,0.0,Hover,,lost,100.0,0,0,0,0,0,0,0,0,0,1,0,-35,332,1227,1271.0,NaN,73,78,1209,1213.0,NaN,120,70,396,-6,51,331,,,,,,,,,,,,,,,,,,,,,,,,,,,,,,,,,,,,,,,,0.0,,0,0,0,0,29,30,29,29,48.59375,48.90625,48.854168,49.010418,48.958332,48.958332,48.958332,48.958332,0.0,0.0,0.0,0.0,16.7,16.7,16.5,16.6,0.0,0.0,0.0,0.0,0,0,0,0,0.0,0.0,0.0,0.0,0.0,180.0,0.0,0.0,0.0,0,Manual,OTHER,NONE,GPS_POSITION_NONMATCH,False,DisConnected,,P,False,False,False,0,0,,0.0,0.046,0.0,0.0,0.0,0.0,NaN,NaN,NaN,0.0,0.0,0.0,0,0,0,16999,0,85.43936,12800.0,17008,-914,0,97,25,1,4246,0,0,0.0,0.0,
29466057,6.548,,,-57.060184,-0.0,,,5,NaN,0.0,0.0,0.21675242,-0.19235092,-0.9461146,0.98950154,-0.035573278,-0.16497189,-0.4533961,0.48378634,0.0,0.0,0.0,0.0,0.0,-35,332,1227,1271.0,28.37,0.0,NaN,NaN,NaN,0.0,NaN,NaN,0.0,0.0,0.0,-0.0,NaN,NaN,NaN,NaN,NaN,NaN,NaN,NaN,false,false,-0.7706613619217344,-0.42941672157943667,-0.23558573495102103,,0.0,,,0.0,0.0,0.0,0.0,0.0,0.0,0.0,0.0,0.0,0.0,-2200,2582,0,0,749,26.7209752,58.391409,,,,,1.99,6.65,482.02,3,2,5,,,,20240502,82449,92,0,0,0,0,Manual,0,0,0,0,0,30,50,0.0,0.0,0,5,0,0,0,0,0,0,0,0,0,0.0,0.0,0.0,Hover,,lost,100.0,0,0,0,0,0,0,0,0,0,1,0,-35,332,1227,1271.0,NaN,70,81,1209,1213.0,NaN,120,70,396,-4,52,331,,,,,,,,,,,,,,,,,,,,,,,,,,,,,,,,,,,,,,,,0.0,,0,0,0,0,29,30,29,29,48.59375,48.90625,48.854168,49.010418,48.958332,48.958332,48.958332,48.958332,0.0,0.0,0.0,0.0,16.7,16.7,16.5,16.6,0.0,0.0,0.0,0.0,0,0,0,0,0.0,0.0,0.0,0.0,0.0,180.0,0.0,0.0,0.0,0,Manual,OTHER,NONE,GPS_POSITION_NONMATCH,False,DisConnected,,P,False,False,False,0,0,,0.0,0.046,0.0,0.0,0.0,0.0,NaN,NaN,NaN,0.0,0.0,0.0,0,0,0,16998,0,85.43936,12800.0,17008,-914,0,97,25,1,4246,0,0,0.0,0.0,
