Clock:Tick#,Clock:offsetTime,IMU_ATTI(0):Longitude,IMU_ATTI(0):Latitude,IMU_ATTI(0):press:D,IMU_ATTI(0):alti:D,IMU_ATTI(0):relativeHeight:C,IMU_ATTI(0):absoluteHeight:C,IMU_ATTI(0):numSats,IMU_ATTI(0):roll:C,IMU_ATTI(0):pitch:C,IMU_ATTI(0):yaw:C,IMU_ATTI(0):accelX,IMU_ATTI(0):accelY,IMU_ATTI(0):accelZ,IMU_ATTI(0):accelComposite:C,IMU_ATTI(0):gyroX,IMU_ATTI(0):gyroY,IMU_ATTI(0):gyroZ,IMU_ATTI(0):gyroComposite:C,IMU_ATTI(0):velN,IMU_ATTI(0):velE,IMU_ATTI(0):velD,IMU_ATTI(0):velComposite:C,IMU_ATTI(0):velH:C,IMU_ATTI(0):magX,IMU_ATTI(0):magY,IMU_ATTI(0):magZ,IMU_ATTI(0):magMod:C,IMU_ATTI(0):temperature,IMU_ATTI(0):yawUnWrapped:C,IMU_ATTI(0):tiltInclination:C,IMU_ATTI(0):tiltDirectionEarthFrame:C,IMU_ATTI(0):tiltDirectionBodyFrame:C,IMU_ATTI(0):yaw360:C,IMU_ATTI(0):magYaw:C,IMU_ATTI(0):Yaw-magYaw:C,IMUCalcs(0):PosN:C,IMUCalcs(0):PosE:C,IMUCalcs(0):PosD:C,IMUCalcs(0):height:C,IMUCalcs(0):velN:C,IMUCalcs(0):velE:C,IMUCalcs(0):velD:C,IMUCalcs(0):diffVelN:C,IMUCalcs(0):diffVelE:C,IMUCalcs(0):diffVelD:C,IMUCalcs(0):Lat:C,IMUCalcs(0):Long:C,IMUCalcs(0):VelocityError:C,IMUCalcs(0):PositionError:C,IMUCalcs(0):totalGyroZ:C,IMUCalcs(0):totalGyroX:C,IMUCalcs(0):totalGyroY:C,IMU_ATTI(0):distanceHP:C,IMU_ATTI(0):distanceTravelled:C,IMU_ATTI(0):directionOfTravel[mag]:C,IMU_ATTI(0):directionOfTravel[true]:C,IMU_ATTI(0):quatW:D,IMU_ATTI(0):quatX:D,IMU_ATTI(0):quatY:D,IMU_ATTI(0):quatZ:D,IMU_ATTI(0):agX:D,IMU_ATTI(0):agY:D,IMU_ATTI(0):agZ:D,IMU_ATTI(0):gbX:D,IMU_ATTI(0):gbY:D,IMU_ATTI(0):gbZ:D,IMU_ATTI(0):ty:D,IMU_ATTI(0):tz:D,IMU_ATTI(0):sensor_stat:D,IMU_ATTI(0):filter_stat:D,IMU_ATTI(0):atti_cnt:D,GPS:Long,GPS:Lat,GPS:Date,GPS:Time,GPS:dateTimeStamp,GPS:heightMSL,GPS:hDOP,GPS:pDOP,GPS:sAcc,GPS:numGPS,GPS:numGLNAS,GPS:numSV,GPS:velN,GPS:velE,GPS:velD,GPS:rawDate,GPS:rawTime,Controller:ctrl_tick:D,Controller:ctrl_pitch:D,Controller:ctrl_roll:D,Controller:ctrl_yaw:D,Controller:ctrl_thr:D,Controller:ctrl_mode,Controller:mode_switch:D,Controller:motor_state:D,Controller:sig_level:D,Controller:ctrl_level:D,Controller:sim_model:D,Controller:max_height:D,Controller:max_radius:D,Controller:D2H_x:D,Controller:D2H_y:D,Controller:act_req_id:D,Controller:act_act_id:D,Controller:cmd_mod:D,Controller:mod_req_id:D,Controller:fw_flag:D,Controller:mot_sta:D,Controller:OH_take:D,Controller:OH_take_f:D,Controller:rc_cnt:D,Controller:sup_rc:D,Controller:is_soaring_up:D,Controller:soar_up_timer:D,Controller:vert_vel_err:D,Controller:vert_vel_err_fltr:D,RC_Info:failSafe,RC_Info:dataLost,RC_Info:appLost,RC_Info:sigStrength:C,RC_Info:cur_cmd:D,RC_Info:vedio_lost:D,RC_Info:frame_lost:D,RC_Info:rec_cnt:D,RC_Info:sky_con:D,RC_Info:gnd_con:D,RC_Info:connected:D,RC_Info:m_changed:D,RC_Info:arm_status:D,RC_Info:wifi_en:D,RC_Info:in_wifi:D,MagCali(0):X:D,MagCali(0):Y:D,MagCali(0):Z:D,MagCali(0):Mod:C,MagCali(0):magYaw:C,MagCali(1):X:D,MagCali(1):Y:D,MagCali(1):Z:D,MagCali(1):Mod:C,MagCali(1):magYaw:C,CompassFilter(0):X:D,CompassFilter(0):Y:D,CompassFilter(0):Z:D,CompassFilter(1):X:D,CompassFilter(1):Y:D,CompassFilter(1):Z:D,BatteryStatus:not_ready,BatteryStatus:comm_err,BatteryStatus:first_auth,BatteryStatus:auth_fail,BatteryStatus:need_re,BatteryStatus:volVerylow,BatteryStatus:volNotsafe,BatteryStatus:volLevel1:D,BatteryStatus:vollevel2:D,BatteryStatus:capLevel1:D,BatteryStatus:capLevel2:D,BatteryStatus:smartCap1:D,BatteryStatus:smartCap2:D,BatteryStatus:d_flg:D,BatteryStatus:ccsc:D,BatteryStatus:all:D,SMART_BATT:goHome%,SMART_BATT:land%,SMART_BATT:goHomeTime,SMART_BATT:landTime,OA:frontDistance,MVO:velX,MVO:velY,MVO:velZ,MVO:posX,MVO:posY,MVO:posZ,MVO:hoverPointUncertainty1,MVO:hoverPointUncertainty2,MVO:hoverPointUncertainty3,MVO:hoverPointUncertainty4,MVO:hoverPointUncertainty5,MVO:hoverPointUncertainty6,MVO:velocityUncertainty1,MVO:velocityUncertainty2,MVO:velocityUncertainty3,MVO:velocityUncertainty4,MVO:velocityUncertainty5,MVO:velocityUncertainty6,MVO:height,MVO:heightUncertainty,Motor:Speed:RFront,Motor:Speed:LFront,Motor:Speed:LBack,Motor:Speed:RBack,Motor:EscTemp:RFront,Motor:EscTemp:LFront,Motor:EscTemp:LBack,Motor:EscTemp:RBack,Motor:PPMrecv:RFront,Motor:PPMrecv:LFront,Motor:PPMrecv:LBack,Motor:PPMrecv:RBack,Motor:PPMsend:RFront,Motor:PPMsend:LFront,Motor:PPMsend:LBack,Motor:PPMsend:RBack,Motor:V_out:RFront,Motor:V_out:LFront,Motor:V_out:LBack,Motor:V_out:RBack,Motor:Volts:RFront,Motor:Volts:LFront,Motor:Volts:LBack,Motor:Volts:RBack,Motor:Current:RFront,Motor:Current:LFront,Motor:Current:LBack,Motor:Current:RBack,Motor:Status:RFront,Motor:Status:LFront,Motor:Status:LBack,Motor:Status:RBack,AirSpeed:air_vbx:D,AirSpeed:air_vby:D,AirSpeed:comp_alti:D,AirSpeed:windSpeed,AirSpeed:windDirection,AirSpeed:windFromDir,AirSpeed:windN,AirSpeed:windE,AirSpeed:MotorSpd:D,AirSpeed:vel_level:D,eventLog,osd_data:flyCState,osd_data:flycCommand,osd_data:flightAction,osd_data:nonGPSCause,osd_data:compassError,osd_data:connectedToRC,osd_data:lowVoltage,osd_data:ModeSwitch,osd_data:gpsUsed,osd_data:visionUsed,osd_data:notEnoughForce,osd_data:flightTime,osd_data:navHealth,osd_data:vpsHeight,osd_data:relativeHeight,usonic:usonic_h,ATTI_MINI0:s_qw0,ATTI_MINI0:s_qx0,ATTI_MINI0:s_qy0,ATTI_MINI0:s_qz0,ATTI_MINI0:roll:C,ATTI_MINI0:pitch:C,ATTI_MINI0:yaw:C,ATTI_MINI0:s_pgz0,ATTI_MINI0:s_vgz0,ATTI_MINI0:s_agz0,ATTI_MINI0:s_rsv00,ATTI_MINI0:s_rsv10,ATTI_MINI0:s_cnt0,BatteryInfo:ad_v:D,BatteryInfo:r_time,BatteryInfo:ave_I:D,BatteryInfo:vol_t:D,BatteryInfo:pack_ve:D,BatteryInfo:I:D,BatteryInfo:r_cap:D,BatteryInfo:cap_per:D,BatteryInfo:temp:D,BatteryInfo:right:D,BatteryInfo:l_cell:D,BatteryInfo:dyna_cnt:D,BatteryInfo:f_cap:D,BatteryInfo:out_ctl:D,BatteryInfo:out_ctl_f:D,Attribute|Value,ConvertDatV3,4.3.0
0,.000,,,,,,,,,,,,,,,,,,,,,,,,,,,,,,,,,,,,,,,,,,,,,,,,,,,,,,,,,,,,,,,,,,,,,,,,,,,,,,,,,,,,,,,,,,,,,,,,,,,,,,,,,,,,,,,,,,,,,,,,,,,,,,,,,,,,,,,,,,,,,,,,,,,,,,,,,,,,,,,,,,,,,,,,,,,,,,,,,,,,,,,,,,,,,,,,,,,,,,,,,,,,,,,,,,,,,,,,,,,,,,,,,,,,,,,,,,,,,,,,,,,,,,,,,,,,,,,,,,,,,,,,,,,,,,,,,,,,
11730446,2.607,,,,,,,,,,,,,,,,,,,,,,,,,,,,,,,,,,,,,,,,,,,,,,,,,,,,,,,,,,,,,,,,,,,,,,,,,,,,,,,,,,,,,,,,,,,,,,,,,,,,,,,,,,,,,,,,,,,,,,,,,,,,,,,,,,,,,,,,,,,,,,,,,,,,,,,,,,,,,,,,,,,,,,,,,,,,,,,,,,,,,,,,,,,,0.0,,,,,,,,,,,,,,,,,,,,,,,,,,,,,,,,,,,,,,,,,,,,{root}INFO:lib_route_init ok,,,,,,,,P,,,,,,,,,,,,,,,,,,,,,,,,,,,,,,,,,,,,,Firmware Date| Nov 16 2017
17137912,3.808,,,,,,,,,,,,,,,,,,,,,,,,,,,,,,,,,,,,,,,,,,,,,,,,,,,,,,,,,,,,,,,,,,,,,,,,,,,,,,,,,,,,,,,,,,,,,,,,,,,,,,,,,,,,,,,,,,,,,,,,,,,,,,,,,,,,,,,,,,,,,,,,,,,,,,,,,,,,,,,,,,,,,,,,,,,,,,,,,,,,,,,,,,,,0.0,,,,,,,,,,,,,,,,,,,,,,,,,,,,,,,,,,,,,,,,,,,,{root}INFO:link_host_init ok.|||{root}INFO:link_init <0> link_host. ret(0x0)|||{root}INFO:link_init <1> link_pc. ret(0x0)|||{root}INFO:link_init <2> link_vo. ret(0x0)|||{root}INFO:link_init <3> link_ap. ret(0x0)|||{root}INFO:link_init <4> link_sdk. ret(0x0)|||{root}INFO:link_init <5> link_ofdm. ret(0x0)|||{root}INFO:link_init <6> link_auto_cali. ret(0x0)|||{root}INFO:link_init <7> link_manual_cali. ret(0x0)|||{root}INFO:link_init <8> link_cali_led. ret(0x0)|||      0 [L-SENSOR][ASR]sync host lead offset 0x11a|||{root}INFO:[panic]:******************check fault info and trace(0) ************|||{root}INFO:[panic]:-----fault info is null: addr(0x2045e800).flag(0x3f605a6b)-----|||{root}INFO:[panic]:-----fault info is null: addr(0x2045e938).flag(0x9db8dbce)-----|||{root}INFO:[panic]:-----all task info  is null: addr(0x2045ea70).flag(0x067459d4)-----|||{root}INFO:[panic]:-----trace info  is null: addr(0x2045f260).flag(0x5676a188)-----|||{root}INFO:[panic]:******************check last trace ******************|||{root}INFO:[panic]:-----trace info  is null: addr(0x2045eca0).flag(0x0b9b8ae2)-----|||      0 [L-SENSOR][ASR]asr host sync start|{root}INFO:[panic]:-----wdg_time_info is null: addr(0x2045f820).flag(0xb3cfddbc)-----|||      0 [L-SENSOR] hw_ver voltage: 0,,,,,,,,P,,,,,,,,,,,,,,,,,,,,,,,,,,,,,,,,,,,,,ACType|P4
21276567,4.728,,,,,,,,,,,,,,,,,,,,,,,,,,,,,,,,,,,,,,,,,,,,,,,,,,,,,,,,,,,,,,,,,,,,,,,,,,,,,,,,,,,,,,,,,,,,,,,,,,,,,,,,,,,,,,,,,,,,,,,,,,,,,,,,,,,,,,,,,,,,,,,,,,,,,,,,,,,,,,,,,,,,,,,,,,,,,,,,,,,,,,,,,,,,0.0,,,,,,,,,,,,,,,,,,,,,,,,,,,,,,,,,,,,,,,,,,,,      0 [L-SIM]read parameter successfully!,,,,,,,,P,,,,,,,,,,,,,,,,,,,,,,,,,,,,,,,,,,,,,
21479629,4.773,,,,,,,,,,,,,,,,,,,,,,,,,,,,,,,,,,,,,,,,,,,,,,,,,,,,,,,,,,,,,,,,,,,,,,,,,,,,,,,,,,,,,,,,,,,,,,,,,,,,,,,,,,,,,,,,,,,,,,,,,,,,,,,,,,,,,,,,,,,,,,,,,,,,,,,,,,,,,,,,,,,,,,,,,,,,,,,,,,,,,,,,,,,,0.0,,,,,,,,,,,,,,,,,,,,,,,,,,,,,,,,,,,,,,,,,,,,      0 [L-FMU/MOTOR]read motor force disable flag successfully!|      0 [L-FMU/DM]success reg dev type  3(A3). id:2. total num:2,,,,,,,,P,,,,,,,,,,,,,,,,,,,,,,,,,,,,,,,,,,,,,
21650323,4.811,,,,,,,,,,,,,,,,,,,,,,,,,,,,,,,,,,,,,,,,,,,,,,,,,,,,,,,,,,,,,,,,,,,,,,,,,,,,,,,,,,,,,,,,,,,,,,,,,,,,,,,,,,,,,,,,,,,,,,,,,,,,,,,,,,,,,,,,,,,,,,,,,,,,,,,,,,,,,,,,,,,,,,,,,,,,,,,,,,,,,,,,,,,,0.0,,,,,,,,,,,,,,,,,,,,,,,,,,,,,,,,,,,,,,,,,,,,      0 [L-SENSOR][ASR]need re sync host load_offset. freq=0x190|||      0 [L-SENSOR][ASR]need re sync host load_offset. freq=0x190|||      0 [L-SENSOR][ASR]need re sync host load_offset. freq=0x190|||      0 [L-SENSOR][ASR]need re sync host load_offset. freq=0x190|||      0 [L-SENSOR]imu group0 ok|      0 [L-GYRO_ACC]imu_0 group->sensor_id:e36a51 |      0 [L-GYRO_ACC]turn on temp ctrl(0). cur_temp:-50.0. reason:temp ctrl core init|      0 [L-GYRO_ACC]turn on temp ctrl(0). cur_temp:0.0. reason:gyro_acc_tmp_ctl_init|      0 [L-GYRO_ACC]fitler-angular_vel. cheby2_config_7th|      0 [L-GYRO_ACC]fz: 160.000000 hz.50.000000 dB|      0 [L-GYRO_ACC]fitler-linear_acc. butter_config_3rd_z2|      0 [L-GYRO_ACC] fp= 16.000000 hz; fz=100.000000 hz fs=2000.000000|      0 [L-GYRO_ACC]bandpass: fp= 50.000000 hz; fs=350.000000 hz; sample=2000.000000|      0 [L-FDI][IMU]0 dir ok 1.000000 0.000000 0.000000 0.000000 1.000000 0.000000 0.000000 0.|      0 [L-FDI][IMU]0 mis cali ok|      0 [L-FDI][IMU]0 level 1&2 temp cali ok|      0 [L-FDI][IMU]0 base cali ok ff aa|      0 [L-FDI][IMU]0 cali ver ok ff 4 6 6|      0 [L-FMU/DM]success reg dev type  8(gyro_acc0). id:3. total num:3|      0 [L-SENSOR]imu group1 ok|      0 [L-GYRO_ACC]imu_1 group->sensor_id:20e36a51 |      0 [L-GYRO_ACC]turn on temp ctrl(1). cur_temp:-50.0. reason:temp ctrl core init|      0 [L-GYRO_ACC]turn on temp ctrl(1). cur_temp:0.0. reason:gyro_acc_tmp_ctl_init|      0 [L-GYRO_ACC]fitler-angular_vel. cheby2_config_7th|      0 [L-GYRO_ACC]fz: 160.000000 hz.50.000000 dB|      0 [L-GYRO_ACC]fitler-linear_acc. butter_config_3rd_z2|      0 [L-GYRO_ACC] fp= 16.000000 hz; fz=100.000000 hz fs=2000.000000|      0 [L-GYRO_ACC]bandpass: fp= 50.000000 hz; fs=350.000000 hz; sample=2000.000000|      0 [L-FDI][IMU]1 dir ok 1.000000 0.000000 0.000000 0.000000 1.000000 0.000000 0.000000 0.|      0 [L-FDI][IMU]1 mis cali ok|      0 [L-FDI][IMU]1 level 1&2 temp cali ok|      0 [L-FDI][IMU]1 base cali ok ff aa|      0 [L-FDI][IMU]1 cali ver ok ff 4 6 6|      0 [L-SENSOR][ASR]sync host lead offset 0x11a|||      0 [L-SENSOR][ASR]asr host sync start|      0 [L-SENSOR]baro group0 ok|      0 [L-FMU/DM]success reg dev type  9(baro0). id:5. total num:5|      0 [L-SENSOR]compass group0 ok|      0 [L-FMU/DM]success reg dev type 10(compass0). id:6. total num:6|      0 [L-SENSOR]compass group1 ok|      0 [L-FMU/DM]success reg dev type 10(compass0). id:7. total num:7|      0 [L-FMU/DM]success reg dev type  4(imu0_local). id:8. total num:8|      0 [L-FMU/DM]success reg dev type 19(rc0). id:9. total num:9|      0 [L-FMU/DM]success reg dev type 15(zenmus0). id:10. total num:10|      0 [L-FMU/DM]success reg dev type 14(camera0). id:11. total num:11|      0 [L-FMU/DM]success reg dev type 12(vo0). id:12. total num:12|      0 [L-FMU/DM]success reg dev type 11(ultrasonic0). id:13. total num:13|      0 [L-GPS]<AGPS INFO>comm agps init.agps mode :HOST-BASE|      0 [L-SDK][USER] api cfg load success (BR:921600)!|||      0 [L-FMU/DM]success reg dev type 22(sdk0). id:14. total num:14|      0 [L-BATTERY]-------comm_bat_init-------|      0 [L-FMU/DM]success reg dev type 26(battery0). id:15. total num:15|      0 [L-BATTERY]bat_auth_origa_init|      0 [L-BATTERY]bat_auth_origa_stop|      0 [L-FMU/DM]success reg dev type 32(wristband0). id:16. total num:16|      0 [L-FMU/DM]success reg dev type 33(headset0). id:17. total num:17|      0 [L-PWM]actuator_cfg_changed![ACTUATOR_0]|      0 [L-PWM]actuator_cfg_changed![ACTUATOR_1]|      0 [L-PWM]actuator_cfg_changed![ACTUATOR_2]|      0 [L-PWM]actuator_cfg_changed![ACTUATOR_3]|      0 [L-PWM]actuator_cfg_changed![ACTUATOR_4]|      0 [L-PWM]actuator_cfg_changed![ACTUATOR_5]|      0 [L-PWM]actuator_cfg_changed![ACTUATOR_6]|      0 [L-PWM]actuator_cfg_changed![ACTUATOR_7]|      0 [L-PWM]set actuator mode:IDLE|      0 [L-PWM]f_chl_cfg changed!|      0 [L-FMU/DM]success reg dev type 17(). id:18. total num:18|      0 [L-FMU/DM]success reg dev type  0(esc4). id:19. total num:19|      0 [L-FMU/DM]success reg dev type 16(GEAR). id:20. total num:20|      0 [L-FMU/DM]success reg dev type 24(DROPSAFE). id:21. total num:21|      0 [L-FMU/DM]success reg dev type 34(PITOT). id:22. total num:22|      0 [L-DBG1][Init]Init ok:|      0 [L-DBG1][Init]HF task : 400Hz @ mode2|      0 [L-DBG1][Init]LF task : 50Hz @ mode0|      0 [L-DBG1][Init]Tail: 400Hz Atti: 200Hz|      0 [L-DBG1][Init]Init ok:|      0 [L-DBG1][Init]MF task : 200Hz @ mode4|      0 [L-USER][USER]Read user config!|      0 [L-USER][USER]Read statistical info!|      0 [L-USER][USER]Read statistical info!,,,,,,,,P,,,,,,,,,,,,,,,,,,,,,,,,,,,,,,,,,,,,,
23013123,5.114,,,0.0,-0.0,,,0,NaN,0.0,0.0,0.1092529,-0.11324146,-0.48774034,0.5124943,0.062552676,0.37480158,-0.48740155,0.6180205,0.0,0.0,0.0,0.0,0.0,121,70,397,420.0,0.0,0.0,NaN,NaN,NaN,0.0,NaN,NaN,0.0,0.0,0.0,-0.0,NaN,NaN,NaN,NaN,NaN,NaN,NaN,NaN,false,false,-0.0066119945937970215,2.6205928042033477E-4,0.007018461444076252,,0.0,,,0.0,0.0,0.0,0.0,0.0,0.0,0.0,0.0,0.0,0.0,0,0,0,0,9,,,,,,,,,,,,,,,,,,0,0,0,0,0,Manual,0,0,0,0,0,100,5000,0.0,0.0,0,5,0,0,0,0,0,0,0,0,0,0.0,0.0,0.0,,,,,,,,,,,,,,,,121,70,397,420.0,NaN,-6,55,331,335.0,NaN,116,67,383,-5,53,319,,,,,,,,,,,,,,,,,,,,,,,,,,,,,,,,,,,,,,,,0.0,,,,,,,,,,,,,,,,,,,,,,,,,,,,,,,,,,0.0,0.0,0.0,0.0,0.0,180.0,0.0,0.0,0.0,0,{root}INFO:reset by power.|||{root}INFO:iwdg_set_time_out time_out(0x00000a23)!|{root}INFO:wdg_set_swdg_time_out time_out(2595) set g_swdg_timeout_max(480) |||{root}INFO:watchdog enable.|||      0 [L-SENSOR][ASR]ASR sync start(start).phase lead = 0|      0 [L-GPS]<GPS INFO>m8_poll_uniqid gps[0][0]|      0 [L-GPS]<GPS ERROR>m8 uid not received!|      0 [L-SDK][USER] Init_dji_api_protocol start!|||      0 [L-SDK][USER] Baud_rate: 921600 |||      0 [L-SDK][USER]----------start sdk protocol ---------|||      0 [L-CTRL]horiz vel complement filter fc:0.300000|      0 [L-CTRL]vert vel complement filter fc:0.300000|      0 [L-NS][AHRS] baro abp : 0.100000|      0 [L-NS][AHRS] baro a   : 0.998000|      0 [L-NS][AHRS] baro v   : 0.620000|      0 [L-NS][AHRS] baro p   : 0.680000|      0 [L-NS][AHRS] mag_gain: 100|      0 [L-NS][AHRS]  fs_gnss_hp        :  1|      0 [L-NS][AHRS]  fs_gnss_hv        :  1|      0 [L-NS][AHRS]  fs_gnss_vp        :  1|      0 [L-NS][AHRS]  fs_vodm_hp        :  1|      0 [L-NS][AHRS]  fs_vodm_hv        :  1|      0 [L-NS][AHRS]  fs_vodm_vp        :  1|      0 [L-NS][AHRS]  fs_vodm_vv        :  1|      0 [L-NS][AHRS]  fs_vodm_vh        :  1|      0 [L-NS][AHRS]  fs_usnc_vp        :  1|      0 [L-NS][AHRS]  fs_baro_vp        :  1|      0 [L-NS][AHRS]  fs_magn_yaw       :  1|      0 [L-NS][AHRS]  dlt_gnss_hp       : 35|      0 [L-NS][AHRS]  dlt_gnss_hv       : 55|      0 [L-NS][AHRS]  dlt_gnss_vp       : 35|      0 [L-NS][AHRS]  dlt_gnss_vv       : 55|      0 [L-NS][AHRS]  dlt_vodm_hp       :  4|      0 [L-NS][AHRS]  dlt_vodm_hv       :  4|      0 [L-NS][AHRS]  dlt_vodm_vp       :  4|      0 [L-NS][AHRS]  dlt_vodm_vv       :  4|      0 [L-NS][AHRS]  dlt_vodm_vh       :  4|      0 [L-NS][AHRS]  dlt_rtks_hp_p     : 60|      0 [L-NS][AHRS]  dlt_rtks_hp_s     : 60|      0 [L-NS][AHRS]  dlt_rtks_hv       : 60|      0 [L-NS][AHRS]  dlt_rtks_vp_p     : 40|      0 [L-NS][AHRS]  dlt_rtks_vp_s     : 60|      0 [L-NS][AHRS]  dlt_rtks_vv       : 60|      0 [L-NS][AHRS]  dlt_rtks_yaw      : 60|      0 [L-NS][AHRS]  dlt_magn_yaw      :  5|      0 [L-NS][AHRS]  thermostatic_temp : 65|      0 [L-NS][AHRS]  ground_effect_ht  : 50|      0 [L-NS][AHRS] Rgps:0.000.0.000.-0.030|||      0 [L-NS][AHRS] Rimu:0.023.0.013.-0.014|||      0 [L-NS][AHRS]version: V3_20161218_[09],,,,,,,,P,,,,,,,,,0.0,0.0,0.0,0.0,NaN,NaN,NaN,0.0,0.0,0.0,0,0,0,,,,,,,,,,,,,,,,
23163683,5.147,,,0.0,-0.0,,,0,NaN,0.0,0.0,0.21616866,-0.19352664,-0.9459551,0.9894506,-0.2667638,-0.08119441,-0.34161976,0.44097567,0.0,0.0,0.0,0.0,0.0,-31,329,1230,1273.0,24.19,0.0,NaN,NaN,NaN,0.0,NaN,NaN,0.0,0.0,0.0,-0.0,NaN,NaN,NaN,NaN,NaN,NaN,NaN,NaN,false,false,-0.1486793680636609,-0.010802081120246054,0.04766708702491762,,0.0,,,0.0,0.0,0.0,0.0,0.0,0.0,0.0,0.0,0.0,0.0,-2200,2172,0,0,133,,,,,,,,,,,,,,,,,,15,0,0,0,0,Manual,0,0,0,0,0,30,50,0.0,0.0,0,5,0,0,0,0,0,0,0,0,0,0.0,0.0,0.0,Hover,,lost,0.0,0,0,0,0,0,0,0,0,0,1,0,-31,329,1230,1273.0,NaN,63,75,1209,1212.0,NaN,121,69,399,-5,53,330,,,,,,,,,,,,,,,,,,,,,,,,,,,,,,,,,,,,,,,,0.0,,,,,,,,,,,,,,,,,,,,,,,,,,,,,,,,,,0.0,0.0,0.0,0.0,0.0,180.0,0.0,0.0,0.0,0,{task_sd}INFO:dyn_map_mem_init input:0x204101f0.0x20411ae8.0x800.|||{task_sd}INFO:dyn_map_mem_init ok:0x20411ae8.0x20.0x40.||,,,,,,,,P,,,,,,,,,0.0,0.0,0.0,0.0,NaN,NaN,NaN,0.0,0.0,0.0,0,0,0,13915,0,0.0,0.0,0,0,0,0,0,1,0,0,0,0.0,0.0,
23314392,5.181,,,0.0,-0.0,,,0,NaN,0.0,0.0,0.21707645,-0.19431897,-0.9461206,0.98996276,-0.22283007,-0.027494032,-0.35248974,0.41792125,0.0,0.0,0.0,0.0,0.0,-31,327,1224,1267.0,24.18,0.0,NaN,NaN,NaN,0.0,NaN,NaN,0.0,0.0,0.0,-0.0,NaN,NaN,NaN,NaN,NaN,NaN,NaN,NaN,false,false,-0.16150965611532797,-0.018479402750017027,0.04392546829694055,,0.0,,,0.0,0.0,0.0,0.0,0.0,0.0,0.0,0.0,0.0,0.0,-2200,2172,0,0,145,,,,,,,,,,,,,,,,,,17,0,0,0,0,Manual,0,0,0,0,0,30,50,0.0,0.0,0,5,0,0,0,0,0,0,0,0,0,0.0,0.0,0.0,Hover,,lost,0.0,0,0,0,0,0,0,0,0,0,1,0,-31,327,1224,1267.0,NaN,73,84,1209,1214.0,NaN,122,67,395,-6,51,331,,,,,,,,,,,,,,,,,,,,,,,,,,,,,,,,,,,,,,,,0.0,,,,,,,,,,,,,,,,,,,,,,,,,,,,,,,,,,0.0,0.0,0.0,0.0,0.0,180.0,0.0,0.0,0.0,0,,,,,,,,,P,,,,,,,,,0.0,0.0,0.0,0.0,NaN,NaN,NaN,0.0,0.0,0.0,0,0,0,14608,0,0.0,0.0,0,0,0,0,0,1,0,0,0,0.0,0.0,
23469064,5.215,,,0.0,-0.0,,,0,NaN,0.0,0.0,0.21538681,-0.19319385,-0.94665176,0.9898813,-0.13918908,-0.16330221,-0.5116119,0.5547864,0.0,0.0,0.0,0.0,0.0,-31,332,1227,1271.0,24.2,0.0,NaN,NaN,NaN,0.0,NaN,NaN,0.0,0.0,0.0,-0.0,NaN,NaN,NaN,NaN,NaN,NaN,NaN,NaN,false,false,-0.1778353983271188,-0.0249220208002483,0.0396842380057425,,0.0,,,0.0,0.0,0.0,0.0,0.0,0.0,0.0,0.0,0.0,0.0,-2200,2172,0,0,159,,,,,,,,,,,,,,,,,,19,0,0,0,0,Manual,0,0,0,0,0,30,50,0.0,0.0,0,5,0,0,0,0,0,0,0,0,0,0.0,0.0,0.0,Hover,,lost,0.0,0,0,0,0,0,0,0,0,0,1,0,-31,332,1227,1271.0,NaN,70,78,1209,1213.0,NaN,121,70,397,-3,54,330,,,,,,,,,,,,,,,,,,,,,,,,,,,,,,,,,,,,,,,,0.0,,,,,,,,,,,,,,,,,,,,,,,,,,,,,,,,,,0.0,0.0,0.0,0.0,0.0,180.0,0.0,0.0,0.0,0,,Manual,OTHER,NONE,GPS_POSITION_NONMATCH,True,DisConnected,,P,False,False,False,0,0,,0.0,,0.0,0.0,0.0,0.0,NaN,NaN,NaN,0.0,0.0,0.0,0,0,0,15146,0,0.0,0.0,0,0,0,0,0,1,0,0,0,0.0,0.0,
23619564,5.249,,,0.0,-0.0,,,0,NaN,0.0,0.0,0.2155825,-0.19274646,-0.94479346,0.9880596,-0.20399451,-0.08186409,-0.5458208,0.58841807,0.0,0.0,0.0,0.0,0.0,-25,335,1227,1272.0,24.22,0.0,NaN,NaN,NaN,0.0,NaN,NaN,0.0,0.0,0.0,-0.0,NaN,NaN,NaN,NaN,NaN,NaN,NaN,NaN,false,false,-0.19584012752272884,-0.03323528415267196,0.035843630715257646,,0.0,,,0.0,0.0,0.0,0.0,0.0,0.0,0.0,0.0,0.0,0.0,-2200,2175,0,0,173,,,,,,,,,,,,,,,,,,20,0,0,0,0,Manual,0,0,0,0,0,30,50,0.0,0.0,0,5,0,0,0,0,0,0,0,0,0,0.0,0.0,0.0,Hover,,lost,0.0,0,0,0,0,0,0,0,0,0,1,0,-25,335,1227,1272.0,NaN,73,75,1218,1222.0,NaN,122,70,397,-4,51,332,,,,,,,,,,,,,,,,,,,,,,,,,,,,,,,,,,,,,,,,0.0,,,,,,,,,,,,,,,,,,,,,,,,,,,,,,,,,,0.0,0.0,0.0,0.0,0.0,180.0,0.0,0.0,0.0,0,,Manual,OTHER,NONE,GPS_POSITION_NONMATCH,True,DisConnected,,P,False,False,False,0,0,,0.0,,0.0,0.0,0.0,0.0,NaN,NaN,NaN,0.0,0.0,0.0,0,0,0,15368,0,0.0,0.0,0,0,0,0,0,1,0,0,0,0.0,0.0,
23771189,5.282,,,0.0,-0.0,,,0,NaN,0.0,0.0,0.21705677,-0.19425812,-0.9451125,0.9889831,-0.30621433,-0.14388016,-0.48903722,0.5946647,0.0,0.0,0.0,0.0,0.0,-35,329,1227,1270.0,24.23,0.0,NaN,NaN,NaN,0.0,NaN,NaN,0.0,0.0,0.0,-0.0,NaN,NaN,NaN,NaN,NaN,NaN,NaN,NaN,false,false,-0.2116536873457946,-0.0416131059103555,0.03129608321482813,,0.0,,,0.0,0.0,0.0,0.0,0.0,0.0,0.0,0.0,0.0,0.0,-2200,2175,0,0,187,26.7254873,58.3895381,,,,,99.99,99.99,106675.22,0,0,0,,,,20240502,82406,22,0,0,0,0,Manual,0,0,0,0,0,30,50,0.0,0.0,0,5,0,0,0,0,0,0,0,0,0,0.0,0.0,0.0,Hover,,lost,0.0,0,0,0,0,0,0,0,0,0,1,0,-35,329,1227,1270.0,NaN,77,81,1206,1211.0,NaN,121,69,396,-3,51,333,,,,,,,,,,,,,,,,,,,,,,,,,,,,,,,,,,,,,,,,0.0,,,,,,,,,,,,,,,,,,,,,,,,,,,,,,,,,,0.0,0.0,0.0,0.0,0.0,180.0,0.0,0.0,0.0,0,     23 [L-GPS]<GPS ERROR>[0][0] frequency error 159,Manual,OTHER,NONE,GPS_POSITION_NONMATCH,True,DisConnected,,P,False,False,False,0,0,,0.0,,0.0,0.0,0.0,0.0,NaN,NaN,NaN,0.0,0.0,0.0,0,0,0,15737,0,0.0,0.0,0,0,0,0,0,1,0,0,0,0.0,0.0,
23921902,5.316,,,-57.792355,-0.0,,,0,NaN,0.0,0.0,0.21550527,-0.19369663,-0.94538796,0.9887969,-0.2358356,-0.14455976,-0.44640055,0.52515656,0.0,0.0,0.0,0.0,0.0,-25,335,1227,1272.0,24.22,0.0,NaN,NaN,NaN,0.0,NaN,NaN,0.0,0.0,0.0,-0.0,NaN,NaN,NaN,NaN,NaN,NaN,NaN,NaN,false,false,-0.22715717285076664,-0.04862694975979798,0.02814497420101142,,0.0,,,0.0,0.0,0.0,0.0,0.0,0.0,0.0,0.0,0.0,0.0,-2200,2175,0,0,199,26.7254873,58.3895381,,,,,99.99,99.99,106675.22,0,0,0,,,,20240502,82406,24,0,0,0,0,Manual,0,0,0,0,0,30,50,0.0,0.0,0,5,0,0,0,0,0,0,0,0,0,0.0,0.0,0.0,Hover,,lost,0.0,0,0,0,0,0,0,0,0,0,1,0,-25,335,1227,1272.0,NaN,63,81,1215,1219.0,NaN,123,70,396,-4,53,330,,,,,,,,,,,,,,,,,,,,,,,,,,,,,,,,,,,,,,,,0.0,,,,,,,,,,,,,,,,,,,,,,,,,,,,,,,,,,0.0,0.0,0.0,0.0,0.0,180.0,0.0,0.0,0.0,0,     25 [L-SENSOR][baro(0)] connect|     25 [L-SENSOR][baro(0)] reset filter: 102.0 fc: 30.0 hz 30.0 30.0 1,Manual,OTHER,NONE,GPS_POSITION_NONMATCH,True,DisConnected,,P,False,False,False,0,0,,0.0,,0.0,0.0,0.0,0.0,NaN,NaN,NaN,0.0,0.0,0.0,0,0,0,16023,0,0.0,0.0,0,0,0,0,0,1,0,0,0,0.0,0.0,
24075364,5.350,,,-57.631157,-0.0,,,0,NaN,0.0,0.0,0.21640383,-0.19314995,-0.94630754,0.98976535,-0.36609304,-0.11592564,-0.46966687,0.60667115,0.0,0.0,0.0,0.0,0.0,-31,329,1230,1273.0,24.21,0.0,NaN,NaN,NaN,0.0,NaN,NaN,0.0,0.0,0.0,-0.0,NaN,NaN,NaN,NaN,NaN,NaN,NaN,NaN,false,false,-0.24527978646603543,-0.05644641479192947,0.02513661957504959,,0.0,,,0.0,0.0,0.0,0.0,0.0,0.0,0.0,0.0,0.0,0.0,-2200,2178,0,0,213,26.7254873,58.3895381,,,,,99.99,99.99,106675.22,0,0,0,,,,20240502,82406,25,0,0,0,0,Manual,0,0,0,0,0,30,50,0.0,0.0,0,5,0,0,0,0,0,0,0,0,0,0.0,0.0,0.0,Hover,,lost,0.0,0,0,0,0,0,0,0,0,0,1,0,-31,329,1230,1273.0,NaN,73,78,1206,1210.0,NaN,124,70,397,-5,52,332,,,,,,,,,,,,,,,,,,,,,,,,,,,,,,,,,,,,,,,,0.0,,,,,,,,,,,,,,,,,,,,,,,,,,,,,,,,,,0.0,0.0,0.0,0.0,0.0,180.0,0.0,0.0,0.0,0,,Manual,OTHER,NONE,GPS_POSITION_NONMATCH,True,DisConnected,,P,False,False,False,0,0,,0.0,,0.0,0.0,0.0,0.0,NaN,NaN,NaN,0.0,0.0,0.0,0,0,0,16142,0,0.0,0.0,0,0,0,0,0,1,0,0,0,0.0,0.0,
24225664,5.383,,,-57.617027,-0.0,,,0,NaN,0.0,0.0,0.21700025,-0.19367538,-0.94438523,0.98816127,-0.14561352,-0.1814381,-0.45204288,0.5083954,0.0,0.0,0.0,0.0,0.0,-31,338,1233,1278.0,24.19,0.0,NaN,NaN,NaN,0.0,NaN,NaN,0.0,0.0,0.0,-0.0,NaN,NaN,NaN,NaN,NaN,NaN,NaN,NaN,false,false,-0.2618970378756629,-0.06448637742408314,0.022717892625833402,,0.0,,,0.0,0.0,0.0,0.0,0.0,0.0,0.0,0.0,0.0,0.0,-2200,2178,0,0,227,26.7254873,58.3895381,,,,,99.99,99.99,106675.22,0,0,0,,,,20240502,82406,27,0,0,0,0,Manual,0,0,0,0,0,30,50,0.0,0.0,0,5,0,0,0,0,0,0,0,0,0,0.0,0.0,0.0,Hover,,lost,0.0,0,0,0,0,0,0,0,0,0,1,0,-31,338,1233,1278.0,NaN,66,78,1209,1213.0,NaN,121,71,399,-3,51,329,,,,,,,,,,,,,,,,,,,,,,,,,,,,,,,,,,,,,,,,0.0,,,,,,,,,,,,,,,,,,,,,,,,,,,,,,,,,,0.0,0.0,0.0,0.0,0.0,180.0,0.0,0.0,0.0,0,,Manual,OTHER,NONE,GPS_POSITION_NONMATCH,True,DisConnected,,P,False,False,False,0,0,,0.0,,0.0,0.0,0.0,0.0,NaN,NaN,NaN,0.0,0.0,0.0,0,0,0,16338,0,0.0,0.0,0,0,0,0,0,1,0,0,0,0.0,0.0,
24376675,5.417,,,-57.908024,-0.0,,,0,NaN,0.0,0.0,0.2157179,-0.19408523,-0.9449328,0.9884844,-0.23568691,-0.0735563,-0.49850553,0.55629724,0.0,0.0,0.0,0.0,0.0,-22,335,1227,1272.0,24.24,0.0,NaN,NaN,NaN,0.0,NaN,NaN,0.0,0.0,0.0,-0.0,NaN,NaN,NaN,NaN,NaN,NaN,NaN,NaN,false,false,-0.2785184594182084,-0.07320290404683538,0.018383678000216508,,0.0,,,0.0,0.0,0.0,0.0,0.0,0.0,0.0,0.0,0.0,0.0,-2200,2178,0,0,241,26.7254873,58.3895381,,,,,99.99,99.99,106675.22,0,0,0,,,,20240502,82406,29,0,0,0,0,Manual,0,0,0,0,0,30,50,0.0,0.0,0,5,0,0,0,0,0,0,0,0,0,0.0,0.0,0.0,Hover,,lost,0.0,0,0,0,0,0,0,0,0,0,1,0,-22,335,1227,1272.0,NaN,77,81,1200,1205.0,NaN,124,70,396,-5,52,330,,,,,,,,,,,,,,,,,,,,,,,,,,,,,,,,,,,,,,,,0.0,,,,,,,,,,,,,,,,,,,,,,,,,,,,,,,,,,0.0,0.0,0.0,0.0,0.0,180.0,0.0,0.0,0.0,0,,Manual,OTHER,NONE,GPS_POSITION_NONMATCH,True,DisConnected,,P,False,False,False,0,0,,0.0,,0.0,0.0,0.0,0.0,NaN,NaN,NaN,0.0,0.0,0.0,0,0,0,16492,0,0.0,0.0,0,0,0,0,0,1,0,0,0,0.0,0.0,
24526728,5.450,,,-57.573063,-0.0,,,0,NaN,0.0,0.0,0.2159822,-0.1941638,-0.94649243,0.9900484,-0.2983968,-0.05046537,-0.56830525,0.643862,0.0,0.0,0.0,0.0,0.0,-28,338,1227,1273.0,24.19,0.0,NaN,NaN,NaN,0.0,NaN,NaN,0.0,0.0,0.0,-0.0,NaN,NaN,NaN,NaN,NaN,NaN,NaN,NaN,false,false,-0.2936103507019254,-0.0809669581802992,0.0172172412569645,,0.0,,,0.0,0.0,0.0,0.0,0.0,0.0,0.0,0.0,0.0,0.0,-2200,2179,0,0,253,26.7254873,58.3895381,,,,,99.99,99.99,106675.22,0,0,0,,,,20240502,82406,31,0,0,0,0,Manual,0,0,0,0,0,30,50,0.0,0.0,0,5,0,0,0,0,0,0,0,0,0,0.0,0.0,0.0,Hover,,lost,0.0,0,0,0,0,0,0,0,0,0,1,0,-28,338,1227,1273.0,NaN,66,84,1206,1210.0,NaN,124,70,396,-3,53,328,,,,,,,,,,,,,,,,,,,,,,,,,,,,,,,,,,,,,,,,0.0,,,,,,,,,,,,,,,,,,,,,,,,,,,,,,,,,,0.0,0.0,0.0,0.0,0.0,180.0,0.0,0.0,0.0,0,,Manual,OTHER,NONE,GPS_POSITION_NONMATCH,True,DisConnected,,P,False,False,False,0,0,,0.0,,0.0,0.0,0.0,0.0,NaN,NaN,NaN,0.0,0.0,0.0,0,0,0,16556,0,0.0,0.0,0,0,0,0,0,1,0,0,0,0.0,0.0,
24677126,5.484,,,-58.020554,-0.0,,,0,NaN,0.0,0.0,0.21788257,-0.19204848,-0.9469163,0.9904574,-0.11426788,-0.030797016,-0.3582053,0.37724876,0.0,0.0,0.0,0.0,0.0,-22,335,1224,1269.0,24.22,0.0,NaN,NaN,NaN,0.0,NaN,NaN,0.0,0.0,0.0,-0.0,NaN,NaN,NaN,NaN,NaN,NaN,NaN,NaN,false,false,-0.3114794922443451,-0.08758374993199913,0.013923902219521722,,0.0,,,0.0,0.0,0.0,0.0,0.0,0.0,0.0,0.0,0.0,0.0,-2200,2179,0,0,267,26.7254873,58.3895381,,,,,99.99,99.99,106675.22,0,0,0,,,,20240502,82406,32,0,0,0,0,Manual,0,0,0,0,0,30,50,0.0,0.0,0,5,0,0,0,0,0,0,0,0,0,0.0,0.0,0.0,Hover,,lost,0.0,0,0,0,0,0,0,0,0,0,1,0,-22,335,1224,1269.0,NaN,70,81,1200,1204.0,NaN,124,71,396,-6,53,329,,,,,,,,,,,,,,,,,,,,,,,,,,,,,,,,,,,,,,,,0.0,,,,,,,,,,,,,,,,,,,,,,,,,,,,,,,,,,0.0,0.0,0.0,0.0,0.0,180.0,0.0,0.0,0.0,0,,Manual,OTHER,NONE,GPS_POSITION_NONMATCH,True,DisConnected,,P,False,False,False,0,0,,0.0,,0.0,0.0,0.0,0.0,NaN,NaN,NaN,0.0,0.0,0.0,0,0,0,16662,0,0.0,0.0,0,0,0,0,0,1,0,0,0,0.0,0.0,
24828687,5.517,,,-57.669365,-0.0,,,0,NaN,0.0,0.0,0.21512166,-0.19385466,-0.94516855,0.9885345,-0.2370018,-0.2797047,-0.3992391,0.5420299,0.0,0.0,0.0,0.0,0.0,-31,332,1227,1271.0,24.25,0.0,NaN,NaN,NaN,0.0,NaN,NaN,0.0,0.0,0.0,-0.0,NaN,NaN,NaN,NaN,NaN,NaN,NaN,NaN,false,false,-0.32487410794250593,-0.09496515339699085,0.009180633393553628,,0.0,,,0.0,0.0,0.0,0.0,0.0,0.0,0.0,0.0,0.0,0.0,-2200,2179,0,0,281,26.7254873,58.3895381,,,,,99.99,99.99,106675.22,0,0,0,,,,20240502,82406,34,0,0,0,0,Manual,0,0,0,0,0,30,50,0.0,0.0,0,5,0,0,0,0,0,0,0,0,0,0.0,0.0,0.0,Hover,,lost,0.0,0,0,0,0,0,0,0,0,0,1,0,-31,332,1227,1271.0,NaN,70,78,1206,1210.0,NaN,122,70,397,-4,52,328,,,,,,,,,,,,,,,,,,,,,,,,,,,,,,,,,,,,,,,,0.0,,,,,,,,,,,,,,,,,,,,,,,,,,,,,,,,,,0.0,0.0,0.0,0.0,0.0,180.0,0.0,0.0,0.0,0,,Manual,OTHER,NONE,GPS_POSITION_NONMATCH,True,DisConnected,,P,False,False,False,0,0,,0.0,,0.0,0.0,0.0,0.0,NaN,NaN,NaN,0.0,0.0,0.0,0,0,0,16745,0,0.0,0.0,0,0,0,0,0,1,0,0,0,0.0,0.0,
24979451,5.551,,,-58.11162,-0.0,,,0,NaN,0.0,0.0,0.21418925,-0.19416502,-0.94513625,0.9883621,-0.18189311,0.053296406,-0.53550154,0.5680559,0.0,0.0,0.0,0.0,0.0,-31,338,1227,1273.0,24.24,0.0,NaN,NaN,NaN,0.0,NaN,NaN,0.0,0.0,0.0,-0.0,NaN,NaN,NaN,NaN,NaN,NaN,NaN,NaN,false,false,-0.3405829907216926,-0.10318659044558087,0.005713234010592594,,0.0,,,0.0,0.0,0.0,0.0,0.0,0.0,0.0,0.0,0.0,0.0,-2200,2181,0,0,293,26.7254873,58.3895381,,,,,99.99,99.99,106675.22,0,0,0,,,,20240502,82406,36,0,0,0,0,Manual,0,0,0,0,0,30,50,0.0,0.0,0,5,0,0,0,0,0,0,0,0,0,0.0,0.0,0.0,Hover,,lost,100.0,0,0,0,0,0,0,0,0,0,1,0,-31,338,1227,1273.0,NaN,73,78,1209,1213.0,NaN,121,70,397,-4,52,330,,,,,,,,,,,,,,,,,,,,,,,,,,,,,,,,,,,,,,,,0.0,,,,,,,,,,,,,,,,,,,,,,,,,,,,,,,,,,0.0,0.0,0.0,0.0,0.0,180.0,0.0,0.0,0.0,0,,Manual,OTHER,NONE,GPS_POSITION_NONMATCH,True,DisConnected,,P,False,False,False,0,0,,0.0,,0.0,0.0,0.0,0.0,NaN,NaN,NaN,0.0,0.0,0.0,0,0,0,16810,0,15.785525,0.0,17035,-786,0,98,24,1,4261,0,0,0.0,0.0,
25130198,5.584,,,-57.902786,-0.0,,,0,NaN,0.0,0.0,0.21816967,-0.19178534,-0.9463878,0.9899644,-0.042338796,-0.17109542,-0.3277593,0.37214562,0.0,0.0,0.0,0.0,0.0,-31,332,1227,1271.0,24.27,0.0,NaN,NaN,NaN,0.0,NaN,NaN,0.0,0.0,0.0,-0.0,NaN,NaN,NaN,NaN,NaN,NaN,NaN,NaN,false,false,-0.3587214056546202,-0.1108573578052563,0.00273307200705758,,0.0,,,0.0,0.0,0.0,0.0,0.0,0.0,0.0,0.0,0.0,0.0,-2200,2181,0,0,307,26.7254873,58.3895381,,,,,99.99,99.99,106675.22,0,0,0,,,,20240502,82406,37,0,0,0,0,Manual,0,0,0,0,0,30,50,0.0,0.0,0,5,0,0,0,0,0,0,0,0,0,0.0,0.0,0.0,Hover,,lost,100.0,0,0,0,0,0,0,0,0,0,1,0,-31,332,1227,1271.0,NaN,70,84,1209,1213.0,NaN,122,70,396,-4,52,330,,,,,,,,,,,,,,,,,,,,,,,,,,,,,,,,,,,,,,,,0.0,,,,,,,,,,,,,,,,,,,,,,,,,,,,,,,,,,0.0,0.0,0.0,0.0,0.0,180.0,0.0,0.0,0.0,0,,Manual,OTHER,NONE,GPS_POSITION_NONMATCH,True,DisConnected,,P,False,False,False,0,0,,0.0,,0.0,0.0,0.0,0.0,NaN,NaN,NaN,0.0,0.0,0.0,0,0,0,16837,0,15.785525,12760.0,17035,-786,0,98,24,1,4261,0,0,0.0,0.0,
25280897,5.618,,,-57.945705,-0.0,,,0,NaN,0.0,0.0,0.21627343,-0.19401391,-0.94484305,0.98850596,-0.24877931,-0.13369909,-0.47950596,0.55650026,0.0,0.0,0.0,0.0,0.0,-25,338,1227,1272.0,24.28,0.0,NaN,NaN,NaN,0.0,NaN,NaN,0.0,0.0,0.0,-0.0,NaN,NaN,NaN,NaN,NaN,NaN,NaN,NaN,false,false,-0.3708339916979,-0.11774428290111905,-0.004550160949036985,,0.0,,,0.0,0.0,0.0,0.0,0.0,0.0,0.0,0.0,0.0,0.0,-2200,2181,0,0,321,26.7254873,58.3895381,,,,,99.99,99.99,106675.22,0,0,0,,,,20240502,82406,39,0,0,0,0,Manual,0,0,0,0,0,30,50,0.0,0.0,0,5,0,0,0,0,0,0,0,0,0,0.0,0.0,0.0,Hover,,lost,100.0,0,0,0,0,0,0,0,0,0,1,0,-25,338,1227,1272.0,NaN,66,81,1215,1219.0,NaN,123,71,396,-6,53,333,,,,,,,,,,,,,,,,,,,,,,,,,,,,,,,,,,,,,,,,0.0,,,,,,,,,,,,,,,,,,,,,,,,,,,,,,,,,,0.0,0.0,0.0,0.0,0.0,180.0,0.0,0.0,0.0,0,,Manual,OTHER,NONE,GPS_POSITION_NONMATCH,True,DisConnected,,P,False,False,False,0,0,,0.0,,0.0,0.0,0.0,0.0,NaN,NaN,NaN,0.0,0.0,0.0,0,0,0,16882,0,15.785525,12760.0,17035,-786,0,98,24,1,4261,0,0,0.0,0.0,
25433642,5.652,,,-57.914307,-0.0,,,0,NaN,0.0,0.0,0.2134296,-0.19320913,-0.944708,0.9876007,-0.24833389,-0.060603723,-0.40655312,0.4802374,0.0,0.0,0.0,0.0,0.0,-28,338,1227,1273.0,24.31,0.0,NaN,NaN,NaN,0.0,NaN,NaN,0.0,0.0,0.0,-0.0,NaN,NaN,NaN,NaN,NaN,NaN,NaN,NaN,false,false,-0.38465932467211417,-0.12470079953883006,-0.007459029797512506,,0.0,,,0.0,0.0,0.0,0.0,0.0,0.0,0.0,0.0,0.0,0.0,-2200,2182,0,0,333,26.7254873,58.3895381,,,,,99.99,99.99,106675.22,0,0,0,,,,20240502,82406,41,0,0,0,0,Manual,0,0,0,0,0,30,50,0.0,0.0,0,5,0,0,0,0,0,0,0,0,0,0.0,0.0,0.0,Hover,,lost,100.0,0,0,0,0,0,0,0,0,0,1,0,-28,338,1227,1273.0,NaN,70,78,1209,1213.0,NaN,124,72,396,-5,52,332,,,,,,,,,,,,,,,,,,,,,,,,,,,,,,,,,,,,,,,,0.0,,,,,,,,,,,,,,,,,,,,,,,,,,,,,,,,,,0.0,0.0,0.0,0.0,0.0,180.0,0.0,0.0,0.0,0,,Manual,OTHER,NONE,GPS_POSITION_NONMATCH,True,DisConnected,,P,False,False,False,0,0,,0.0,,0.0,0.0,0.0,0.0,NaN,NaN,NaN,0.0,0.0,0.0,0,0,0,16917,0,15.785525,12760.0,17035,-786,0,98,24,1,4261,0,0,0.0,0.0,
25584648,5.685,,,-58.49737,-0.0,,,0,NaN,0.0,0.0,0.21647306,-0.19473001,-0.9458619,0.98966414,-0.19287784,-0.069619454,-0.48055652,0.52247804,0.0,0.0,0.0,0.0,0.0,-28,332,1224,1268.0,24.31,0.0,NaN,NaN,NaN,0.0,NaN,NaN,0.0,0.0,0.0,-0.0,NaN,NaN,NaN,NaN,NaN,NaN,NaN,NaN,false,false,-0.40191939453848136,-0.13202003007297725,-0.00917380274479801,,0.0,,,0.0,0.0,0.0,0.0,0.0,0.0,0.0,0.0,0.0,0.0,-2200,2182,0,0,347,26.7254873,58.3895381,,,,,99.99,99.99,106675.26,0,0,0,,,,20240502,82407,42,0,0,0,0,Manual,0,0,0,0,0,30,50,0.0,0.0,0,5,0,0,0,0,0,0,0,0,0,0.0,0.0,0.0,Hover,,lost,100.0,0,0,0,0,0,0,0,0,0,1,0,-28,332,1224,1268.0,NaN,73,75,1209,1213.0,NaN,122,69,396,-4,51,330,,,,,,,,,,,,,,,,,,,,,,,,,,,,,,,,,,,,,,,,0.0,,,,,,,,,,,,,,,,,,,,,,,,,,,,,,,,,,0.0,0.0,0.0,0.0,0.0,180.0,0.0,0.0,0.0,0,,Manual,OTHER,NONE,GPS_POSITION_NONMATCH,True,DisConnected,,P,False,False,False,0,0,,0.0,,0.0,0.0,0.0,0.0,NaN,NaN,NaN,0.0,0.0,0.0,0,0,0,16931,0,15.785525,12760.0,17035,-786,0,98,24,1,4261,0,0,0.0,0.0,
25735441,5.719,,,-57.41867,-0.0,,,0,NaN,0.0,0.0,0.21796174,-0.19392416,-0.9457979,0.9897715,-0.16060808,-0.15735933,-0.34229636,0.40954086,0.0,0.0,0.0,0.0,0.0,-25,338,1224,1270.0,24.3,0.0,NaN,NaN,NaN,0.0,NaN,NaN,0.0,0.0,0.0,-0.0,NaN,NaN,NaN,NaN,NaN,NaN,NaN,NaN,false,false,-0.41629699376055385,-0.1394206773000426,-0.016701183302580247,,0.0,,,0.0,0.0,0.0,0.0,0.0,0.0,0.0,0.0,0.0,0.0,-2200,2182,0,0,361,26.7254873,58.3895381,,,,,99.99,99.99,106675.26,0,0,0,,,,20240502,82407,44,0,0,0,0,Manual,0,0,0,0,0,30,50,0.0,0.0,0,5,0,0,0,0,0,0,0,0,0,0.0,0.0,0.0,Hover,,lost,100.0,0,0,0,0,0,0,0,0,0,1,0,-25,338,1224,1270.0,NaN,73,72,1203,1207.0,NaN,123,71,396,-3,49,329,,,,,,,,,,,,,,,,,,,,,,,,,,,,,,,,,,,,,,,,0.0,,,,,,,,,,,,,,,,,,,,,,,,,,,,,,,,,,0.0,0.0,0.0,0.0,0.0,180.0,0.0,0.0,0.0,0,,Manual,OTHER,NONE,GPS_POSITION_NONMATCH,True,DisConnected,,P,False,False,False,0,0,,0.0,,0.0,0.0,0.0,0.0,NaN,NaN,NaN,0.0,0.0,0.0,0,0,0,16956,0,15.785525,12760.0,17035,-786,0,98,24,1,4261,0,0,0.0,0.0,
25887854,5.753,,,-58.2095,-0.0,,,0,NaN,0.0,0.0,0.21372284,-0.1926512,-0.94705045,0.9897962,-0.17474641,-0.03640671,-0.5093415,0.5397133,0.0,0.0,0.0,0.0,0.0,-31,332,1230,1274.0,24.31,0.0,NaN,NaN,NaN,0.0,NaN,NaN,0.0,0.0,0.0,-0.0,NaN,NaN,NaN,NaN,NaN,NaN,NaN,NaN,false,false,-0.43488908866162745,-0.14707424997093588,-0.019486981860502517,,0.0,,,0.0,0.0,0.0,0.0,0.0,0.0,0.0,0.0,0.0,0.0,-2200,2184,0,0,375,26.7254873,58.3895381,,,,,99.99,99.99,106675.26,0,0,0,,,,20240502,82407,46,0,0,0,0,Manual,0,0,0,0,0,30,50,0.0,0.0,0,5,0,0,0,0,0,0,0,0,0,0.0,0.0,0.0,Hover,,lost,100.0,0,0,0,0,0,0,0,0,0,1,0,-31,332,1230,1274.0,NaN,70,75,1203,1207.0,NaN,123,71,396,-4,50,328,,,,,,,,,,,,,,,,,,,,,,,,,,,,,,,,,,,,,,,,0.0,,,,,,,,,,,,,,,,,,,,,,,,,,,,,,,,,,0.0,0.0,0.0,0.0,0.0,180.0,0.0,0.0,0.0,0,,Manual,OTHER,NONE,GPS_POSITION_NONMATCH,True,DisConnected,,P,False,False,False,0,0,,0.0,,0.0,0.0,0.0,0.0,NaN,NaN,NaN,0.0,0.0,0.0,0,0,0,16974,0,15.785525,12760.0,17035,-786,0,98,24,1,4261,0,0,0.0,0.0,
26038325,5.786,,,-57.622257,-0.0,,,0,NaN,0.0,0.0,0.21614575,-0.19394869,-0.9460107,0.9895814,-0.30978334,-0.12639639,-0.62603295,0.7098303,0.0,0.0,0.0,0.0,0.0,-31,332,1236,1280.0,24.33,0.0,NaN,NaN,NaN,0.0,NaN,NaN,0.0,0.0,0.0,-0.0,NaN,NaN,NaN,NaN,NaN,NaN,NaN,NaN,false,false,-0.45248093439850123,-0.15330268006290515,-0.021766148810508035,,0.0,,,0.0,0.0,0.0,0.0,0.0,0.0,0.0,0.0,0.0,0.0,-2200,2184,0,0,387,26.7254873,58.3895381,,,,,99.99,99.99,106675.26,0,0,0,,,,20240502,82407,47,0,0,0,0,Manual,0,0,0,0,0,30,50,0.0,0.0,0,5,0,0,0,0,0,0,0,0,0,0.0,0.0,0.0,Hover,,lost,100.0,0,0,0,0,0,0,0,0,0,1,0,-31,332,1236,1280.0,NaN,66,72,1206,1209.0,NaN,121,69,400,-5,50,329,,,,,,,,,,,,,,,,,,,,,,,,,,,,,,,,,,,,,,,,0.0,,,,,,,,,,,,,,,,,,,,,,,,,,,,,,,,,,0.0,0.0,0.0,0.0,0.0,180.0,0.0,0.0,0.0,0,,Manual,OTHER,NONE,GPS_POSITION_NONMATCH,True,DisConnected,,P,False,False,False,0,0,,0.0,,0.0,0.0,0.0,0.0,NaN,NaN,NaN,0.0,0.0,0.0,0,0,0,16982,0,15.785525,12760.0,17035,-786,0,98,24,1,4261,0,0,0.0,0.0,
26189975,5.820,,,-58.024216,-0.0,,,0,NaN,0.0,0.0,0.21822242,-0.19378933,-0.94596297,0.9899602,-0.2754039,-0.29575092,-0.39202625,0.5630279,0.0,0.0,0.0,0.0,0.0,-28,332,1230,1274.0,24.33,0.0,NaN,NaN,NaN,0.0,NaN,NaN,0.0,0.0,0.0,-0.0,NaN,NaN,NaN,NaN,NaN,NaN,NaN,NaN,false,false,-0.46853048292100397,-0.16392808095014777,-0.026893615614795585,,0.0,,,0.0,0.0,0.0,0.0,0.0,0.0,0.0,0.0,0.0,0.0,-2200,2184,0,0,401,26.7254873,58.3895381,,,,,99.99,99.99,106675.26,0,0,0,,,,20240502,82407,49,0,0,0,0,Manual,0,0,0,0,0,30,50,0.0,0.0,0,5,0,0,0,0,0,0,0,0,0,0.0,0.0,0.0,Hover,,lost,100.0,0,0,0,0,0,0,0,0,0,1,0,-28,332,1230,1274.0,NaN,77,78,1212,1216.0,NaN,123,70,397,-3,51,332,,,,,,,,,,,,,,,,,,,,,,,,,,,,,,,,,,,,,,,,0.0,,,,,,,,,,,,,,,,,,,,,,,,,,,,,,,,,,0.0,0.0,0.0,0.0,0.0,180.0,0.0,0.0,0.0,0,     50 [L-GYRO_ACC][mark] sa(0) regi ok. dtype(8) sid(0) g_uid(0) l_did(3) l_uid(0) l_dindex(|     50 [L-GYRO_ACC][mark] fmu_gyr_acc get register ack. succeed. global_user_id(0)|     50 [L-GYRO_ACC][mark] sa(1) regi ok. dtype(8) sid(0) g_uid(1) l_did(4) l_uid(1) l_dindex(|     50 [L-GYRO_ACC][mark] fmu_gyr_acc get register ack. succeed. global_user_id(1)|     50 [L-GYRO_ACC]GYRO(0) fdi event:turn on|     50 [L-GYRO_ACC]ACC(0) fdi event:turn on|     50 [L-GYRO_ACC]GYRO(1) fdi event:turn on|     50 [L-GYRO_ACC]ACC(1) fdi event:turn on,Manual,OTHER,NONE,GPS_POSITION_NONMATCH,True,DisConnected,,P,False,False,False,0,0,,0.0,,0.0,0.0,0.0,0.0,NaN,NaN,NaN,0.0,0.0,0.0,0,0,0,16995,0,15.785525,12760.0,17035,-786,0,98,24,1,4261,0,0,0.0,0.0,
26340662,5.853,,,-57.79602,-0.0,,,0,NaN,0.0,0.0,0.21636373,-0.19080424,-0.9459168,0.9889277,0.040744454,-0.19308744,-0.5131309,0.5497692,0.0,0.0,0.0,0.0,0.0,-28,332,1230,1274.0,24.34,0.0,NaN,NaN,NaN,0.0,NaN,NaN,0.0,0.0,0.0,-0.0,NaN,NaN,NaN,NaN,NaN,NaN,NaN,NaN,false,false,-0.4825175232135237,-0.16964029534701863,-0.03401011303113116,,0.0,,,0.0,0.0,0.0,0.0,0.0,0.0,0.0,0.0,0.0,0.0,-2200,2184,0,0,415,26.7254873,58.3895381,,,,,99.99,99.99,106675.26,0,0,0,,,,20240502,82407,51,0,0,0,0,Manual,0,0,0,0,0,30,50,0.0,0.0,0,5,0,0,0,0,0,0,0,0,0,0.0,0.0,0.0,Hover,,lost,100.0,0,0,0,0,0,0,0,0,0,1,0,-28,332,1230,1274.0,NaN,70,75,1209,1213.0,NaN,123,69,397,-3,52,331,,,,,,,,,,,,,,,,,,,,,,,,,,,,,,,,,,,,,,,,0.0,,,,,,,,,,,,,,,,,,,,,,,,,,,,,,,,,,0.0,0.0,0.0,0.0,0.0,180.0,0.0,0.0,0.0,0,     51 [L-COMPASS]index(0) fdi event:turn on|     51 [L-COMPASS]index(1) fdi event:turn on|     51 [L-FDI][BARO(0)] event:turn on|     51 [L-FDI]NS(0): init fdi turn on,Manual,OTHER,NONE,GPS_POSITION_NONMATCH,True,DisConnected,,P,False,False,False,0,0,,0.0,,0.0,0.0,0.0,0.0,NaN,NaN,NaN,0.0,0.0,0.0,0,0,0,17000,0,15.785525,12760.0,17035,-786,0,98,24,1,4261,0,0,0.0,0.0,
26492080,5.887,,,-58.24352,-0.0,,,0,NaN,0.0,0.0,0.21387881,-0.19440633,-0.9450659,0.98827505,-0.34349287,-0.19661689,-0.5673548,0.6917637,0.0,0.0,0.0,0.0,0.0,-22,335,1236,1280.0,24.36,0.0,NaN,NaN,NaN,0.0,NaN,NaN,0.0,0.0,0.0,-0.0,NaN,NaN,NaN,NaN,NaN,NaN,NaN,NaN,false,false,-0.49989079689894567,-0.1730432177749608,-0.0358388027796947,,0.0,,,0.0,0.0,0.0,0.0,0.0,0.0,0.0,0.0,0.0,0.0,-2200,2184,0,0,429,26.7254873,58.3895381,,,,,99.99,99.99,106675.3,0,0,0,,,,20240502,82407,52,0,0,0,0,Manual,0,0,0,0,0,30,50,0.0,0.0,0,5,0,0,0,0,0,0,0,0,0,0.0,0.0,0.0,Hover,,lost,100.0,0,0,0,0,0,0,0,0,0,1,0,-22,335,1236,1280.0,NaN,70,78,1209,1213.0,NaN,124,70,399,-5,51,330,,,,,,,,,,,,,,,,,,,,,,,,,,,,,,,,,,,,,,,,0.0,,,,,,,,,,,,,,,,,,,,,,,,,,,,,,,,,,0.0,0.0,0.0,0.0,0.0,180.0,0.0,0.0,0.0,0,,Manual,OTHER,NONE,GPS_POSITION_NONMATCH,True,DisConnected,,P,False,False,False,0,0,,0.0,,0.0,0.0,0.0,0.0,NaN,NaN,NaN,0.0,0.0,0.0,0,0,0,17009,0,15.785525,12760.0,17035,-786,0,98,24,1,4261,0,0,0.0,0.0,
26642149,5.920,,,-57.39041,-0.0,,,0,NaN,0.0,0.0,0.21839981,-0.19613628,-0.94547564,0.989996,-0.4122935,-0.089227095,-0.4008342,0.58190674,0.0,0.0,0.0,0.0,0.0,-28,332,1233,1277.0,24.34,0.0,NaN,NaN,NaN,0.0,NaN,NaN,0.0,0.0,0.0,-0.0,NaN,NaN,NaN,NaN,NaN,NaN,NaN,NaN,false,false,-0.5148752033046193,-0.1839609151550976,-0.038054970930013254,,0.0,,,0.0,0.0,0.0,0.0,0.0,0.0,0.0,0.0,0.0,0.0,-2200,2184,0,0,441,26.7254873,58.3895381,,,,,99.99,99.99,106675.3,0,0,0,,,,20240502,82407,54,0,0,0,0,Manual,0,0,0,0,0,30,50,0.0,0.0,0,5,0,0,0,0,0,0,0,0,0,0.0,0.0,0.0,Hover,,lost,100.0,0,0,0,0,0,0,0,0,0,1,0,-28,332,1233,1277.0,NaN,70,78,1209,1213.0,NaN,122,69,398,-4,52,331,,,,,,,,,,,,,,,,,,,,,,,,,,,,,,,,,,,,,,,,0.0,,,,,,,,,,,,,,,,,,,,,,,,,,,,,,,,,,0.0,0.0,0.0,0.0,0.0,180.0,0.0,0.0,0.0,0,,Manual,OTHER,NONE,GPS_POSITION_NONMATCH,False,DisConnected,,P,False,False,False,0,0,,0.0,,0.0,0.0,0.0,0.0,NaN,NaN,NaN,0.0,0.0,0.0,0,0,0,17016,0,15.785525,12760.0,17035,-786,0,98,24,1,4261,0,0,0.0,0.0,
26792233,5.954,,,-58.40368,-0.0,,,0,NaN,0.0,0.0,0.21559922,-0.19202359,-0.94648397,0.98953927,-0.1235445,-0.09737603,-0.4476063,0.4744436,0.0,0.0,0.0,0.0,0.0,-22,329,1230,1273.0,24.35,0.0,NaN,NaN,NaN,0.0,NaN,NaN,0.0,0.0,0.0,-0.0,NaN,NaN,NaN,NaN,NaN,NaN,NaN,NaN,false,false,-0.530568390714464,-0.19526216501123295,-0.04272102511105896,,0.0,,,0.0,0.0,0.0,0.0,0.0,0.0,0.0,0.0,0.0,0.0,-2200,2186,0,0,455,26.7254873,58.3895381,,,,,99.99,99.99,106675.3,0,0,0,,,,20240502,82407,56,0,0,0,0,Manual,0,0,0,0,0,30,50,0.0,0.0,0,5,0,0,0,0,0,0,0,0,0,0.0,0.0,0.0,Hover,,lost,100.0,0,0,0,0,0,0,0,0,0,1,0,-22,329,1230,1273.0,NaN,73,75,1212,1216.0,NaN,124,69,398,-4,51,331,,,,,,,,,,,,,,,,,,,,,,,,,,,,,,,,,,,,,,,,0.0,,,,,,,,,,,,,,,,,,,,,,,,,,,,,,,,,,0.0,0.0,0.0,0.0,0.0,180.0,0.0,0.0,0.0,0,,Manual,OTHER,NONE,GPS_POSITION_NONMATCH,False,DisConnected,,P,False,False,False,0,0,,0.0,,0.0,0.0,0.0,0.0,NaN,NaN,NaN,0.0,0.0,0.0,0,0,0,17021,0,15.785525,12760.0,17035,-786,0,98,24,1,4261,0,0,0.0,0.0,
26942261,5.987,,,-58.09487,-0.0,,,0,NaN,0.0,0.0,0.21537568,-0.19223616,-0.9467513,0.9897876,-0.17306292,-0.0035732428,-0.5360247,0.5632815,0.0,0.0,0.0,0.0,0.0,-28,335,1236,1280.0,24.35,0.0,NaN,NaN,NaN,0.0,NaN,NaN,0.0,0.0,0.0,-0.0,NaN,NaN,NaN,NaN,NaN,NaN,NaN,NaN,false,false,-0.5485928868764844,-0.19893540796630726,-0.04571282144339544,,0.0,,,0.0,0.0,0.0,0.0,0.0,0.0,0.0,0.0,0.0,0.0,-2200,2186,0,0,469,26.7254873,58.3895381,,,,,99.99,99.99,106675.3,0,0,0,,,,20240502,82407,57,0,0,0,0,Manual,0,0,0,0,0,30,50,0.0,0.0,0,5,0,0,0,0,0,0,0,0,0,0.0,0.0,0.0,Hover,,lost,100.0,0,0,0,0,0,0,0,0,0,1,0,-28,335,1236,1280.0,NaN,73,78,1206,1210.0,NaN,123,70,399,-3,51,331,,,,,,,,,,,,,,,,,,,,,,,,,,,,,,,,,,,,,,,,0.0,,,,,,,,,,,,,,,,,,,,,,,,,,,,,,,,,,0.0,0.0,0.0,0.0,0.0,180.0,0.0,0.0,0.0,0,,Manual,OTHER,NONE,GPS_POSITION_NONMATCH,False,DisConnected,,P,False,False,False,0,0,,0.0,,0.0,0.0,0.0,0.0,NaN,NaN,NaN,0.0,0.0,0.0,0,0,0,17023,0,15.785525,12760.0,17035,-786,0,98,24,1,4261,0,0,0.0,0.0,
27092315,6.021,,,-57.917442,-0.0,,,0,NaN,0.0,0.0,0.21740611,-0.19505435,-0.94527715,0.9893738,-0.2705029,-0.10335824,-0.5177638,0.5932403,0.0,0.0,0.0,0.0,0.0,-25,332,1230,1274.0,24.36,0.0,NaN,NaN,NaN,0.0,NaN,NaN,0.0,0.0,0.0,-0.0,NaN,NaN,NaN,NaN,NaN,NaN,NaN,NaN,false,false,-0.5619008128143719,-0.20322455408646145,-0.04818285173228153,,0.0,,,0.0,0.0,0.0,0.0,0.0,0.0,0.0,0.0,0.0,0.0,-2200,2186,0,0,481,26.7254873,58.3895381,,,,,99.99,99.99,106675.3,0,0,0,,,,20240502,82407,59,0,0,0,0,Manual,0,0,0,0,0,30,50,0.0,0.0,0,5,0,0,0,0,0,0,0,0,0,0.0,0.0,0.0,Hover,,lost,100.0,0,0,0,0,0,0,0,0,0,1,0,-25,332,1230,1274.0,NaN,66,84,1206,1210.0,NaN,124,70,398,-5,54,329,,,,,,,,,,,,,,,,,,,,,,,,,,,,,,,,,,,,,,,,0.0,,,,,,,,,,,,,,,,,,,,,,,,,,,,,,,,,,0.0,0.0,0.0,0.0,0.0,180.0,0.0,0.0,0.0,0,,Manual,OTHER,NONE,GPS_POSITION_NONMATCH,False,DisConnected,,P,False,False,False,0,0,,0.0,,0.0,0.0,0.0,0.0,NaN,NaN,NaN,0.0,0.0,0.0,0,0,0,17026,0,15.785525,12760.0,17035,-786,0,98,24,1,4261,0,0,0.0,0.0,
27242418,6.054,,,-57.7306,-0.0,,,0,NaN,0.0,0.0,0.21507816,-0.19354229,-0.9453506,0.9886379,-0.29956317,-0.22094747,-0.4649443,0.59559137,0.0,0.0,0.0,0.0,0.0,-25,329,1221,1264.0,24.38,0.0,NaN,NaN,NaN,0.0,NaN,NaN,0.0,0.0,0.0,-0.0,NaN,NaN,NaN,NaN,NaN,NaN,NaN,NaN,false,false,-0.5765299354612239,-0.21289255681715313,-0.053833157739411545,,0.0,,,0.0,0.0,0.0,0.0,0.0,0.0,0.0,0.0,0.0,0.0,-2200,2186,0,0,495,26.7254873,58.3895381,,,,,99.99,99.99,106675.3,0,0,0,,,,20240502,82407,61,0,0,0,0,Manual,0,0,0,0,0,30,50,0.0,0.0,0,5,0,0,0,0,0,0,0,0,0,0.0,0.0,0.0,Hover,,lost,100.0,0,0,0,0,0,0,0,0,0,1,0,-28,329,1233,1276.0,NaN,70,81,1212,1216.0,NaN,123,69,396,-4,52,332,,,,,,,,,,,,,,,,,,,,,,,,,,,,,,,,,,,,,,,,0.0,,,,,,,,,,,,,,,,,,,,,,,,,,,,,,,,,,0.0,0.0,0.0,0.0,0.0,180.0,0.0,0.0,0.0,0,,Manual,OTHER,NONE,GPS_POSITION_NONMATCH,False,DisConnected,,P,False,False,False,0,0,,0.0,,0.0,0.0,0.0,0.0,NaN,NaN,NaN,0.0,0.0,0.0,0,0,0,17027,0,15.785525,12760.0,17035,-786,0,98,24,1,4261,0,0,0.0,0.0,
27393685,6.087,,,-58.341396,-0.0,,,0,NaN,0.0,0.0,0.21588917,-0.19118528,-0.9447857,0.98781574,-0.11343107,-0.12177017,-0.5240495,0.5498386,0.0,0.0,0.0,0.0,0.0,-28,329,1233,1276.0,24.43,0.0,NaN,NaN,NaN,0.0,NaN,NaN,0.0,0.0,0.0,-0.0,NaN,NaN,NaN,NaN,NaN,NaN,NaN,NaN,false,false,-0.5937958223735578,-0.2215630029561566,-0.05663386328932684,,0.0,,,0.0,0.0,0.0,0.0,0.0,0.0,0.0,0.0,0.0,0.0,-2200,2186,0,0,509,26.7254873,58.3895381,,,,,99.99,99.99,106675.36,0,0,0,,,,20240502,82407,62,0,0,0,0,Manual,0,0,0,0,0,30,50,0.0,0.0,0,5,0,0,0,0,0,0,0,0,0,0.0,0.0,0.0,Hover,,lost,100.0,0,0,0,0,0,0,0,0,0,1,0,-28,329,1233,1276.0,NaN,73,75,1215,1219.0,NaN,122,68,398,-4,52,332,,,,,,,,,,,,,,,,,,,,,,,,,,,,,,,,,,,,,,,,0.0,,,,,,,,,,,,,,,,,,,,,,,,,,,,,,,,,,0.0,0.0,0.0,0.0,0.0,180.0,0.0,0.0,0.0,0,,Manual,OTHER,NONE,GPS_POSITION_NONMATCH,False,DisConnected,,P,False,False,False,0,0,,0.0,,0.0,0.0,0.0,0.0,NaN,NaN,NaN,0.0,0.0,0.0,0,0,0,17028,0,15.785525,12760.0,17035,-786,0,98,24,1,4261,0,0,0.0,0.0,
27544396,6.121,,,-57.55841,-0.0,,,0,NaN,0.0,0.0,0.21712938,-0.19253871,-0.945579,0.9891087,-0.22779247,-0.15174066,-0.5726757,0.63472205,0.0,0.0,0.0,0.0,0.0,-28,329,1233,1276.0,24.43,0.0,NaN,NaN,NaN,0.0,NaN,NaN,0.0,0.0,0.0,-0.0,NaN,NaN,NaN,NaN,NaN,NaN,NaN,NaN,false,false,-0.6080599672477334,-0.22760214578765026,-0.059822322680726174,,0.0,,,0.0,0.0,0.0,0.0,0.0,0.0,0.0,0.0,0.0,0.0,-2200,2186,0,0,521,26.7254873,58.3895381,,,,,99.99,99.99,106675.36,0,0,0,,,,20240502,82407,64,0,0,0,0,Manual,0,0,0,0,0,30,50,0.0,0.0,0,5,0,0,0,0,0,0,0,0,0,0.0,0.0,0.0,Hover,,lost,100.0,0,0,0,0,0,0,0,0,0,1,0,-28,329,1233,1276.0,NaN,66,75,1209,1213.0,NaN,123,69,398,-5,50,331,,,,,,,,,,,,,,,,,,,,,,,,,,,,,,,,,,,,,,,,0.0,,,,,,,,,,,,,,,,,,,,,,,,,,,,,,,,,,0.0,0.0,0.0,0.0,0.0,180.0,0.0,0.0,0.0,0,,Manual,OTHER,NONE,GPS_POSITION_NONMATCH,False,DisConnected,,P,False,False,False,0,0,,0.0,,0.0,0.0,0.0,0.0,NaN,NaN,NaN,0.0,0.0,0.0,0,0,0,17029,0,15.785525,12760.0,17035,-786,0,98,24,1,4261,0,0,0.0,0.0,
27695208,6.154,,,-58.178616,-0.0,,,0,NaN,0.0,0.0,0.21637465,-0.19450748,-0.9453496,0.98910916,-0.29321718,-0.11624302,-0.46945497,0.56557643,0.0,0.0,0.0,0.0,0.0,-35,327,1224,1267.0,24.44,0.0,NaN,NaN,NaN,0.0,NaN,NaN,0.0,0.0,0.0,-0.0,NaN,NaN,NaN,NaN,NaN,NaN,NaN,NaN,false,false,-0.6226549092486167,-0.2332461458540951,-0.06702555712959235,,0.0,,,0.0,0.0,0.0,0.0,0.0,0.0,0.0,0.0,0.0,0.0,-2200,2187,0,0,535,26.7254873,58.3895381,,,,,99.99,99.99,106675.36,0,0,0,,,,20240502,82407,66,0,0,0,0,Manual,0,0,0,0,0,30,50,0.0,0.0,0,5,0,0,0,0,0,0,0,0,0,0.0,0.0,0.0,Hover,,lost,100.0,0,0,0,0,0,0,0,0,0,1,0,-28,335,1236,1280.0,NaN,77,72,1209,1213.0,NaN,121,69,397,-4,50,330,,,,,,,,,,,,,,,,,,,,,,,,,,,,,,,,,,,,,,,,0.0,,,,,,,,,,,,,,,,,,,,,,,,,,,,,,,,,,0.0,0.0,0.0,0.0,0.0,180.0,0.0,0.0,0.0,0,,Manual,OTHER,NONE,GPS_POSITION_NONMATCH,False,DisConnected,,P,False,False,False,0,0,,0.0,,0.0,0.0,0.0,0.0,NaN,NaN,NaN,0.0,0.0,0.0,0,0,0,17029,0,15.785525,12760.0,17035,-786,0,98,24,1,4261,0,0,0.0,0.0,
27846623,6.188,,,-57.60656,-0.0,,,0,NaN,0.0,0.0,0.21539308,-0.1947587,-0.94518536,0.9887874,-0.2130285,-0.0048485138,-0.5418882,0.5822778,0.0,0.0,0.0,0.0,0.0,-28,335,1236,1280.0,24.43,0.0,NaN,NaN,NaN,0.0,NaN,NaN,0.0,0.0,0.0,-0.0,NaN,NaN,NaN,NaN,NaN,NaN,NaN,NaN,false,false,-0.6393071926605742,-0.242621915899927,-0.07037599974076303,,0.0,,,0.0,0.0,0.0,0.0,0.0,0.0,0.0,0.0,0.0,0.0,-2200,2187,0,0,549,26.7254873,58.3895381,,,,,99.99,99.99,106675.36,0,0,0,,,,20240502,82407,67,0,0,0,0,Manual,0,0,0,0,0,30,50,0.0,0.0,0,5,0,0,0,0,0,0,0,0,0,0.0,0.0,0.0,Hover,,lost,100.0,0,0,0,0,0,0,0,0,0,1,0,-28,335,1236,1280.0,NaN,77,72,1209,1213.0,NaN,122,70,399,-2,49,330,,,,,,,,,,,,,,,,,,,,,,,,,,,,,,,,,,,,,,,,0.0,,,,,,,,,,,,,,,,,,,,,,,,,,,,,,,,,,0.0,0.0,0.0,0.0,0.0,180.0,0.0,0.0,0.0,0,,Manual,OTHER,NONE,GPS_POSITION_NONMATCH,False,DisConnected,,P,False,False,False,0,0,,0.0,,0.0,0.0,0.0,0.0,NaN,NaN,NaN,0.0,0.0,0.0,0,0,0,17029,0,15.785525,12760.0,17035,-786,0,98,24,1,4261,0,0,0.0,0.0,
27999576,6.222,,,-57.983913,-0.0,,,0,NaN,0.0,0.0,0.21577726,-0.19228876,-0.9468982,0.99002576,-0.18641166,-0.0068308697,-0.46695313,0.5028331,0.0,0.0,0.0,0.0,0.0,-22,329,1233,1276.0,24.43,0.0,NaN,NaN,NaN,0.0,NaN,NaN,0.0,0.0,0.0,-0.0,NaN,NaN,NaN,NaN,NaN,NaN,NaN,NaN,false,false,-0.6582470784010681,-0.25224246074668133,-0.07128858060397059,,0.0,,,0.0,0.0,0.0,0.0,0.0,0.0,0.0,0.0,0.0,0.0,-2200,2187,0,0,563,26.7254873,58.3895381,,,,,99.99,99.99,106675.36,0,0,0,,,,20240502,82407,69,0,0,0,0,Manual,0,0,0,0,0,30,50,0.0,0.0,0,5,0,0,0,0,0,0,0,0,0,0.0,0.0,0.0,Hover,,lost,100.0,0,0,0,0,0,0,0,0,0,1,0,-22,329,1233,1276.0,NaN,66,78,1206,1210.0,NaN,124,68,399,-6,52,330,,,,,,,,,,,,,,,,,,,,,,,,,,,,,,,,,,,,,,,,0.0,,,,,,,,,,,,,,,,,,,,,,,,,,,,,,,,,,0.0,0.0,0.0,0.0,0.0,180.0,0.0,0.0,0.0,0,,Manual,OTHER,NONE,GPS_POSITION_NONMATCH,False,DisConnected,,P,False,False,False,0,0,,0.0,,0.0,0.0,0.0,0.0,NaN,NaN,NaN,0.0,0.0,0.0,0,0,0,17028,0,15.785525,12760.0,17035,-786,0,98,24,1,4261,0,0,0.0,0.0,
28149644,6.255,,,-58.280155,-0.0,,,0,NaN,0.0,0.0,0.21723099,-0.1928736,-0.9462214,0.98981035,-0.18270038,-0.13655363,-0.4332447,0.48961952,0.0,0.0,0.0,0.0,0.0,-25,329,1230,1273.0,24.47,0.0,NaN,NaN,NaN,0.0,NaN,NaN,0.0,0.0,0.0,-0.0,NaN,NaN,NaN,NaN,NaN,NaN,NaN,NaN,false,false,-0.6727473922012521,-0.2559554567235771,-0.07490755252354464,,0.0,,,0.0,0.0,0.0,0.0,0.0,0.0,0.0,0.0,0.0,0.0,-2200,2188,0,0,575,26.7254873,58.3895381,,,,,99.99,99.99,106675.36,0,0,0,,,,20240502,82407,71,0,0,0,0,Manual,0,0,0,0,0,30,50,0.0,0.0,0,5,0,0,0,0,0,0,0,0,0,0.0,0.0,0.0,Hover,,lost,100.0,0,0,0,0,0,0,0,0,0,1,0,-25,329,1230,1273.0,NaN,70,78,1209,1213.0,NaN,124,69,398,-4,53,331,,,,,,,,,,,,,,,,,,,,,,,,,,,,,,,,,,,,,,,,0.0,,,,,,,,,,,,,,,,,,,,,,,,,,,,,,,,,,0.0,0.0,0.0,0.0,0.0,180.0,0.0,0.0,0.0,0,,Manual,OTHER,NONE,GPS_POSITION_NONMATCH,False,DisConnected,,P,False,False,False,0,0,,0.0,,0.0,0.0,0.0,0.0,NaN,NaN,NaN,0.0,0.0,0.0,0,0,0,17028,0,15.785525,12760.0,17035,-786,0,98,24,1,4261,0,0,0.0,0.0,
28302720,6.289,,,-58.173904,-0.0,,,0,NaN,0.0,0.0,0.2156112,-0.19394013,-0.94526577,0.9887509,-0.20259458,-0.07180778,-0.53761536,0.57899153,0.0,0.0,0.0,0.0,0.0,-25,335,1233,1277.0,24.44,0.0,NaN,NaN,NaN,0.0,NaN,NaN,0.0,0.0,0.0,-0.0,NaN,NaN,NaN,NaN,NaN,NaN,NaN,NaN,false,false,-0.6862777288207127,-0.26305925605010994,-0.0801988459104076,,0.0,,,0.0,0.0,0.0,0.0,0.0,0.0,0.0,0.0,0.0,0.0,-2200,2188,0,0,589,26.7254873,58.3895381,,,,,99.99,99.99,106675.42,0,0,0,,,,20240502,82407,72,0,0,0,0,Manual,0,0,0,0,0,30,50,0.0,0.0,0,5,0,0,0,0,0,0,0,0,0,0.0,0.0,0.0,Hover,,lost,100.0,0,0,0,0,0,0,0,0,0,1,0,-25,335,1233,1277.0,NaN,70,78,1209,1213.0,NaN,123,69,398,-4,52,331,,,,,,,,,,,,,,,,,,,,,,,,,,,,,,,,,,,,,,,,0.0,,,,,,,,,,,,,,,,,,,,,,,,,,,,,,,,,,0.0,0.0,0.0,0.0,0.0,180.0,0.0,0.0,0.0,0,,Manual,OTHER,NONE,GPS_POSITION_NONMATCH,False,DisConnected,,P,False,False,False,0,0,,0.0,,0.0,0.0,0.0,0.0,NaN,NaN,NaN,0.0,0.0,0.0,0,0,0,17028,0,15.785525,12760.0,17035,-786,0,98,24,1,4261,0,0,0.0,0.0,
28454870,6.323,,,-57.695534,-0.0,,,0,NaN,0.0,0.0,0.21498448,-0.19369468,-0.9465203,0.98976594,-0.33341366,-0.021182377,-0.5759374,0.6658207,0.0,0.0,0.0,0.0,0.0,-22,329,1233,1276.0,24.45,0.0,NaN,NaN,NaN,0.0,NaN,NaN,0.0,0.0,0.0,-0.0,NaN,NaN,NaN,NaN,NaN,NaN,NaN,NaN,false,false,-0.7048266236172154,-0.2722421741915191,-0.08381281471072011,,0.0,,,0.0,0.0,0.0,0.0,0.0,0.0,0.0,0.0,0.0,0.0,-2200,2188,0,0,603,26.7254873,58.3895381,,,,,99.99,99.99,106675.42,0,0,0,,,,20240502,82407,74,0,0,0,0,Manual,0,0,0,0,0,30,50,0.0,0.0,0,5,0,0,0,0,0,0,0,0,0,0.0,0.0,0.0,Hover,,lost,100.0,0,0,0,0,0,0,0,0,0,1,0,-22,329,1233,1276.0,NaN,70,75,1200,1204.0,NaN,125,69,399,-5,50,328,,,,,,,,,,,,,,,,,,,,,,,,,,,,,,,,,,,,,,,,0.0,,,,,,,,,,,,,,,,,,,,,,,,,,,,,,,,,,0.0,0.0,0.0,0.0,0.0,180.0,0.0,0.0,0.0,0,,Manual,OTHER,NONE,GPS_POSITION_NONMATCH,False,DisConnected,,P,False,False,False,0,0,,0.0,,0.0,0.0,0.0,0.0,NaN,NaN,NaN,0.0,0.0,0.0,0,0,0,17028,0,15.785525,12760.0,17035,-786,0,98,24,1,4261,0,0,0.0,0.0,
28607077,6.357,,,-57.96193,-0.0,,,0,NaN,0.0,0.0,0.21751225,-0.1934984,-0.9463933,0.9901583,-0.13006553,-0.11795662,-0.4727193,0.5042761,0.0,0.0,0.0,0.0,0.0,-25,332,1233,1277.0,24.45,0.0,NaN,NaN,NaN,0.0,NaN,NaN,0.0,0.0,0.0,-0.0,NaN,NaN,NaN,NaN,NaN,NaN,NaN,NaN,false,false,-0.7234693167333788,-0.2793307569097834,-0.0863035320025638,,0.0,,,0.0,0.0,0.0,0.0,0.0,0.0,0.0,0.0,0.0,0.0,-2200,2189,0,0,617,26.7254873,58.3895381,,,,,99.99,99.99,106675.42,0,0,0,,,,20240502,82407,76,0,0,0,0,Manual,0,0,0,0,0,30,50,0.0,0.0,0,5,0,0,0,0,0,0,0,0,0,0.0,0.0,0.0,Hover,,lost,100.0,0,0,0,0,0,0,0,0,0,1,0,-25,332,1233,1277.0,NaN,66,78,1203,1207.0,NaN,124,69,398,-6,51,330,,,,,,,,,,,,,,,,,,,,,,,,,,,,,,,,,,,,,,,,0.0,,,,,,,,,,,,,,,,,,,,,,,,,,,,,,,,,,0.0,0.0,0.0,0.0,0.0,180.0,0.0,0.0,0.0,0,     75 [L-BATTERY]Battery barcode:082AD4D0310ZQX||,Manual,OTHER,NONE,GPS_POSITION_NONMATCH,False,DisConnected,,P,False,False,False,0,0,,0.0,,0.0,0.0,0.0,0.0,NaN,NaN,NaN,0.0,0.0,0.0,0,0,0,17028,0,15.785525,12760.0,17035,-786,0,98,24,1,4261,0,0,0.0,0.0,
28757336,6.391,,,-57.713852,-0.0,,,0,NaN,0.0,0.0,0.21617924,-0.1929087,-0.9467942,0.9901346,-0.17619665,-0.14899784,-0.33389217,0.40586895,0.0,0.0,0.0,0.0,0.0,-22,335,1236,1280.0,24.46,0.0,NaN,NaN,NaN,0.0,NaN,NaN,0.0,0.0,0.0,-0.0,NaN,NaN,NaN,NaN,NaN,NaN,NaN,NaN,false,false,-0.7354711557518954,-0.28482435954010366,-0.09270406376188411,,0.0,,,0.0,0.0,0.0,0.0,0.0,0.0,0.0,0.0,0.0,0.0,-2200,2189,0,0,629,26.7254873,58.3895381,,,,,99.99,99.99,106675.42,0,0,0,,,,20240502,82407,78,0,0,0,0,Manual,0,0,0,0,0,30,50,0.0,0.0,0,5,0,0,0,0,0,0,0,0,0,0.0,0.0,0.0,Hover,,lost,100.0,0,0,0,0,0,0,0,0,0,1,0,-22,335,1236,1280.0,NaN,66,78,1203,1207.0,NaN,124,70,399,-6,51,329,,,,,,,,,,,,,,,,,,,,,,,,,,,,,,,,,,,,,,,,0.0,,,,,,,,,,,,,,,,,,,,,,,,,,,,,,,,,,0.0,0.0,0.0,0.0,0.0,180.0,0.0,0.0,0.0,0,,Manual,OTHER,NONE,GPS_POSITION_NONMATCH,False,DisConnected,,P,False,False,False,0,0,,0.0,,0.0,0.0,0.0,0.0,NaN,NaN,NaN,0.0,0.0,0.0,0,0,0,17028,0,15.785525,12760.0,17035,-786,0,98,24,1,4261,0,0,0.0,0.0,
28907948,6.424,,,-58.42409,-0.0,,,0,NaN,0.0,0.0,0.21501441,-0.19400369,-0.9474963,0.9907663,-0.1306389,-0.16459855,-0.6175229,0.6522988,0.0,0.0,0.0,0.0,0.0,-25,335,1233,1277.0,24.52,0.0,NaN,NaN,NaN,0.0,NaN,NaN,0.0,0.0,0.0,-0.0,NaN,NaN,NaN,NaN,NaN,NaN,NaN,NaN,false,false,-0.7526863669090673,-0.29109804954179164,-0.09736737721044797,,0.0,,,0.0,0.0,0.0,0.0,0.0,0.0,0.0,0.0,0.0,0.0,-2200,2189,0,0,643,26.7254873,58.3895381,,,,,99.99,99.99,106675.42,0,0,0,,,,20240502,82407,79,0,0,0,0,Manual,0,0,0,0,0,30,50,0.0,0.0,0,5,0,0,0,0,0,0,0,0,0,0.0,0.0,0.0,Hover,,lost,100.0,0,0,0,0,0,0,0,0,0,1,0,-25,335,1233,1277.0,NaN,73,78,1212,1216.0,NaN,124,71,399,-4,51,331,,,,,,,,,,,,,,,,,,,,,,,,,,,,,,,,,,,,,,,,0.0,,,,,,,,,,,,,,,,,,,,,,,,,,,,,,,,,,0.0,0.0,0.0,0.0,0.0,180.0,0.0,0.0,0.0,0,,Manual,OTHER,NONE,GPS_POSITION_NONMATCH,False,DisConnected,,P,False,False,False,0,0,,0.0,,0.0,0.0,0.0,0.0,NaN,NaN,NaN,0.0,0.0,0.0,0,0,0,17028,0,15.785525,12760.0,17035,-786,0,98,24,1,4261,0,0,0.0,0.0,
29058692,6.457,,,-57.815384,-0.0,,,0,NaN,0.0,0.0,0.21661776,-0.19383475,-0.94570524,0.9893703,-0.21758015,-0.06666909,-0.44055468,0.49585715,0.0,0.0,0.0,0.0,0.0,-25,329,1236,1279.0,24.54,0.0,NaN,NaN,NaN,0.0,NaN,NaN,0.0,0.0,0.0,-0.0,NaN,NaN,NaN,NaN,NaN,NaN,NaN,NaN,false,false,-0.7705396604351549,-0.2989130228207848,-0.09960270624630674,,0.0,,,0.0,0.0,0.0,0.0,0.0,0.0,0.0,0.0,0.0,0.0,-2200,2190,0,0,657,26.7254873,58.3895381,,,,,99.99,99.99,106675.42,0,0,0,,,,20240502,82407,81,0,0,0,0,Manual,0,0,0,0,0,30,50,0.0,0.0,0,5,0,0,0,0,0,0,0,0,0,0.0,0.0,0.0,Hover,,lost,100.0,0,0,0,0,0,0,0,0,0,1,0,-25,329,1236,1279.0,NaN,73,78,1206,1210.0,NaN,124,68,399,-5,52,329,,,,,,,,,,,,,,,,,,,,,,,,,,,,,,,,,,,,,,,,0.0,,,,,,,,,,,,,,,,,,,,,,,,,,,,,,,,,,0.0,0.0,0.0,0.0,0.0,180.0,0.0,0.0,0.0,0,,Manual,OTHER,NONE,GPS_POSITION_NONMATCH,False,DisConnected,,P,False,False,False,0,0,,0.0,,0.0,0.0,0.0,0.0,NaN,NaN,NaN,0.0,0.0,0.0,0,0,0,17028,0,15.785525,12760.0,17035,-786,0,98,24,1,4261,0,0,0.0,0.0,
29209450,6.491,,,-58.24352,-0.0,,,0,NaN,0.0,0.0,0.21749653,-0.19274119,-0.9470019,0.99058896,-0.20736985,-0.19182728,-0.25376815,0.37973443,0.0,0.0,0.0,0.0,0.0,-22,341,1230,1276.0,24.52,0.0,NaN,NaN,NaN,0.0,NaN,NaN,0.0,0.0,0.0,-0.0,NaN,NaN,NaN,NaN,NaN,NaN,NaN,NaN,false,false,-0.7822910335905107,-0.3065709997221979,-0.10400661980226644,,0.0,,,0.0,0.0,0.0,0.0,0.0,0.0,0.0,0.0,0.0,0.0,-2200,2190,0,0,669,26.7254873,58.3895381,,,,,99.99,99.99,106675.52,0,0,0,,,,20240502,82407,83,0,0,0,0,Manual,0,0,0,0,0,30,50,0.0,0.0,0,5,0,0,0,0,0,0,0,0,0,0.0,0.0,0.0,Hover,,lost,100.0,0,0,0,0,0,0,0,0,0,1,0,-22,341,1230,1276.0,NaN,73,78,1206,1210.0,NaN,124,70,399,-4,51,329,,,,,,,,,,,,,,,,,,,,,,,,,,,,,,,,,,,,,,,,0.0,,,,,,,,,,,,,,,,,,,,,,,,,,,,,,,,,,0.0,0.0,0.0,0.0,0.0,180.0,0.0,0.0,0.0,0,,Manual,OTHER,NONE,GPS_POSITION_NONMATCH,False,DisConnected,,P,False,False,False,0,0,,0.0,,0.0,0.0,0.0,0.0,NaN,NaN,NaN,0.0,0.0,0.0,0,0,0,17029,0,15.785525,12760.0,17035,-786,0,98,24,1,4261,0,0,0.0,0.0,
29360201,6.524,,,-57.069084,-0.0,,,0,NaN,0.0,0.0,0.21527301,-0.19262716,-0.94617444,0.9892895,-0.13454077,-0.2366314,-0.47532576,0.5477502,0.0,0.0,0.0,0.0,0.0,-35,338,1236,1281.0,24.54,0.0,NaN,NaN,NaN,0.0,NaN,NaN,0.0,0.0,0.0,-0.0,NaN,NaN,NaN,NaN,NaN,NaN,NaN,NaN,false,false,-0.7979008923204489,-0.31333733649480133,-0.10864871084540972,,0.0,,,0.0,0.0,0.0,0.0,0.0,0.0,0.0,0.0,0.0,0.0,-2200,2190,0,0,683,26.7254873,58.3895381,,,,,99.99,99.99,106675.52,0,0,0,,,,20240502,82407,84,0,0,0,0,Manual,0,0,0,0,0,30,50,0.0,0.0,0,5,0,0,0,0,0,0,0,0,0,0.0,0.0,0.0,Hover,,lost,100.0,0,0,0,0,0,0,0,0,0,1,0,-35,338,1236,1281.0,NaN,73,78,1209,1213.0,NaN,121,72,399,-4,52,331,,,,,,,,,,,,,,,,,,,,,,,,,,,,,,,,,,,,,,,,0.0,,,,,,,,,,,,,,,,,,,,,,,,,,,,,,,,,,0.0,0.0,0.0,0.0,0.0,180.0,0.0,0.0,0.0,0,,Manual,OTHER,NONE,GPS_POSITION_NONMATCH,False,DisConnected,,P,False,False,False,0,0,,0.0,,0.0,0.0,0.0,0.0,NaN,NaN,NaN,0.0,0.0,0.0,0,0,0,17029,0,15.785525,12760.0,17035,-786,0,98,24,1,4261,0,0,0.0,0.0,
29510896,6.558,,,-58.067654,-0.0,,,0,NaN,0.0,0.0,0.21760312,-0.193523,-0.9465085,0.9902932,-0.369504,-0.25177574,-0.59055907,0.74073225,0.0,0.0,0.0,0.0,0.0,-28,335,1233,1278.0,24.54,0.0,NaN,NaN,NaN,0.0,NaN,NaN,0.0,0.0,0.0,-0.0,NaN,NaN,NaN,NaN,NaN,NaN,NaN,NaN,false,false,-0.8145017944252473,-0.32019028998057375,-0.11274469567311585,,0.0,,,0.0,0.0,0.0,0.0,0.0,0.0,0.0,0.0,0.0,0.0,-2200,2191,0,0,697,26.7254873,58.3895381,,,,,99.99,99.99,106675.52,0,0,0,,,,20240502,82407,86,0,0,0,0,Manual,0,0,0,0,0,30,50,0.0,0.0,0,5,0,0,0,0,0,0,0,0,0,0.0,0.0,0.0,Hover,,lost,100.0,0,0,0,0,0,0,0,0,0,1,0,-28,335,1233,1278.0,NaN,70,72,1209,1213.0,NaN,123,70,399,-4,49,331,,,,,,,,,,,,,,,,,,,,,,,,,,,,,,,,,,,,,,,,0.0,,,,,,,,,,,,,,,,,,,,,,,,,,,,,,,,,,0.0,0.0,0.0,0.0,0.0,180.0,0.0,0.0,0.0,0,,Manual,OTHER,NONE,GPS_POSITION_NONMATCH,False,DisConnected,,P,False,False,False,0,0,,0.0,,0.0,0.0,0.0,0.0,NaN,NaN,NaN,0.0,0.0,0.0,0,0,0,17030,0,15.785525,12760.0,17035,-786,0,98,24,1,4261,0,0,0.0,0.0,
29664351,6.592,,,-57.841553,-0.0,,,0,NaN,0.0,0.0,0.21701485,-0.1931565,-0.9454284,0.98906004,-0.25801545,-0.15716742,-0.49590445,0.5806848,0.0,0.0,0.0,0.0,0.0,-22,329,1230,1273.0,24.55,0.0,NaN,NaN,NaN,0.0,NaN,NaN,0.0,0.0,0.0,-0.0,NaN,NaN,NaN,NaN,NaN,NaN,NaN,NaN,false,false,-0.8278442175684688,-0.3294860925463119,-0.11881730616098729,,0.0,,,0.0,0.0,0.0,0.0,0.0,0.0,0.0,0.0,0.0,0.0,-2200,2191,0,0,709,26.7254873,58.3895381,,,,,99.99,99.99,106675.52,0,0,0,,,,20240502,82407,88,0,0,0,0,Manual,0,0,0,0,0,30,50,0.0,0.0,0,5,0,0,0,0,0,0,0,0,0,0.0,0.0,0.0,Hover,,lost,100.0,0,0,0,0,0,0,0,0,0,1,0,-22,329,1230,1273.0,NaN,70,72,1209,1213.0,NaN,124,70,398,-4,49,330,,,,,,,,,,,,,,,,,,,,,,,,,,,,,,,,,,,,,,,,0.0,,,,,,,,,,,,,,,,,,,,,,,,,,,,,,,,,,0.0,0.0,0.0,0.0,0.0,180.0,0.0,0.0,0.0,0,,Manual,OTHER,NONE,GPS_POSITION_NONMATCH,False,DisConnected,,P,False,False,False,0,0,,0.0,,0.0,0.0,0.0,0.0,NaN,NaN,NaN,0.0,0.0,0.0,0,0,0,17031,0,71.99806,12760.0,17062,-786,0,98,24,1,4261,0,0,0.0,0.0,
